$GPRMC,085325.00,A,2458.01296,N,12111.23884,E,0.730,,090621,,,A*71
$GPVTG,,T,,M,0.730,N,1.352,K,A*22
$GPGGA,085325.00,2458.01296,N,12111.23884,E,1,05,1.62,278.1,M,16.4,M,,*5A
$GPGSA,A,3,02,19,05,20,25,,,,,,,,3.12,1.62,2.66*0F
$GPGSV,3,1,12,02,53,353,33,05,39,262,16,06,47,053,20,07,03,092,*79
$GPGSV,3,2,12,09,22,045,09,12,25,265,31,13,21,186,25,17,21,146,*72
$GPGSV,3,3,12,19,43,144,30,20,32,265,26,25,09,298,12,30,06,128,*71
$GPGLL,2458.01296,N,12111.23884,E,085325.00,A,A*60
$GPRMC,085326.00,A,2458.01170,N,12111.23782,E,0.776,,090621,,,A*72
$GPVTG,,T,,M,0.776,N,1.437,K,A*24
$GPGGA,085326.00,2458.01170,N,12111.23782,E,1,05,1.62,295.0,M,16.4,M,,*59
$GPGSA,A,3,02,19,05,20,25,,,,,,,,3.12,1.62,2.66*0F
$GPGSV,3,1,12,02,53,353,33,05,39,262,15,06,47,053,21,07,03,092,*7B
$GPGSV,3,2,12,09,22,045,08,12,25,265,29,13,21,186,26,17,21,146,04*7D
$GPGSV,3,3,12,19,43,144,30,20,32,265,25,25,09,298,12,30,06,128,*72
$GPGLL,2458.01170,N,12111.23782,E,085326.00,A,A*61
$GPRMC,085327.00,A,2458.01061,N,12111.23680,E,0.870,,090621,,,A*78
$GPVTG,,T,,M,0.870,N,1.611,K,A*2B
$GPGGA,085327.00,2458.01061,N,12111.23680,E,1,05,1.62,306.6,M,16.4,M,,*57
$GPGSA,A,3,02,19,05,20,25,,,,,,,,3.12,1.62,2.66*0F
$GPGSV,3,1,12,02,53,353,33,05,39,262,16,06,47,053,21,07,03,092,*78
$GPGSV,3,2,12,09,22,045,07,12,25,265,28,13,21,186,26,17,21,146,07*70
$GPGSV,3,3,12,19,43,144,30,20,32,265,25,25,09,298,11,30,06,128,*71
$GPGLL,2458.01061,N,12111.23680,E,085327.00,A,A*62
$GPRMC,085328.00,A,2458.00993,N,12111.23579,E,0.621,,090621,,,A*7D
$GPVTG,,T,,M,0.621,N,1.151,K,A*22
$GPGGA,085328.00,2458.00993,N,12111.23579,E,1,06,1.62,314.7,M,16.4,M,,*59
$GPGSA,A,3,02,19,05,20,17,25,,,,,,,3.12,1.62,2.66*09
$GPGSV,3,1,12,02,53,353,33,05,39,262,15,06,47,053,22,07,03,092,*78
$GPGSV,3,2,12,09,22,045,07,12,25,265,29,13,21,186,26,17,21,146,11*76
$GPGSV,3,3,12,19,43,144,30,20,32,265,24,25,09,298,14,30,06,128,*75
$GPGLL,2458.00993,N,12111.23579,E,085328.00,A,A*6D
$GPRMC,085329.00,A,2458.00915,N,12111.23496,E,0.257,,090621,,,A*77
$GPVTG,,T,,M,0.257,N,0.477,K,A*27
$GPGGA,085329.00,2458.00915,N,12111.23496,E,1,06,1.62,322.1,M,16.4,M,,*55
$GPGSA,A,3,02,19,05,20,17,25,,,,,,,3.12,1.62,2.66*09
$GPGSV,3,1,12,02,53,353,34,05,39,262,16,06,47,053,22,07,03,092,*7C
$GPGSV,3,2,12,09,22,045,,12,25,265,28,13,21,186,27,17,21,146,14*74
$GPGSV,3,3,12,19,43,144,30,20,32,265,25,25,09,298,15,30,06,128,*75
$GPGLL,2458.00915,N,12111.23496,E,085329.00,A,A*62
$GPRMC,085330.00,A,2458.00805,N,12111.23381,E,0.673,,090621,,,A*7C
$GPVTG,,T,,M,0.673,N,1.246,K,A*20
$GPGGA,085330.00,2458.00805,N,12111.23381,E,1,06,1.62,334.2,M,16.4,M,,*58
$GPGSA,A,3,02,19,05,20,17,25,,,,,,,3.12,1.62,2.66*09
$GPGSV,4,1,13,02,53,353,33,05,39,262,17,06,47,053,21,07,03,092,*7F
$GPGSV,4,2,13,09,22,045,,12,25,265,27,13,21,186,27,17,21,146,14*7D
$GPGSV,4,3,13,19,43,144,30,20,32,265,25,25,09,298,14,30,06,128,*72
$GPGSV,4,4,13,50,51,133,32*4A
$GPGLL,2458.00805,N,12111.23381,E,085330.00,A,A*6B
$GPRMC,085331.00,A,2458.00774,N,12111.23422,E,0.822,,090621,,,A*70
$GPVTG,,T,,M,0.822,N,1.522,K,A*2F
$GPGGA,085331.00,2458.00774,N,12111.23422,E,1,06,1.42,335.9,M,16.4,M,,*56
$GPGSA,A,3,02,19,05,20,17,25,,,,,,,2.49,1.42,2.05*01
$GPGSV,4,1,13,02,53,353,33,05,39,262,17,06,47,053,22,07,03,092,*7C
$GPGSV,4,2,13,09,22,045,,12,25,265,27,13,21,186,27,17,21,146,15*7C
$GPGSV,4,3,13,19,43,144,30,20,32,265,23,25,09,298,13,30,06,128,*73
$GPRMC,085332.00,A,2458.00751,N,12111.23453,E,1.625,,090621,,,A*7A
$GPVTG,,T,,M,1.625,N,3.009,K,A*29
$GPRMC,085333.00,A,2458.00761,N,12111.23514,E,1.356,,090621,,,A*7B
$GPVTG,,T,,M,1.356,N,2.510,K,A*24
$GPGGA,085333.00,2458.00761,N,12111.23514,E,1,06,1.42,334.6,M,16.4,M,,*5A
$GPRMC,085334.00,A,2458.00817,N,12111.23627,E,0.420,,090621,,,A*76
$GPVTG,,T,,M,0.420,N,0.778,K,A*2D
$GPGGA,085334.00,2458.00817,N,12111.23627,E,1,06,1.42,330.7,M,16.4,M,,*55
$GPGSA,A,3,02,19,05,20,17,25,,,,,,,2.49,1.42,2.05*01
$GPGSV,4,1,13,02,53,353,33,05,39,262,14,06,47,053,23,07,03,092,*7E
$GPGSV,4,2,13,09,22,045,,12,25,265,30,13,21,186,27,17,20,146,14*7A
$GPGSV,4,3,13,19,43,144,30,20,32,265,18,25,09,298,15,30,06,128,*7D
$GPRMC,085335.00,A,2458.00910,N,12111.23714,E,0.426,,090621,,,A*76
$GPVTG,,T,,M,0.426,N,0.789,K,A*25
$GPGGA,085335.00,2458.00910,N,12111.23714,E,1,06,1.42,323.0,M,16.4,M,,*56
$GPGSA,A,3,02,19,05,20,17,25,,,,,,,2.49,1.42,2.05*01
$GPGSV,4,1,13,02,53,353,32,05,39,262,16,06,47,053,23,07,03,092,*7D
$GPGSV,4,2,13,09,22,045,08,12,25,265,30,13,21,186,27,17,20,146,12*74
$GPGSV,4,3,13,19,43,144,30,20,32,265,16,25,09,298,17,30,06,128,*71
$GPRMC,085336.00,A,2458.01048,N,12111.23821,E,1.018,,090621,,,A*71
$GPVTG,,T,,M,1.018,N,1.885,K,A*2F
$GPGGA,085336.00,2458.01048,N,12111.23821,E,1,07,1.42,308.9,M,16.4,M,,*58
$GPRMC,085337.00,A,2458.01256,N,12111.24026,E,0.347,,090621,,,A*7D
$GPVTG,,T,,M,0.347,N,0.643,K,A*22
$GPGGA,085337.00,2458.01256,N,12111.24026,E,1,07,1.42,288.5,M,16.4,M,,*59
$GPGSA,A,3,02,19,05,20,09,17,25,,,,,,2.49,1.42,2.05*08
$GPRMC,085338.00,A,2458.01541,N,12111.24363,E,0.621,,090621,,,A*74
$GPVTG,,T,,M,0.621,N,1.150,K,A*23
$GPGGA,085338.00,2458.01541,N,12111.24363,E,1,07,0.95,263.1,M,16.4,M,,*5F
$GPGSA,A,3,02,19,05,20,09,17,25,,,,,,2.09,0.95,1.86*0F
$GPRMC,085339.00,A,2458.01710,N,12111.24547,E,0.463,,090621,,,A*77
$GPVTG,,T,,M,0.463,N,0.858,K,A*27
$GPGGA,085339.00,2458.01710,N,12111.24547,E,1,07,0.95,246.0,M,16.4,M,,*5E
$GPRMC,085340.00,A,2458.01800,N,12111.24639,E,0.615,,090621,,,A*7E
$GPVTG,,T,,M,0.615,N,1.139,K,A*2B
$GPGGA,085340.00,2458.01800,N,12111.24639,E,1,07,0.95,234.9,M,16.4,M,,*58
$GPGSA,A,3,02,19,05,20,09,17,25,,,,,,2.09,0.95,1.86*0F
$GPGSV,4,1,13,02,53,353,32,05,39,262,29,06,47,053,24,07,03,092,*76
$GPRMC,085341.00,A,2458.01837,N,12111.24591,E,0.334,,090621,,,A*7C
$GPVTG,,T,,M,0.334,N,0.618,K,A*28
$GPRMC,085345.57,V,,,,,,,090621,,,N*7C
$GPVTG,,,,,,,,,N*30
$GPGGA,085345.57,,,,,0,00,99.99,,,,,,*6B
$GPGSA,A,1,,,,,,,,,,,,,99.99,99.99,99.99*30
$GPGSV,3,1,12,02,53,353,,05,39,262,,06,47,053,,07,03,091,*7F
$GPGSV,3,2,12,09,21,045,,12,25,265,,13,21,186,,17,20,146,*7C
$GPGSV,3,3,12,19,43,144,,20,32,265,,25,09,298,,30,06,127,*7A
$GPGLL,,,,,085345.57,V,N*47
$GPRMC,085346.00,V,,,,,,,090621,,,N*7D
$GPVTG,,,,,,,,,N*30
$GPGGA,085346.00,,,,,0,00,99.99,,,,,,*6A
$GPGSA,A,1,,,,,,,,,,,,,99.99,99.99,99.99*30
$GPGSV,3,1,12,02,53,353,27,05,39,262,32,06,47,053,,07,03,091,*7B
$GPGSV,3,2,12,09,21,045,,12,25,265,33,13,21,186,,17,20,146,*7C
$GPGSV,3,3,12,19,43,144,,20,32,265,26,25,09,298,,30,06,127,*7E
$GPGLL,,,,,085346.00,V,N*46
$GPRMC,085347.00,V,,,,,,,090621,,,N*7C
$GPVTG,,,,,,,,,N*30
$GPGGA,085347.00,,,,,0,05,20.25,,,,,,*6B
$GPGSA,A,1,02,05,20,12,13,,,,,,,,20.27,20.25,1.00*07
$GPGSV,3,1,12,02,53,353,29,05,39,262,32,06,47,053,,07,03,091,*75
$GPGSV,3,2,12,09,21,045,,12,25,265,33,13,21,186,20,17,20,146,*7E
$GPGSV,3,3,12,19,43,144,,20,32,265,32,25,09,298,,30,06,127,*7B
$GPGLL,,,,,085347.00,V,N*47
$GPRMC,085348.00,V,,,,,,,090621,,,N*73
$GPVTG,,,,,,,,,N*30
$GPGGA,085348.00,,,,,0,03,20.25,,,,,,*62
$GPGSA,A,1,02,05,20,,,,,,,,,,20.27,20.25,1.00*06
$GPGSV,3,1,12,02,53,353,29,05,39,262,34,06,47,053,,07,03,091,*73
$GPGSV,3,2,12,09,21,045,,12,25,265,35,13,21,186,22,17,20,146,*7A
$GPGSV,3,3,12,19,43,144,,20,32,265,35,25,09,298,,30,06,127,*7C
$GPGLL,,,,,085348.00,V,N*48
$GPRMC,085349.00,V,,,,,,,090621,,,N*72
$GPVTG,,,,,,,,,N*30
$GPGGA,085349.00,,,,,0,03,20.25,,,,,,*63
$GPGSA,A,1,02,05,20,,,,,,,,,,20.28,20.25,1.00*09
$GPGSV,3,1,12,02,53,353,29,05,39,262,30,06,47,053,,07,03,091,*77
$GPGSV,3,2,12,09,21,045,,12,25,265,28,13,21,186,25,17,20,146,*71
$GPGSV,3,3,12,19,43,144,,20,32,265,29,25,09,298,,30,06,127,*71
$GPGLL,,,,,085349.00,V,N*49
$GPRMC,085350.00,V,,,,,,,090621,,,N*7A
$GPVTG,,,,,,,,,N*30
$GPGGA,085350.00,,,,,0,03,20.26,,,,,,*68
$GPGSA,A,1,02,05,20,,,,,,,,,,20.28,20.26,1.00*0A
$GPGSV,3,1,12,02,53,353,33,05,39,262,30,06,47,053,,07,03,091,*7C
$GPGSV,3,2,12,09,21,045,,12,25,265,29,13,21,186,25,17,20,146,*70
$GPGSV,3,3,12,19,43,144,,20,32,265,29,25,09,298,,30,06,127,*71
$GPGLL,,,,,085350.00,V,N*41
$GPRMC,085351.00,V,,,,,,,090621,,,N*7B
$GPVTG,,,,,,,,,N*30
$GPGGA,085351.00,,,,,0,04,20.26,,,,,,*6E
$GPGSA,A,1,02,19,05,20,,,,,,,,,20.28,20.26,1.00*02
$GPGSV,3,1,12,02,53,353,33,05,39,262,29,06,47,053,,07,03,091,*74
$GPGSV,3,2,12,09,21,045,,12,25,265,29,13,21,186,25,17,20,146,*70
$GPGSV,3,3,12,19,43,144,21,20,32,265,19,25,09,298,,30,06,127,*71
$GPGLL,,,,,085351.00,V,N*40
$GPRMC,085352.00,V,,,,,,,090621,,,N*78
$GPVTG,,,,,,,,,N*30
$GPGGA,085352.00,,,,,0,04,20.26,,,,,,*6D
$GPGSA,A,1,02,19,05,20,,,,,,,,,20.29,20.26,1.00*03
$GPGSV,3,1,12,02,53,353,33,05,39,262,29,06,47,053,,07,03,091,*74
$GPGSV,3,2,12,09,21,045,,12,25,265,29,13,21,186,25,17,20,146,*70
$GPGSV,3,3,12,19,43,144,21,20,32,265,27,25,09,298,,30,06,127,*7C
$GPGLL,,,,,085352.00,V,N*43
$GPRMC,085353.00,V,,,,,,,090621,,,N*79
$GPVTG,,,,,,,,,N*30
$GPGGA,085353.00,,,,,0,04,20.26,,,,,,*6C
$GPGSA,A,1,02,19,05,20,,,,,,,,,20.29,20.26,1.00*03
$GPGSV,3,1,12,02,53,353,32,05,39,262,34,06,47,053,,07,03,091,*79
$GPGSV,3,2,12,09,21,045,,12,25,265,29,13,21,186,23,17,20,146,*76
$GPGSV,3,3,12,19,43,144,17,20,32,265,33,25,09,298,,30,06,127,*7C
$GPGLL,,,,,085353.00,V,N*42
$GPRMC,085354.00,V,,,,,,,090621,,,N*7E
$GPVTG,,,,,,,,,N*30
$GPGGA,085354.00,,,,,0,04,3.91,,,,,,*56
$GPGSA,A,1,02,19,05,20,,,,,,,,,16.99,3.91,16.53*00
$GPGSV,3,1,12,02,53,353,18,05,39,262,30,06,47,053,,07,03,091,*75
$GPGSV,3,2,12,09,21,045,,12,25,265,30,13,21,186,24,17,20,146,*79
$GPGSV,3,3,12,19,43,144,16,20,32,265,25,25,09,298,,30,06,127,*7A
$GPGLL,,,,,085354.00,V,N*45
$GPRMC,085355.00,V,,,,,,,090621,,,N*7F
$GPVTG,,,,,,,,,N*30
$GPGGA,085355.00,,,,,0,04,1.57,,,,,,*5F
$GPGSA,A,1,02,19,05,20,,,,,,,,,1.86,1.57,1.00*00
$GPGSV,3,1,12,02,53,353,32,05,39,262,33,06,47,053,,07,03,091,*7E
$GPGSV,3,2,12,09,21,045,,12,25,265,30,13,21,186,22,17,20,146,*7F
$GPRMC,085356.00,V,,,,,,,090621,,,N*7C
$GPVTG,,,,,,,,,N*30
$GPGGA,085356.00,,,,,0,04,3.91,,,,,,*54
$GPRMC,085357.00,V,,,,,,,090621,,,N*7D
$GPVTG,,,,,,,,,N*30
$GPRMC,085400.24,V,,,,,,,090621,,,N*7E
$GPVTG,,,,,,,,,N*30
$GPGGA,085400.24,,,,,0,00,99.99,,,,,,*69
$GPGSA,A,1,,,,,,,,,,,,,99.99,99.99,99.99*30
$GPGSV,4,1,13,02,53,354,,05,39,262,,06,47,054,,07,03,091,*79
$GPGSV,4,2,13,09,21,045,,12,25,265,,13,21,186,,15,00,209,*72
$GPGSV,4,3,13,17,20,146,,19,43,144,,20,32,265,,25,09,298,*7A
$GPGSV,4,4,13,30,06,127,*4A
$GPGLL,,,,,085400.24,V,N*45
$GPRMC,085401.00,V,,,,,,,090621,,,N*79
$GPVTG,,,,,,,,,N*30
$GPGGA,085401.00,,,,,0,00,99.99,,,,,,*6E
$GPGSA,A,1,,,,,,,,,,,,,99.99,99.99,99.99*30
$GPGSV,4,1,13,02,53,354,29,05,39,262,32,06,47,054,,07,03,091,*73
$GPGSV,4,2,13,09,21,045,,12,25,265,,13,21,186,,15,00,209,*72
$GPGSV,4,3,13,17,20,146,,19,43,144,,20,32,265,27,25,09,298,*7F
$GPGSV,4,4,13,30,06,127,19*42
$GPGLL,,,,,085401.00,V,N*42
$GPRMC,085401.50,V,,,,,,,090621,,,N*7C
$GPVTG,,,,,,,,,N*30
$GPGGA,085401.50,,,,,0,04,20.29,,,,,,*66
$GPGSA,A,1,02,05,20,25,,,,,,,,,20.31,20.29,1.00*0A
$GPGSV,4,1,13,02,53,354,30,05,39,262,36,06,47,054,,07,03,091,*7F
$GPGSV,4,2,13,09,21,045,,12,25,265,34,13,21,186,,15,00,209,*75
$GPGSV,4,3,13,17,20,146,,19,43,144,,20,32,265,33,25,09,298,22*7A
$GPGSV,4,4,13,30,06,127,18*43
$GPGLL,,,,,085401.50,V,N*47
$GPRMC,085402.00,V,,,,,,,090621,,,N*7A
$GPVTG,,,,,,,,,N*30
$GPGGA,085402.00,,,,,0,04,20.29,,,,,,*60
$GPGSA,A,1,02,05,20,25,,,,,,,,,20.32,20.29,1.00*09
$GPGSV,4,1,13,02,53,354,30,05,39,262,36,06,47,054,,07,03,091,*7F
$GPGSV,4,2,13,09,21,045,,12,25,265,29,13,21,186,22,15,00,209,*79
$GPGSV,4,3,13,17,20,146,,19,43,144,,20,32,265,29,25,09,298,21*72
$GPGSV,4,4,13,30,06,127,17*4C
$GPGLL,,,,,085402.00,V,N*41
$GPRMC,085403.32,V,,,,,,,090621,,,N*7A
$GPVTG,,,,,,,,,N*30
$GPGGA,085403.32,,,,,0,00,99.99,,,,,,*6D
$GPGSA,A,1,,,,,,,,,,,,,99.99,99.99,99.99*30
$GPGSV,4,1,13,02,53,354,,05,39,263,,06,47,054,,07,03,091,*78
$GPGSV,4,2,13,09,21,045,,12,25,265,,13,21,186,,15,00,209,*72
$GPGSV,4,3,13,17,20,146,,19,43,144,,20,32,265,,25,09,297,*75
$GPGSV,4,4,13,30,06,127,*4A
$GPGLL,,,,,085403.32,V,N*41
$GPRMC,085404.00,V,,,,,,,090621,,,N*7C
$GPVTG,,,,,,,,,N*30
$GPGGA,085404.00,,,,,0,05,20.30,,,,,,*6F
$GPGSA,A,1,02,19,05,20,12,,,,,,,,20.32,20.30,1.00*0D
$GPGSV,4,1,13,02,53,354,33,05,39,263,34,06,47,054,,07,03,091,*7F
$GPGSV,4,2,13,09,21,045,,12,25,265,31,13,21,186,,15,00,209,*70
$GPGSV,4,3,13,17,20,146,,19,43,144,25,20,32,265,34,25,09,297,*75
$GPGSV,4,4,13,30,06,127,*4A
$GPGLL,,,,,085404.00,V,N*47
$GPRMC,085405.46,V,,,,,,,090621,,,N*7F
$GPVTG,,,,,,,,,N*30
$GPGGA,085405.46,,,,,0,00,99.99,,,,,,*68
$GPGSA,A,1,,,,,,,,,,,,,99.99,99.99,99.99*30
$GPGSV,4,1,13,02,53,354,,05,39,263,,06,47,054,,07,03,091,*78
$GPGSV,4,2,13,09,21,045,,12,25,265,,13,21,186,,15,00,209,*72
$GPGSV,4,3,13,17,20,146,,19,43,144,,20,32,265,,25,09,297,*75
$GPGSV,4,4,13,30,06,127,*4A
$GPGLL,,,,,085405.46,V,N*44
$GPRMC,085406.00,V,,,,,,,090621,,,N*7E
$GPVTG,,,,,,,,,N*30
$GPGGA,085406.00,,,,,0,00,99.99,,,,,,*69
$GPGSA,A,1,,,,,,,,,,,,,99.99,99.99,99.99*30
$GPGSV,4,1,13,02,53,354,,05,39,263,28,06,47,054,,07,03,091,*72
$GPGSV,4,2,13,09,21,045,,12,25,265,31,13,21,186,,15,00,209,*70
$GPGSV,4,3,13,17,20,146,,19,43,144,,20,32,265,,25,09,297,*75
$GPGSV,4,4,13,30,06,127,*4A
$GPGLL,,,,,085406.00,V,N*45
$GPRMC,085407.00,V,,,,,,,090621,,,N*7F
$GPVTG,,,,,,,,,N*30
$GPGGA,085407.00,,,,,0,00,99.99,,,,,,*68
$GPGSA,A,1,,,,,,,,,,,,,99.99,99.99,99.99*30
$GPGSV,4,1,13,02,53,354,25,05,39,263,29,06,47,054,,07,03,091,*74
$GPGSV,4,2,13,09,21,045,,12,25,265,27,13,21,186,20,15,00,209,*75
$GPGSV,4,3,13,17,20,146,,19,43,144,,20,32,265,28,25,09,297,*7F
$GPGSV,4,4,13,30,06,127,*4A
$GPGLL,,,,,085407.00,V,N*44
$GPRMC,085408.00,V,,,,,,,090621,,,N*70
$GPVTG,,,,,,,,,N*30
$GPGGA,085408.00,,,,,0,05,20.31,,,,,,*62
$GPGSA,A,1,02,05,20,12,13,,,,,,,,20.33,20.31,1.00*07
$GPGSV,4,1,13,02,53,354,27,05,39,263,30,06,47,054,,07,03,091,*7E
$GPGSV,4,2,13,09,21,045,,12,25,265,29,13,21,186,21,15,00,209,*7A
$GPGSV,4,3,13,17,20,146,,19,43,144,,20,32,265,29,25,09,297,*7E
$GPGSV,4,4,13,30,06,127,*4A
$GPGLL,,,,,085408.00,V,N*4B
$GPRMC,085413.00,V,,,,,,,090621,,,N*7A
$GPVTG,,,,,,,,,N*30
$GPGGA,085413.00,,,,,0,04,20.32,,,,,,*6A
$GPGSA,A,1,02,05,20,25,,,,,,,,,20.35,20.32,1.00*04
$GPGSV,4,1,13,02,53,354,26,05,39,263,29,06,47,054,,07,03,091,*77
$GPGSV,4,2,13,09,21,045,,12,25,265,27,13,21,186,22,15,00,209,*77
$GPGSV,4,3,13,17,20,146,,19,43,144,,20,32,265,30,25,09,297,18*7F
$GPGSV,4,4,13,30,06,127,*4A
$GPGLL,,,,,085413.00,V,N*41
$GPRMC,085414.00,V,,,,,,,090621,,,N*7D
$GPVTG,,,,,,,,,N*30
$GPGGA,085414.00,,,,,0,04,99.99,,,,,,*6E
$GPGSA,A,1,02,05,20,25,,,,,,,,,99.99,99.99,99.99*32
$GPGSV,4,1,13,02,53,354,27,05,39,263,29,06,47,054,,07,03,091,*76
$GPGSV,4,2,13,09,21,045,,12,25,265,28,13,21,186,22,15,00,209,*78
$GPGSV,4,3,13,17,20,146,,19,43,144,,20,32,265,29,25,09,297,19*76
$GPGSV,4,4,13,30,06,127,*4A
$GPGLL,,,,,085414.00,V,N*46
$GPRMC,085415.00,V,,,,,,,090621,,,N*7C
$GPVTG,,,,,,,,,N*30
$GPGGA,085415.00,,,,,0,04,99.99,,,,,,*6F
$GPGSA,A,1,02,05,20,25,,,,,,,,,99.99,99.99,99.99*32
$GPGSV,4,1,13,02,53,354,27,05,39,263,29,06,47,054,,07,03,091,*76
$GPGSV,4,2,13,09,21,045,,12,25,265,27,13,21,186,22,15,00,209,*77
$GPGSV,4,3,13,17,20,146,,19,43,144,,20,32,265,29,25,09,297,20*7C
$GPGSV,4,4,13,30,06,127,*4A
$GPGLL,,,,,085415.00,V,N*47
$GPRMC,085416.00,V,,,,,,,090621,,,N*7F
$GPVTG,,,,,,,,,N*30
$GPGGA,085416.00,,,,,0,04,99.99,,,,,,*6C
$GPGSA,A,1,02,05,20,25,,,,,,,,,99.99,99.99,99.99*32
$GPGSV,4,1,13,02,53,354,27,05,39,263,29,06,47,054,,07,03,091,*76
$GPGSV,4,2,13,09,21,045,,12,25,265,27,13,21,186,22,15,00,209,*77
$GPGSV,4,3,13,17,20,146,,19,43,144,,20,32,265,29,25,09,297,20*7C
$GPGSV,4,4,13,30,06,127,*4A
$GPGLL,,,,,085416.00,V,N*44
$GPRMC,085417.00,V,,,,,,,090621,,,N*7E
$GPVTG,,,,,,,,,N*30
$GPGGA,085417.00,,,,,0,04,99.99,,,,,,*6D
$GPGSA,A,1,02,05,20,25,,,,,,,,,99.99,99.99,99.99*32
$GPGSV,4,1,13,02,53,354,27,05,39,263,29,06,47,054,,07,03,091,*76
$GPGSV,4,2,13,09,21,045,,12,25,265,27,13,21,186,22,15,00,209,*77
$GPGSV,4,3,13,17,20,146,,19,43,144,,20,32,265,29,25,09,297,21*7D
$GPGSV,4,4,13,30,06,127,*4A
$GPGLL,,,,,085417.00,V,N*45
$GPRMC,085418.00,V,,,,,,,090621,,,N*71
$GPVTG,,,,,,,,,N*30
$GPGGA,085418.00,,,,,0,04,99.99,,,,,,*62
$GPGSA,A,1,02,05,20,25,,,,,,,,,99.99,99.99,99.99*32
$GPGSV,4,1,13,02,53,354,28,05,39,263,28,06,47,054,,07,03,091,*78
$GPGSV,4,2,13,09,21,045,,12,25,265,26,13,21,186,23,15,00,209,*77
$GPGSV,4,3,13,17,20,146,,19,43,144,,20,32,265,29,25,09,297,21*7D
$GPGSV,4,4,13,30,06,127,*4A
$GPGLL,,,,,085418.00,V,N*4A
$GPRMC,085419.00,V,,,,,,,090621,,,N*70
$GPVTG,,,,,,,,,N*30
$GPGGA,085419.00,,,,,0,04,99.99,,,,,,*63
$GPGSA,A,1,02,05,20,25,,,,,,,,,99.99,99.99,99.99*32
$GPGSV,4,1,13,02,53,354,28,05,39,263,28,06,47,054,,07,03,091,*78
$GPRMC,085420.00,V,,,,,,,090621,,,N*7A
$GPVTG,,,,,,,,,N*30
$GPGGA,085420.00,,,,,0,04,99.99,,,,,,*69
$GPRMC,085421.00,V,,,,,,,090621,,,N*7B
$GPVTG,,,,,,,,,N*30
$GPRMC,085422.00,V,,,,,,,090621,,,N*78
$GPVTG,,,,,,,,,N*30
$GPGGA,085422.00,,,,,0,04,99.99,,,,,,*6B
$GPGSA,A,1,02,05,20,25,,,,,,,,,99.99,99.99,99.99*32
$GPGSV,4,1,13,02,53,354,27,05,39,263,27,06,47,054,,07,03,091,*78
$GPRMC,085425.73,V,,,,,,,090621,,,N*7B
$GPVTG,,,,,,,,,N*30
$GPGGA,085425.73,,,,,0,00,99.99,,,,,,*6C
$GPGSA,A,1,,,,,,,,,,,,,99.99,99.99,99.99*30
$GPGSV,4,1,13,02,53,354,,05,39,263,,06,47,054,,07,03,091,*78
$GPGSV,4,2,13,09,21,045,,12,25,265,,13,21,186,,15,00,209,*72
$GPGSV,4,3,13,17,20,146,,19,43,145,,20,32,265,,25,09,297,*74
$GPGSV,4,4,13,30,06,127,*4A
$GPGLL,,,,,085425.73,V,N*40
$GPRMC,085426.00,V,,,,,,,090621,,,N*7C
$GPVTG,,,,,,,,,N*30
$GPGGA,085426.00,,,,,0,00,99.99,,,,,,*6B
$GPGSA,A,1,,,,,,,,,,,,,99.99,99.99,99.99*30
$GPGSV,4,1,13,02,53,354,36,05,39,263,37,06,47,054,,07,03,091,*79
$GPGSV,4,2,13,09,21,045,,12,25,265,,13,21,186,,15,00,209,*72
$GPGSV,4,3,13,17,20,146,,19,43,145,,20,32,265,40,25,09,297,*70
$GPGSV,4,4,13,30,06,127,*4A
$GPGLL,,,,,085426.00,V,N*47
$GPRMC,085426.50,V,,,,,,,090621,,,N*79
$GPVTG,,,,,,,,,N*30
$GPGGA,085426.50,,,,,0,05,20.36,,,,,,*6C
$GPGSA,A,1,02,19,05,20,25,,,,,,,,20.39,20.36,1.00*04
$GPGSV,4,1,13,02,53,354,36,05,39,263,39,06,47,054,,07,03,091,*77
$GPGSV,4,2,13,09,21,045,,12,25,265,,13,21,186,,15,00,209,*72
$GPGSV,4,3,13,17,20,146,,19,43,145,23,20,32,265,41,25,09,297,25*77
$GPGSV,4,4,13,30,06,127,*4A
$GPGLL,,,,,085426.50,V,N*42
$GPRMC,085431.26,V,,,,,,,090621,,,N*7E
$GPVTG,,,,,,,,,N*30
$GPGGA,085431.26,,,,,0,00,99.99,,,,,,*69
$GPGSA,A,1,,,,,,,,,,,,,99.99,99.99,99.99*30
$GPGSV,4,1,13,02,53,354,,05,39,263,,06,47,054,,07,03,091,*78
$GPGSV,4,2,13,09,21,045,,12,25,265,,13,21,186,,15,00,209,*72
$GPGSV,4,3,13,17,20,146,,19,43,145,,20,32,265,,25,09,297,*74
$GPGSV,4,4,13,30,06,127,*4A
$GPGLL,,,,,085431.26,V,N*45
$GPRMC,085434.40,V,,,,,,,090621,,,N*7B
$GPVTG,,,,,,,,,N*30
$GPGGA,085434.40,,,,,0,00,99.99,,,,,,*6C
$GPGSA,A,1,,,,,,,,,,,,,99.99,99.99,99.99*30
$GPGSV,4,1,13,02,53,354,,05,39,263,,06,47,054,,07,03,091,*78
$GPGSV,4,2,13,09,21,045,,12,25,265,,13,21,186,,15,00,209,*72
$GPGSV,4,3,13,17,20,146,,19,43,145,,20,33,266,,25,09,297,*76
$GPGSV,4,4,13,30,06,127,*4A
$GPGLL,,,,,085434.40,V,N*40
$GPRMC,085441.71,V,,,,,,,090621,,,N*7B
$GPVTG,,,,,,,,,N*30
$GPGGA,085441.71,,,,,0,00,99.99,,,,,,*6C
$GPGSA,A,1,,,,,,,,,,,,,99.99,99.99,99.99*30
$GPGSV,4,1,13,02,53,354,,05,39,263,,06,47,054,,07,03,091,*78
$GPGSV,4,2,13,09,21,045,,12,25,265,,13,21,186,,15,00,209,*72
$GPRMC,085442.60,V,,,,,,,090621,,,N*78
$GPVTG,,,,,,,,,N*30
$GPGGA,085442.60,,,,,0,00,99.99,,,,,,*6F
$GPGSA,A,1,,,,,,,,,,,,,99.99,99.99,99.99*30
$GPGSV,4,1,13,02,53,354,,05,39,263,,06,47,054,,07,03,091,*78
$GPGSV,4,2,13,09,21,045,,12,25,265,,13,21,186,,15,00,209,*72
$GPGSV,4,3,13,17,20,146,,19,42,145,,20,33,266,,25,09,297,*77
$GPGSV,4,4,13,30,06,127,*4A
$GPGLL,,,,,085442.60,V,N*43
$GPRMC,085443.00,V,,,,,,,090621,,,N*7F
$GPVTG,,,,,,,,,N*30
$GPGGA,085443.00,,,,,0,03,20.41,,,,,,*6C
$GPGSA,A,1,02,05,20,,,,,,,,,,20.43,20.41,1.00*06
$GPGSV,4,1,13,02,53,354,36,05,39,263,31,06,47,054,,07,03,091,*7F
$GPGSV,4,2,13,09,21,045,,12,25,265,,13,21,186,,15,00,209,*72
$GPGSV,4,3,13,17,20,146,,19,42,145,,20,33,266,39,25,09,297,*7D
$GPGSV,4,4,13,30,06,127,*4A
$GPGLL,,,,,085443.00,V,N*44
$GPRMC,085444.00,V,,,,,,,090621,,,N*78
$GPVTG,,,,,,,,,N*30
$GPGGA,085444.00,,,,,0,04,20.42,,,,,,*6F
$GPGSA,A,1,02,05,20,25,,,,,,,,,20.44,20.42,1.00*05
$GPGSV,4,1,13,02,53,354,37,05,39,263,37,06,47,054,,07,03,091,*78
$GPGSV,4,2,13,09,21,045,,12,25,265,,13,21,186,37,15,00,209,*76
$GPGSV,4,3,13,17,20,146,,19,42,145,,20,33,266,40,25,09,297,25*74
$GPGSV,4,4,13,30,06,127,*4A
$GPGLL,,,,,085444.00,V,N*43
$GPRMC,085445.00,V,,,,,,,090621,,,N*79
$GPVTG,,,,,,,,,N*30
$GPGGA,085445.00,,,,,0,04,20.42,,,,,,*6E
$GPGSA,A,1,02,05,20,25,,,,,,,,,20.44,20.42,1.00*05
$GPGSV,4,1,13,02,53,354,37,05,39,263,38,06,47,054,22,07,03,091,*77
$GPGSV,4,2,13,09,21,045,,12,25,265,39,13,21,186,39,15,00,209,*72
$GPGSV,4,3,13,17,20,146,,19,42,145,,20,33,266,41,25,09,297,25*75
$GPGSV,4,4,13,30,06,127,*4A
$GPGLL,,,,,085445.00,V,N*42
$GPRMC,085446.00,V,,,,,,,090621,,,N*7A
$GPVTG,,,,,,,,,N*30
$GPGGA,085446.00,,,,,0,04,99.99,,,,,,*69
$GPGSA,A,1,02,05,20,25,,,,,,,,,99.99,99.99,99.99*32
$GPGSV,4,1,13,02,53,354,37,05,39,263,37,06,47,054,23,07,03,091,*79
$GPGSV,4,2,13,09,21,045,,12,25,265,39,13,21,186,38,15,00,209,*73
$GPGSV,4,3,13,17,20,146,,19,42,145,,20,33,266,41,25,09,297,24*74
$GPGSV,4,4,13,30,06,127,20*48
$GPGLL,,,,,085446.00,V,N*41
$GPRMC,085447.00,V,,,,,,,090621,,,N*7B
$GPVTG,,,,,,,,,N*30
$GPGGA,085447.00,,,,,0,05,99.99,,,,,,*69
$GPGSA,A,1,02,05,20,17,25,,,,,,,,99.99,99.99,99.99*34
$GPGSV,4,1,13,02,53,354,37,05,39,263,39,06,47,054,24,07,03,091,*70
$GPGSV,4,2,13,09,21,045,,12,25,265,40,13,21,186,39,15,00,209,*7C
$GPGSV,4,3,13,17,20,146,19,19,42,145,,20,33,266,42,25,09,297,26*7D
$GPGSV,4,4,13,30,06,127,22*4A
$GPGLL,,,,,085447.00,V,N*40
$GPRMC,085448.00,V,,,,,,,090621,,,N*74
$GPVTG,,,,,,,,,N*30
$GPRMC,085536.00,A,2458.02219,N,12111.25064,E,0.071,,090621,,,A*73
$GPVTG,,T,,M,0.071,N,0.131,K,A*26
$GPGGA,085536.00,2458.02219,N,12111.25064,E,1,09,1.12,164.0,M,16.4,M,,*5E
$GPGSA,A,3,02,19,05,20,06,09,25,12,13,,,,2.59,1.12,2.34*0F
$GPGSV,4,1,13,02,53,354,37,05,39,263,42,06,47,055,25,07,03,091,*7C
$GPRMC,085537.00,A,2458.02216,N,12111.25061,E,0.022,,090621,,,A*7E
$GPVTG,,T,,M,0.022,N,0.042,K,A*25
$GPGGA,085537.00,2458.02216,N,12111.25061,E,1,09,1.12,164.1,M,16.4,M,,*54
$GPGSA,A,3,02,19,05,20,06,09,25,12,13,,,,2.59,1.12,2.34*0F
$GPGSV,4,1,13,02,53,354,37,05,39,263,42,06,47,055,25,07,03,091,*7C
$GPGSV,4,2,13,09,21,045,13,12,25,264,39,13,22,186,41,15,00,209,*7D
$GPRMC,085538.00,A,2458.02213,N,12111.25059,E,0.021,,090621,,,A*7C
$GPVTG,,T,,M,0.021,N,0.039,K,A*2A
$GPRMC,085539.00,A,2458.02211,N,12111.25058,E,0.030,,090621,,,A*7E
$GPVTG,,T,,M,0.030,N,0.055,K,A*20
$GPGGA,085539.00,2458.02211,N,12111.25058,E,1,09,1.12,164.1,M,16.4,M,,*57
$GPGSA,A,3,02,19,05,20,06,09,25,12,13,,,,2.59,1.12,2.34*0F
$GPGSV,4,1,13,02,53,354,37,05,39,263,40,06,47,055,25,07,03,091,*7E
$GPGSV,4,2,13,09,21,045,15,12,25,264,37,13,22,186,40,15,00,209,*74
$GPGSV,4,3,13,17,20,146,,19,42,145,23,20,33,266,42,25,09,297,32*71
$GPGSV,4,4,13,30,06,127,*4A
$GPGLL,2458.02211,N,12111.25058,E,085539.00,A,A*68
$GPRMC,085540.00,A,2458.02208,N,12111.25055,E,0.035,,090621,,,A*70
$GPVTG,,T,,M,0.035,N,0.066,K,A*25
$GPGGA,085540.00,2458.02208,N,12111.25055,E,1,09,0.87,164.2,M,16.4,M,,*52
$GPGSA,A,3,02,19,05,20,06,09,25,12,13,,,,2.01,0.87,1.81*02
$GPGSV,4,1,13,02,53,354,38,05,39,263,42,06,47,055,24,07,03,091,*72
$GPGSV,4,2,13,09,21,045,15,12,25,264,40,13,22,186,42,15,00,209,*76
$GPGSV,4,3,13,17,20,146,,19,42,145,23,20,33,266,43,25,09,297,32*70
$GPGSV,4,4,13,30,06,127,*4A
$GPGLL,2458.02208,N,12111.25055,E,085540.00,A,A*63
$GPRMC,085541.00,A,2458.02204,N,12111.25051,E,0.033,,090621,,,A*7F
$GPVTG,,T,,M,0.033,N,0.061,K,A*24
$GPGGA,085541.00,2458.02204,N,12111.25051,E,1,09,0.87,164.4,M,16.4,M,,*5D
$GPGSA,A,3,02,19,05,20,06,09,25,12,13,,,,2.01,0.87,1.81*02
$GPGSV,4,1,13,02,53,354,38,05,39,263,42,06,47,055,24,07,03,091,*72
$GPGSV,4,2,13,09,21,045,14,12,25,264,39,13,22,186,42,15,00,209,*79
$GPGSV,4,3,13,17,20,146,,19,42,145,23,20,33,266,44,25,09,297,33*76
$GPGSV,4,4,13,30,06,127,*4A
$GPGLL,2458.02204,N,12111.25051,E,085541.00,A,A*6A
$GPRMC,085542.00,A,2458.02202,N,12111.25047,E,0.012,,090621,,,A*7E
$GPVTG,,T,,M,0.012,N,0.023,K,A*21
$GPGGA,085542.00,2458.02202,N,12111.25047,E,1,09,0.87,164.5,M,16.4,M,,*5E
$GPGSA,A,3,02,19,05,20,06,09,25,12,13,,,,2.01,0.87,1.81*02
$GPGSV,4,1,13,02,53,354,36,05,39,263,42,06,47,055,23,07,03,091,*7B
$GPGSV,4,2,13,09,21,045,15,12,25,264,40,13,22,186,42,15,00,209,*76
$GPGSV,4,3,13,17,20,146,,19,42,145,23,20,33,266,43,25,09,297,33*71
$GPGSV,4,4,13,30,06,127,*4A
$GPGLL,2458.02202,N,12111.25047,E,085542.00,A,A*68
$GPRMC,085543.00,A,2458.02199,N,12111.25047,E,0.061,,090621,,,A*7A
$GPVTG,,T,,M,0.061,N,0.113,K,A*27
$GPGGA,085543.00,2458.02199,N,12111.25047,E,1,09,1.12,164.5,M,16.4,M,,*53
$GPGSA,A,3,02,19,05,20,06,09,25,12,13,,,,2.59,1.12,2.34*0F
$GPGSV,4,1,13,02,53,354,36,05,39,263,42,06,47,055,23,07,03,091,*7B
$GPGSV,4,2,13,09,21,045,15,12,25,264,41,13,22,186,42,15,00,209,*77
$GPGSV,4,3,13,17,20,146,,19,42,145,22,20,33,266,44,25,09,297,32*76
$GPGSV,4,4,13,30,06,127,*4A
$GPGLL,2458.02199,N,12111.25047,E,085543.00,A,A*68
$GPRMC,085544.00,A,2458.02197,N,12111.25049,E,0.028,,090621,,,A*70
$GPVTG,,T,,M,0.028,N,0.053,K,A*2F
$GPGGA,085544.00,2458.02197,N,12111.25049,E,1,09,1.12,164.5,M,16.4,M,,*54
$GPGSA,A,3,02,19,05,20,06,09,25,12,13,,,,2.59,1.12,2.34*0F
$GPGSV,4,1,13,02,53,354,36,05,39,263,43,06,47,055,23,07,03,091,*7A
$GPGSV,4,2,13,09,21,045,15,12,25,264,39,13,22,186,42,15,00,209,*78
$GPGSV,4,3,13,17,20,146,,19,42,145,22,20,33,266,43,25,09,297,33*70
$GPGSV,4,4,13,30,06,127,*4A
$GPGLL,2458.02197,N,12111.25049,E,085544.00,A,A*6F
$GPGSV,4,3,13,17,20,146,,19,42,145,2
$GPGSV,4,4,13,30,06,127,*4A
$GPGLL,2458.02190,N,12111.25042,E,085547.00,A,A*60
$GPRMC,085548.00,A,2458.02190,N,12111.25042,E,0.057,,090621,,,A*78
$GPVTG,,T,,M,0.057,N,0.106,K,A*26
$GPGGA,085548.00,2458.02190,N,12111.25042,E,1,09,0.87,164.8,M,16.4,M,,*54
$GPGSA,A,3,02,19,05,20,06,09,25,12,13,,,,2.01,0.87,1.81*02
$GPGSV,4,1,13,02,53,354,37,05,39,263,43,06,47,055,25,07,03,091,*7D
$GPGSV,4,2,13,09,21,045,14,12,25,264,41,13,22,186,42,15,00,209,*76
$GPGSV,4,3,13,17,20,146,,19,42,145,21,20,33,266,44,25,09,297,31*76
$GPGSV,4,4,13,30,06,127,*4A
$GPGLL,2458.02190,N,12111.25042,E,085548.00,A,A*6F
$GPRMC,085549.00,A,2458.02189,N,12111.25039,E,0.021,,090621,,,A*7C
$GPVTG,,T,,M,0.021,N,0.039,K,A*2A
$GPGGA,085549.00,2458.02189,N,12111.25039,E,1,09,0.87,164.8,M,16.4,M,,*51
$GPGSA,A,3,02,19,05,20,06,09,25,12,13,,,,2.01,0.87,1.81*02
$GPGSV,4,1,13,02,53,354,37,05,39,263,42,06,47,055,25,07,03,091,*7C
$GPGSV,4,2,13,09,21,045,13,12,25,264,40,13,22,186,42,15,00,209,*70
$GPGSV,4,3,13,17,20,146,,19,42,145,21,20,33,266,44,25,09,297,32*75
$GPGSV,4,4,13,30,06,127,*4A
$GPGLL,2458.02189,N,12111.25039,E,085549.00,A,A*6A
$GPRMC,085550.00,A,2458.02188,N,12111.25039,E,0.102,,090621,,,A*75
$GPVTG,,T,,M,0.102,N,0.190,K,A*28
$GPGGA,085550.00,2458.02188,N,12111.25039,E,1,09,0.87,164.8,M,16.4,M,,*58
$GPGSV,4,1,13,02,53,354,37,05,39,263,42,06,47,055,24,07,03,091,*7D
$GPGSV,4,2,13,09,21,045,13,12,25,264,40,13,22,186,42,15,00,209,*70
$GPGSV,4,3,13,17,20,146,,19,42,145,22,20,33,266,44,25,09,297,32*76
$GPGSV,4,4,13,30,06,127,*4A
$GPGLL,2458.02188,N,12111.25039,E,085550.00,A,A*63
$GPRMC,085551.00,A,2458.02188,N,12111.25039,E,0.104,,090621,,,A*72
$GPVTG,,T,,M,0.104,N,0.192,K,A*2C
$GPGGA,085551.00,2458.02188,N,12111.25039,E,1,09,0.87,164.8,M,16.4,M,,*59
$GPGSA,A,3,02,19,05,20,06,09,25,12,13,,,,2.01,0.87,1.81*02
$GPGSV,4,1,13,02,53,354,37,05,39,263,43,06,47,055,24,07,03,091,*7C
$GPGSV,4,2,13,09,21,045,14,12,25,264,40,13,22,186,42,15,00,209,*77
$GPGSV,4,3,13,17,20,146,,19,42,145,21,20,33,266,44,25,09,297,31*76
$GPGSV,4,4,13,30,06,127,*4A
$GPGLL,2458.02188,N,12111.25039,E,085551.00,A,A*62
$GPRMC,085552.00,A,2458.02188,N,12111.25037,E,0.003,,090621,,,A*79
$GPVTG,,T,,M,0.003,N,0.006,K,A*26
$GPGGA,085552.00,2458.02188,N,12111.25037,E,1,09,0.87,164.9,M,16.4,M,,*55
$GPGSA,A,3,02,19,05,20,06,09,25,12,13,,,,2.01,0.87,1.81*02
$GPGSV,4,1,13,02,53,354,37,05,39,263,42,06,47,055,24,07,03,091,*7D
$GPGSV,4,2,13,09,21,045,15,12,25,264,40,13,22,186,42,15,00,209,*76
$GPGSV,4,3,13,17,20,146,,19,42,145,21,20,33,266,44,25,09,297,32*75
$GPGSV,4,4,13,30,06,127,*4A
$GPGLL,2458.02188,N,12111.25037,E,085552.00,A,A*6F
$GPRMC,085553.00,A,2458.02188,N,12111.25037,E,0.022,,090621,,,A*7B
$GPVTG,,T,,M,0.022,N,0.040,K,A*27
$GPGGA,085553.00,2458.02188,N,12111.25037,E,1,09,1.12,164.9,M,16.4,M,,*59
$GPGSA,A,3,02,19,05,20,06,09,25,12,13,,,,2.60,1.12,2.34*05
$GPGSV,4,1,13,02,53,354,37,05,39,263,42,06,47,055,24,07,03,091,*7D
$GPGSV,4,2,13,09,21,045,15,12,25,264,40,13,22,186,42,15,00,209,*76
$GPGSV,4,3,13,17,20,146,,19,42,145,22,20,33,266,44,25,09,297,31*75
$GPGSV,4,4,13,30,06,127,*4A
$GPGLL,2458.02188,N,12111.25037,E,085553.00,A,A*6E
$GPRMC,085554.00,A,2458.02189,N,12111.25035,E,0.033,,090621,,,A*7F
$GPVTG,,T,,M,0.033,N,0.061,K,A*24
$GPGGA,085554.00,2458.02189,N,12111.25035,E,1,09,1.12,164.8,M,16.4,M,,*5C
$GPGSA,A,3,02,19,05,20,06,09,25,12,13,,,,2.60,1.12,2.34*05
$GPGSV,4,1,13,02,53,354,37,05,39,263,41,06,47,055,24,07,03,091,*7E
$GPGSV,4,2,13,09,21,045,17,12,25,264,40,13,22,186,42,15,00,209,*74
$GPGSV,4,3,13,17,20,146,,19,42,145,23,20,33,266,44,25,09,297,31*74
$GPGSV,4,4,13,30,06,127,*4A
$GPGLL,2458.02189,N,12111.25035,E,085554.00,A,A*6A
$GPRMC,085555.00,A,2458.02190,N,12111.25036,E,0.025,,090621,,,A*72
$GPVTG,,T,,M,0.025,N,0.046,K,A*26
$GPGGA,085555.00,2458.02190,N,12111.25036,E,1,09,1.12,164.8,M,16.4,M,,*56
$GPGSA,A,3,02,19,05,20,06,09,25,12,13,,,,2.60,1.12,2.34*05
$GPGSV,4,1,13,02,53,354,37,05,39,263,39,06,47,055,23,07,03,091,*76
$GPGSV,4,2,13,09,21,045,17,12,25,264,40,13,22,186,42,15,00,209,*74
$GPGSV,4,3,13,17,20,146,,19,42,145,23,20,33,266,43,25,09,297,31*73
$GPGSV,4,4,13,30,06,127,*4A
$GPGLL,2458.02190,N,12111.25036,E,085555.00,A,A*60
$GPRMC,085556.00,A,2458.02190,N,12111.25037,E,0.044,,090621,,,A*77
$GPVTG,,T,,M,0.044,N,0.082,K,A*29
$GPGGA,085556.00,2458.02190,N,12111.25037,E,1,09,1.12,164.8,M,16.4,M,,*54
$GPGSA,A,3,02,19,05,20,06,09,25,12,13,,,,2.60,1.12,2.34*05
$GPGSV,4,1,13,02,53,354,38,05,39,263,41,06,47,055,23,07,03,091,*76
$GPGSV,4,2,13,09,21,045,17,12,25,264,40,13,22,186,42,15,00,209,*74
$GPGSV,4,3,13,17,20,146,,19,42,145,23,20,33,266,44,25,09,297,31*74
$GPRMC,085557.00,A,2458.02190,N,12111.25036,E,0.035,,090621,,,A*71
$GPVTG,,T,,M,0.035,N,0.064,K,A*27
$GPGGA,085557.00,2458.02190,N,12111.25036,E,1,09,1.12,164.8,M,16.4,M,,*54
$GPRMC,085558.00,A,2458.02188,N,12111.25030,E,0.119,,090621,,,A*7E
$GPVTG,,T,,M,0.119,N,0.221,K,A*2B
$GPGGA,085558.00,2458.02188,N,12111.25030,E,1,09,0.87,164.9,M,16.4,M,,*58
$GPRMC,085559.00,A,2458.02185,N,12111.25027,E,0.051,,090621,,,A*79
$GPVTG,,T,,M,0.051,N,0.095,K,A*2B
$GPGGA,085559.00,2458.02185,N,12111.25027,E,1,09,0.87,165.0,M,16.4,M,,*5A
$GPGSA,A,3,02,19,05,20,06,09,25,12,13,,,,2.01,0.87,1.81*02
$GPGSV,4,1,13,02,53,354,38,05,39,263,41,06,47,055,22,07,03,091,*77
$GPGSV,4,2,13,09,21,045,15,12,25,264,40,13,22,186,42,15,00,209,*76
$GPGSV,4,3,13,17,20,146,,19,42,145,23,20,33,266,43,25,09,297,31*73
$GPRMC,085600.00,A,2458.02183,N,12111.25024,E,0.029,,090621,,,A*7C
$GPVTG,,T,,M,0.029,N,0.054,K,A*29
$GPGGA,085600.00,2458.02183,N,12111.25024,E,1,09,0.87,165.1,M,16.4,M,,*51
$GPGSA,A,3,02,19,05,20,06,09,25,12,13,,,,2.01,0.87,1.81*02
$GPGSV,4,1,13,02,53,354,38,05,39,263,40,06,47,055,21,07,03,091,*75
$GPGSV,4,2,13,09,21,045,14,12,25,264,40,13,22,186,42,15,00,209,*77
$GPGSV,4,3,13,17,20,146,,19,42,145,23,20,33,266,43,25,09,297,30*72
$GPGSV,4,4,13,30,06,127,*4A
$GPRMC,085601.00,A,2458.02183,N,12111.25022,E,0.079,,090621,,,A*7E
$GPVTG,,T,,M,0.079,N,0.147,K,A*2F
$GPGGA,085601.00,2458.02183,N,12111.25022,E,1,09,1.12,165.0,M,16.4,M,,*5A
$GPRMC,085602.00,A,2458.02183,N,12111.25020,E,0.029,,090621,,,A*7A
$GPVTG,,T,,M,0.029,N,0.054,K,A*29
$GPGGA,085602.00,2458.02183,N,12111.25020,E,1,09,1.12,165.0,M,16.4,M,,*5B
$GPGSA,A,3,02,19,05,20,06,09,25,12,13,,,,2.60,1.12,2.34*05
$GPRMC,085603.00,A,2458.02182,N,12111.25019,E,0.024,,090621,,,A*7D
$GPVTG,,T,,M,0.024,N,0.045,K,A*24
$GPGGA,085603.00,2458.02182,N,12111.25019,E,1,09,1.12,165.0,M,16.4,M,,*51
$GPGSA,A,3,02,19,05,20,06,09,25,12,13,,,,2.60,1.12,2.35*04
$GPGSV,4,1,13,02,53,355,38,05,39,263,41,06,47,055,21,07,03,091,*75
$GPRMC,085604.00,A,2458.02182,N,12111.25020,E,0.036,,090621,,,A*73
$GPVTG,,T,,M,0.036,N,0.067,K,A*27
$GPGGA,085604.00,2458.02182,N,12111.25020,E,1,09,1.12,165.0,M,16.4,M,,*5C
$GPGSA,A,3,02,19,05,20,06,09,25,12,13,,,,2.60,1.12,2.35*04
$GPRMC,085605.00,A,2458.02179,N,12111.25015,E,0.037,,090621,,,A*71
$GPVTG,,T,,M,0.037,N,0.068,K,A*29
$GPGGA,085605.00,2458.02179,N,12111.25015,E,1,09,0.87,165.2,M,16.4,M,,*50
$GPGSA,A,3,02,19,05,20,06,09,25,12,13,,,,2.01,0.87,1.81*02
$GPGSV,4,1,13,02,53,355,39,05,39,264,41,06,47,055,22,07,03,091,*70
$GPRMC,085606.00,A,2458.02176,N,12111.25012,E,0.022,,090621,,,A*7E
$GPVTG,,T,,M,0.022,N,0.040,K,A*27
$GPGGA,085606.00,2458.02176,N,12111.25012,E,1,09,0.87,165.3,M,16.4,M,,*5A
$GPRMC,085607.00,A,2458.02176,N,12111.25011,E,0.029,,090621,,,A*77
$GPVTG,,T,,M,0.029,N,0.054,K,A*29
$GPGGA,085607.00,2458.02176,N,12111.25011,E,1,08,1.12,165.3,M,16.4,M,,*54
$GPGSA,A,3,02,19,05,20,06,25,12,13,,,,,2.60,1.12,2.35*0D
$GPRMC,085608.00,A,2458.02177,N,12111.25011,E,0.016,,090621,,,A*75
$GPVTG,,T,,M,0.016,N,0.029,K,A*2F
$GPGGA,085608.00,2458.02177,N,12111.25011,E,1,08,1.12,165.3,M,16.4,M,,*5A
$GPRMC,085609.00,A,2458.02177,N,12111.25011,E,0.080,,090621,,,A*7B
$GPVTG,,T,,M,0.080,N,0.148,K,A*26
$GPGGA,085609.00,2458.02177,N,12111.25011,E,1,08,1.12,165.3,M,16.4,M,,*5B
$GPRMC,085610.00,A,2458.02177,N,12111.25011,E,0.033,,090621,,,A*7B
$GPVTG,,T,,M,0.033,N,0.062,K,A*27
$GPGGA,085610.00,2458.02177,N,12111.25011,E,1,08,1.12,165.3,M,16.4,M,,*53
$GPGSA,A,3,02,19,05,20,06,25,12,13,,,,,2.60,1.12,2.35*0D
$GPRMC,085611.00,A,2458.02179,N,12111.25012,E,0.062,,090621,,,A*73
$GPVTG,,T,,M,0.062,N,0.114,K,A*23
$GPRMC,085612.00,A,2458.02181,N,12111.25013,E,0.029,,090621,,,A*79
$GPVTG,,T,,M,0.029,N,0.054,K,A*29
$GPGGA,085612.00,2458.02181,N,12111.25013,E,1,08,1.12,165.2,M,16.4,M,,*5B
$GPGSA,A,3,02,19,05,20,06,25,12,13,,,,,2.60,1.12,2.35*0D
$GPRMC,085613.00,A,2458.02179,N,12111.25014,E,0.043,,090621,,,A*74
$GPVTG,,T,,M,0.043,N,0.080,K,A*2C
$GPGGA,085613.00,2458.02179,N,12111.25014,E,1,08,1.12,165.3,M,16.4,M,,*5B
$GPRMC,085614.00,A,2458.02179,N,12111.25015,E,0.055,,090621,,,A*75
$GPVTG,,T,,M,0.055,N,0.102,K,A*20
$GPGGA,085614.00,2458.02179,N,12111.25015,E,1,08,1.12,165.3,M,16.4,M,,*5D
$GPRMC,085615.00,A,2458.02178,N,12111.25015,E,0.059,,090621,,,A*79
$GPVTG,,T,,M,0.059,N,0.109,K,A*27
$GPRMC,085616.00,A,2458.02177,N,12111.25008,E,0.010,,090621,,,A*74
$GPVTG,,T,,M,0.010,N,0.018,K,A*2B
$GPRMC,085617.00,A,2458.02174,N,12111.25002,E,0.048,,090621,,,A*71
$GPVTG,,T,,M,0.048,N,0.090,K,A*26
$GPRMC,085618.00,A,2458.02171,N,12111.24998,E,0.105,,090621,,,A*78
$GPVTG,,T,,M,0.105,N,0.195,K,A*2A
$GPGGA,085618.00,2458.02171,N,12111.24998,E,1,08,1.12,164.9,M,16.4,M,,*5F
$GPGSA,A,3,02,19,05,20,06,25,12,13,,,,,2.60,1.12,2.35*0D
$GPRMC,085619.00,A,2458.02172,N,12111.24995,E,0.037,,090621,,,A*77
$GPVTG,,T,,M,0.037,N,0.069,K,A*28
$GPGGA,085619.00,2458.02172,N,12111.24995,E,1,08,1.12,164.8,M,16.4,M,,*51
$GPGSA,A,3,02,19,05,20,06,25,12,13,,,,,2.60,1.12,2.35*0D
$GPRMC,085620.00,A,2458.02174,N,12111.24994,E,0.068,,090621,,,A*70
$GPVTG,,T,,M,0.068,N,0.126,K,A*28
$GPGGA,085620.00,2458.02174,N,12111.24994,E,1,08,1.12,164.7,M,16.4,M,,*53
$GPGSA,A,3,02,19,05,20,06,25,12,13,,,,,2.60,1.12,2.35*0D
$GPRMC,085621.00,A,2458.02175,N,12111.24993,E,0.084,,090621,,,A*75
$GPRMC,085623.00,A,2458.02178,N,12111.24990,E,0.084,,090621,,,A*79
$GPVTG,,T,,M,0.084,N,0.156,K,A*2D
$GPGGA,085623.00,2458.02178,N,12111.24990,E,1,09,1.12,164.3,M,16.4,M,,*5D
$GPRMC,085624.00,A,2458.02182,N,12111.24991,E,0.052,,090621,,,A*71
$GPVTG,,T,,M,0.052,N,0.096,K,A*2B
$GPGGA,085624.00,2458.02182,N,12111.24991,E,1,09,1.12,163.9,M,16.4,M,,*53
$GPGSA,A,3,02,19,05,20,06,09,25,12,13,,,,2.60,1.12,2.35*04
$GPGSV,4,1,13,02,53,355,38,05,39,264,42,06,47,055,24,07,03,091,*74
$GPRMC,085625.00,A,2458.02185,N,12111.24990,E,0.098,,090621,,,A*70
$GPVTG,,T,,M,0.098,N,0.182,K,A*29
$GPGGA,085625.00,2458.02185,N,12111.24990,E,1,09,1.12,163.8,M,16.4,M,,*55
$GPGSA,A,3,02,19,05,20,06,09,25,12,13,,,,2.60,1.12,2.35*04
$GPGSV,4,1,13,02,53,355,36,05,39,264,40,06,47,055,24,07,03,091,*78
$GPRMC,085626.00,A,2458.02190,N,12111.24990,E,0.040,,090621,,,A*72
$GPVTG,,T,,M,0.040,N,0.075,K,A*25
$GPRMC,085627.00,A,2458.02194,N,12111.24987,E,0.040,,090621,,,A*71
$GPRMC,085628.00,A,2458.02198,N,12111.24987,E,0.083,,090621,,,A*7D
$GPVTG,,T,,M,0.083,N,0.154,K,A*28
$GPGGA,085628.00,2458.02198,N,12111.24987,E,1,08,1.12,162.9,M,16.4,M,,*53
$GPGSA,A,3,02,19,05,20,06,25,12,13,,,,,2.60,1.12,2.35*0D
$GPRMC,085629.00,A,2458.02204,N,12111.24986,E,0.062,,090621,,,A*74
$GPVTG,,T,,M,0.062,N,0.115,K,A*22
$GPGGA,085629.00,2458.02204,N,12111.24986,E,1,09,0.87,162.6,M,16.4,M,,*56
$GPGSA,A,3,02,19,05,20,06,09,25,12,13,,,,2.01,0.87,1.81*02
$GPGSV,4,1,13,02,53,355,39,05,39,264,42,06,47,055,25,07,03,091,*74
$GPRMC,085630.00,A,2458.02210,N,12111.24987,E,0.056,,090621,,,A*7F
$GPVTG,,T,,M,0.056,N,0.104,K,A*25
$GPGGA,085630.00,2458.02210,N,12111.24987,E,1,09,0.87,162.4,M,16.4,M,,*58
$GPGSA,A,3,02,19,05,20,06,09,25,12,13,,,,2.01,0.87,1.81*02
$GPRMC,085633.00,A,2458.02219,N,12111.24988,E,0.064,,090621,,,A*7B
$GPVTG,,T,,M,0.064,N,0.119,K,A*28
$GPRMC,085634.00,A,2458.02219,N,12111.24986,E,0.050,,090621,,,A*75
$GPVTG,,T,,M,0.050,N,0.092,K,A*2D
$GPGGA,085634.00,2458.02219,N,12111.24986,E,1,09,1.12,162.1,M,16.4,M,,*5C
$GPGSA,A,3,02,19,05,20,06,09,25,12,13,,,,2.60,1.12,2.35*04
$GPRMC,085635.00,A,2458.02224,N,12111.24989,E,0.136,,090621,,,A*74
$GPVTG,,T,,M,0.136,N,0.251,K,A*21
$GPGGA,085635.00,2458.02224,N,12111.24989,E,1,09,1.12,161.9,M,16.4,M,,*57
$GPGSA,A,3,02,19,05,20,06,09,25,12,13,,,,2.60,1.12,2.35*04
$GPRMC,085636.00,A,2458.02227,N,12111.24990,E,0.079,,090621,,,A*76
$GPVTG,,T,,M,0.079,N,0.146,K,A*2E
$GPGGA,085636.00,2458.02227,N,12111.24990,E,1,09,1.12,161.8,M,16.4,M,,*5E
$GPGSA,A,3,02,19,05,20,06,09,25,12,13,,,,2.60,1.12,2.35*04
$GPGSV,4,1,13,02,53,355,36,05,39,264,40,06,47,055,25,07,03,091,*79
$GPGSV,4,2,13,09,21,045,11,12,25,264,38,13,22,186,40,15,00,209,22*7F
$GPRMC,085637.00,A,2458.02231,N,12111.24992,E,0.027,,090621,,,A*79
$GPVTG,,T,,M,0.027,N,0.050,K,A*23
$GPRMC,085638.00,A,2458.02235,N,12111.24995,E,0.032,,090621,,,A*71
$GPVTG,,T,,M,0.032,N,0.060,K,A*24
$GPRMC,085639.00,A,2458.02237,N,12111.24997,E,0.045,,090621,,,A*70
$GPVTG,,T,,M,0.045,N,0.083,K,A*29
$GPRMC,085640.00,A,2458.02236,N,12111.24996,E,0.024,,090621,,,A*79
$GPVTG,,T,,M,0.024,N,0.044,K,A*25
$GPGGA,085640.00,2458.02236,N,12111.24996,E,1,09,1.12,161.4,M,16.4,M,,*55
$GPRMC,085641.00,A,2458.02236,N,12111.24995,E,0.022,,090621,,,A*7D
$GPVTG,,T,,M,0.022,N,0.041,K,A*26
$GPGGA,085641.00,2458.02236,N,12111.24995,E,1,10,1.12,161.4,M,16.4,M,,*5F
$GPGSA,A,3,02,19,05,20,06,09,17,25,12,13,,,2.60,1.12,2.35*02
$GPRMC,085642.00,A,2458.02238,N,12111.24996,E,0.042,,090621,,,A*75
$GPVTG,,T,,M,0.042,N,0.078,K,A*2A
$GPGGA,085642.00,2458.02238,N,12111.24996,E,1,09,1.12,161.4,M,16.4,M,,*59
$GPGSA,A,3,02,19,05,20,06,09,25,12,13,,,,2.60,1.12,2.35*04
$GPGSV,4,1,13,02,53,355,39,05,39,264,41,06,47,055,24,07,03,091,*76
$GPGSV,4,2,13,09,21,045,15,12,25,264,40,13,22,186,42,15,00,209,19*7E
$GPGSV,4,3,13,17,19,146,,19,42,145,27,20,33,266,44,25,09,296,27*7C
$GPRMC,085643.00,A,2458.02238,N,12111.24996,E,0.007,,090621,,,A*75
$GPVTG,,T,,M,0.007,N,0.014,K,A*21
$GPGGA,085643.00,2458.02238,N,12111.24996,E,1,09,1.12,161.4,M,16.4,M,,*58
$GPRMC,085647.00,A,2458.02244,N,12111.24995,E,0.075,,090621,,,A*7C
$GPVTG,,T,,M,0.075,N,0.139,K,A*2A
$GPGGA,085647.00,2458.02244,N,12111.24995,E,1,08,1.12,161.3,M,16.4,M,,*52
$GPGSA,A,3,02,19,05,20,06,25,12,13,,,,,2.60,1.12,2.35*0D
$GPGSV,4,1,13,02,53,355,36,05,39,264,38,06,47,055,22,07,03,091,*71
$GPGSV,4,2,13,09,21,045,09,12,25,264,38,13,22,186,40,15,00,209,15*72
$GPGSV,4,3,13,17,19,146,,19,42,145,27,20,33,266,42,25,09,296,26*7B
$GPGSV,4,4,13,30,06,126,*4B
$GPGLL,2458.02244,N,12111.24995,E,085647.00,A,A*6B
$GPRMC,085648.00,A,2458.02249,N,12111.24994,E,0.045,,090621,,,A*7C
$GPVTG,,T,,M,0.045,N,0.083,K,A*29
$GPGGA,085648.00,2458.02249,N,12111.24994,E,1,08,1.12,161.2,M,16.4,M,,*50
$GPGSA,A,3,02,19,05,20,06,25,12,13,,,,,2.60,1.12,2.35*0D
$GPGSV,4,1,13,02,53,355,37,05,39,264,40,06,47,055,21,07,03,091,18*75
$GPGSV,4,2,13,09,21,045,09,12,25,264,40,13,22,186,43,15,00,209,15*7E
$GPGSV,4,3,13,17,19,146,,19,42,145,26,20,33,266,44,25,09,296,25*7F
$GPGSV,4,4,13,30,06,126,*4B
$GPGLL,2458.02249,N,12111.24994,E,085648.00,A,A*68
$GPRMC,085649.00,A,2458.02251,N,12111.24999,E,0.067,,090621,,,A*79
$GPVTG,,T,,M,0.067,N,0.124,K,A*25
$GPGGA,085649.00,2458.02251,N,12111.24999,E,1,07,1.39,161.3,M,16.4,M,,*52
$GPGSA,A,3,02,19,05,20,25,12,13,,,,,,2.77,1.39,2.39*08
$GPGSV,4,1,13,02,53,355,39,05,39,264,43,06,47,055,,07,03,091,18*7B
$GPGSV,4,2,13,09,21,045,08,12,25,264,40,13,22,186,43,15,00,209,15*7F
$GPGSV,4,3,13,17,19,146,,19,42,145,27,20,33,266,45,25,09,296,24*7E
$GPGSV,4,4,13,30,06,126,*4B
$GPGLL,2458.02251,N,12111.24999,E,085649.00,A,A*6D
$GPRMC,085650.00,A,2458.02252,N,12111.25001,E,0.076,,090621,,,A*7B
$GPVTG,,T,,M,0.076,N,0.140,K,A*27
$GPGGA,085650.00,2458.02252,N,12111.25001,E,1,09,1.39,161.4,M,16.4,M,,*59
$GPGSA,A,3,02,19,05,20,06,09,25,12,13,,,,2.77,1.39,2.39*07
$GPGSV,4,1,13,02,53,355,38,05,39,264,41,06,47,055,21,07,03,091,17*74
$GPGSV,4,2,13,09,21,045,10,12,25,264,39,13,22,186,42,15,00,209,*7D
$GPGSV,4,3,13,17,19,146,,19,42,145,27,20,33,266,43,25,09,296,23*7F
$GPGSV,4,4,13,30,06,126,*4B
$GPGLL,2458.02252,N,12111.25001,E,085650.00,A,A*6F
$GPRMC,085651.00,A,
$GPVTG,,T,,M,0.036,N,0.066,K,A*26
$GPGGA,085651.00,2458.02256,N,12111.25005,E,1,09,1.39,161.3,M,16.4,M,,*5F
$GPGSA,A,3,02,19,05,20,06,09,25,12,13,,,,2.77,1.39,2.39*07
$GPGSV,4,1,13,02,53,355,38,05,39,264,41,06,47,055,20,07,03,091,17*75
$GPGSV,4,2,13,09,21,045,10,12,25,264,39,13,22,186,42,15,00,209,*7D
$GPGSV,4,3,13,17,19,146,,19,42,145,27,20,33,266,43,25,09,296,24*78
$GPGSV,4,4,13,30,06,126,*4B
$GPGLL,2458.02256,N,12111.25005,E,085651.00,A,A*6E
$GPRMC,085652.00,A,2458.02262,N,12111.25010,E,0.039,,090621,,,A*71
$GPVTG,,T,,M,0.039,N,0.071,K,A*2F
$GPGGA,085652.00,2458.02262,N,12111.25010,E,1,09,1.39,161.1,M,16.4,M,,*5D
$GPGSA,A,3,02,19,05,20,06,09,25,12,13,,,,2.77,1.39,2.39*07
$GPGSV,4,1,13,02,53,355,38,05,39,264,41,06,47,055,19,07,03,091,15*7D
$GPGSV,4,2,13,09,21,045,10,12,25,264,39,13,22,186,42,15,00,209,*7D
$GPGSV,4,3,13,17,19,146,,19,42,145,27,20,33,266,44,25,09,296,23*78
$GPGSV,4,4,13,30,06,126,*4B
$GPGLL,2458.02262,N,12111.25010,E,085652.00,A,A*6E
$GPRMC,085653.00,A,2458.02267,N,12111.25016,E,0.066,,090621,,,A*79
$GPVTG,,T,,M,0.066,N,0.123,K,A*23
$GPGGA,085653.00,2458.02267,N,12111.25016,E,1,09,1.12,161.0,M,16.4,M,,*57
$GPGSA,A,3,02,19,05,20,06,09,25,12,13,,,,2.60,1.12,2.35*04
$GPGSV,4,1,13,02,53,355,39,05,39,264,41,06,47,055,19,07,03,091,15*7C
$GPGSV,4,2,13,09,21,045,09,12,25,264,40,13,22,186,42,15,00,209,*7B
$GPGSV,4,3,13,17,19,146,,19,42,145,27,20,33,266,44,25,09,296,24*7F
$GPGSV,4,4,13,30,06,126,*4B
$GPGLL,2458.02267,N,12111.25016,E,085653.00,A,A*6C
$GPRMC,085654.00,A,2458.02273,N,12111.25022,E,0.102,,090621,,,A*7F
$GPGGA,085654.00,2458.02273,N,12111.25022,E,1,09,1.12,160.8,M,16.4,M,,*5B
$GPGSV,4,1,13,02,53,355,38,05,39,264,41,06,47,055,19,07,03,091,14*7C
$GPGSV,4,2,13,09,21,045,09,12,25,264,40,13,22,186,42,15,00,209,*7B
$GPGSV,4,3,13,17,19,146,,19,42,145,28,20,33,266,44,25,09,296,25*71
$GPGSV,4,4,13,30,06,126,*4B
$GPGLL,2458.02273,N,12111.25022,E,085654.00,A,A*69
$GPVTG,,T,,M,0.028,N,0.052,K,A*2E
$GPGGA,085655.00,2458.02279,N,12111.25026,E,1,08,1.39,160.6,M,16.4,M,,*52
$GPGSA,A,3,02,19,05,20,09,25,12,13,,,,,2.77,1.39,2.40*0F
$GPGSV,4,1,13,02,53,355,39,05,39,264,42,06,47,055,,07,03,091,13*71
$GPGSV,4,2,13,09,21,045,09,12,25,264,40,13,22,186,42,15,00,209,*7B
$GPGSV,4,3,13,17,19,146,,19,42,145,28,20,33,266,44,25,09,296,27*73
$GPGSV,4,4,13,30,06,126,20*49
$GPGLL,2458.02279,N,12111.25026,E,085655.00,A,A*66
$GPRMC,085656.00,A,2458.02282,N,12111.25029,E,0.026,,090621,,,A*7F
$GPVTG,,T,,M,0.026,N,0.048,K,A*2B
$GPGGA,085656.00,2458.02282,N,12111.25029,E,1,09,1.39,160.4,M,16.4,M,,*59
$GPGSA,A,3,02,19,05,20,06,09,25,12,13,,,,2.77,1.39,2.40*09
$GPGSV,4,1,13,02,53,355,39,05,39,264,42,06,47,055,23,07,03,091,17*74
$GPGSV,4,2,13,09,21,045,13,12,25,264,39,13,22,186,41,15,00,209,*7D
$GPGSV,4,3,13,17,19,146,,19,42,145,28,20,33,266,44,25,09,296,27*73
$GPGSV,4,4,13,30,06,126,*4B
$GPGLL,2458.02282,N,12111.25029,E,085656.00,A,A*6E
$GPRMC,085657.00,A,2458.02287,N,12111.25032,E,0.012,,090621,,,A*76
$GPVTG,,T,,M,0.012,N,0.021,K,A*23
$GPGGA,085657.00,2458.02287,N,12111.25032,E,1,10,1.39,160.1,M,16.4,M,,*5A
$GPGSA,A,3,02,19,05,20,06,09,17,25,12,13,,,2.77,1.39,2.40*0F
$GPGSV,4,1,13,02,53,355,39,05,39,264,42,06,47,055,22,07,03,091,16*74
$GPGSV,4,2,13,09,21,045,13,12,25,264,40,13,22,186,42,15,00,209,*70
$GPGSV,4,3,13,17,19,146,19,19,42,145,28,20,33,266,44,25,09,296,28*74
$GPGSV,4,4,13,30,06,126,*4B
$GPGLL,2458.02287,N,12111.25032,E,085657.00,A,A*60
$GPVTG,,T,,M,0.031,N,0.057,K,A*23
$GPGGA,085658.00,2458.02288,N,12111.25034,E,1,09,1.12,160.0,M,16.4,M,,*5C
$GPGSA,A,3,02,19,05,PGSV,4,1,13,02,53,355,37,05,39,264,40,06,47,055,22,07,03,091,13*7D
$GPGSV,4,3,13,17,19,146,,19,42,145,27,20,33,266,42,25,09,296,27*7A
$GPGSV,4,4,13,30,06,126,*4B
$GPGLL,2458.02288,N,12111.25034,E,085658.00,A,A*66
$GPRMC,085659.00,A,2458.02292,N,12111.25039,E,0.067,,090621,,,A*75
$GPVTG,,T,,M,0.067,N,0.123,K,A*22
$GPGGA,085659.00,2458.02292,N,12111.25039,E,1,09,1.12,159.7,M,16.4,M,,*56
$GPGSA,A,3,02,19,05,20,06,09,25,12,13,,,,2.60,1.12,2.35*04
$GPGSV,4,1,13,02,53,355,39,05,39,264,42,06,47,055,22,07,03,091,11*73
$GPGSV,4,2,13,09,21,045,13,12,25,264,40,13,22,186,42,15,00,209,*70
$GPGSV,4,3,13,17,19,146,,19,42,145,28,20,33,266,44,25,09,296,27*73
$GPGSV,4,4,13,30,06,126,*4B
$GPGLL,2458.02292,N,12111.25039,E,085659.00,A,A*61
$GPRMC,085700.00,A,2458.02295,N,12111.25040,E,0.019,,090621,,,A*78
$GPVTG,,T,,M,0.019,N,0.034,K,A*2C
$GPGGA,085700.00,2458.02295,N,12111.25040,E,1,09,1.12,159.5,M,16.4,M,,*50
$GPGSA,A,3,02,19,05,20,06,09,25,12,13,,,,2.60,1.12,2.35*04
$GPGSV,4,1,13,02,53,355,39,05,39,264,42,06,47,055,23,07,03,091,11*72
$GPGSV,4,2,13,09,21,045,13,12,25,264,40,13,22,186,42,15,00,209,*70
$GPGSV,4,3,13,17,19,146,,19,42,145,28,20,33,266,44,25,09,296,27*73
$GPGSV,4,4,13,30,06,126,*4B
$GPGLL,2458.02295,N,12111.25040,E,085700.00,A,A*65
$GPRMC,085701.00,A,2458.02298,N,12111.25039,E,0.047,,090621,,,A*71
$GPVTG,,T,,M,0.047,N,0.087,K,A*2F
$GPGGA,085701.00,2458.02298,N,12111.25039,E,1,09,1.12,159.3,M,16.4,M,,*54
$GPGSA,A,3,02,19,05,20,06,09,25,12,13,,,,2.60,1.12,2.35*04
$GPGSV,4,1,13,02,53,355,38,05,39,264,42,06,47,055,23,07,03,091,11*73
$GPGSV,4,2,13,09,21,045,13,12,25,264,40,13,22,186,42,15,00,209,*70
$GPGSV,4,3,13,17,19,146,,19,42,145,28,20,33,266,43,25,09,296,27*74
$GPGSV,4,4,13,30,06,126,*4B
$GPGLL,2458.02298,N,12111.25039,E,085701.00,A,A*67
$GPVTG,,T,,M,0.025,N,0.046,K,A*26
$GPGGA,085702.00,2458.02300,N,12111.25038,E,1,09,1.12,159.1,M,16.4,M,,*54
$GPGSV,4,2,13,09,21,045,12,12,25,264,40,13,22,186,43,15,00,209,*70
$GPGSV,4,3,13,17,19,146,,19,42,145,28,20,33,266,44,25,09,296,28*7C
$GPGSV,4,4,13,30,06,126,*4B
$GPGLL,2458.02300,N,12111.25038,E,085702.00,A,A*65
$GPRMC,085703.00,A,2458.02304,N,12111.25039,E,0.031,,090621,,,A*76
$GPVTG,,T,,M,0.031,N,0.057,K,A*23
$GPGGA,085703.00,2458.02304,N,12111.25039,E,1,09,1.12,158.8,M,16.4,M,,*58
$GPGSA,A,3,02,19,05,20,06,09,25,12,13,,,,2.60,1.12,2.35*04
$GPGSV,4,1,13,02,53,355,37,05,39,264,40,06,47,055,24,07,03,091,09*70
$GPGSV,4,2,13,09,21,045,12,12,25,264,38,13,22,186,41,15,00,209,*7D
$GPGSV,4,3,13,17,19,146,,19,42,145,27,20,33,266,42,25,09,296,27*7A
$GPGSV,4,4,13,30,06,126,*4B
$GPGLL,2458.02304,N,12111.25039,E,085703.00,A,A*61
$GPRMC,085704.00,A,2458.02305,N,12111.25037,E,0.054,,090621,,,A*7D
$GPVTG,,T,,M,0.054,N,0.101,K,A*22
$GPGGA,085704.00,2458.02305,N,12111.25037,E,1,09,1.12,158.7,M,16.4,M,,*5F
$GPGSA,A,3,02,19,05,20,06,09,25,12,13,,,,2.60,1.12,2.35*04
$GPGSV,4,1,13,02,53,355,39,05,39,264,43,06,47,055,24,07,03,091,09*7D
$GPGSV,4,2,13,09,21,045,12,12,25,264,40,13,22,186,43,15,00,209,20*72
$GPGSV,4,3,13,17,19,146,,19,42,145,27,20,33,266,44,25,09,296,26*7D
$GPGSV,4,4,13,30,06,126,*4B
$GPGLL,2458.02305,N,12111.25037,E,085704.00,A,A*69
$GPRMC,085705.00,A,2458.02308,N,12111.25036,E,0.034,,090621,,,A*76
$GPVTG,,T,,M,0.034,N,0.063,K,A*21
$GPGGA,085705.00,2458.02308,N,12111.25036,E,1,10,1.12,158.4,M,16.4,M,,*59
$GPGSA,A,3,02,19,05,20,06,09,17,25,12,13,,,2.60,1.12,2.35*02
$GPGSV,4,1,13,02,53,355,39,05,39,264,43,06,47,055,23,07,03,091,09*7A
$GPGSV,4,2,13,09,21,045,12,12,25,264,40,13,22,186,42,15,00,209,20*73
$GPGSV,4,4,13,30,06,126,*4B
$GPGLL,2458.02308,N,12111.25036,E,085705.00,A,A*64
$GPVTG,,T,,M,0.033,N,0.062,K,A*27
$GPGGA,085706.00,2458.02311,N,12111.25037,E,1,09,1.12,158.2,M,16.4,M,,*5D
$GPGSV,4,1,13,02,53,355,39,05,39,264,43,06,47,055,23,07,03,091,09*7A
$GPGSV,4,2,13,09,21,045,12,12,25,264,40,13,22,186,43,15,00,209,22*70
$GPGSV,4,3,13,17,19,146,19,19,42,145,27,20,33,266,44,25,09,296,26*75
$GPGSV,4,4,13,30,06,126,*4B
$GPGLL,2458.02311,N,12111.25037,E,085706.00,A,A*6E
$GPRMC,085707.00,A,2458.02316,N,12111.25039,E,0.058,,090621,,,A*7E
$GPVTG,,T,,M,0.058,N,0.108,K,A*27
$GPGGA,085707.00,2458.02316,N,12111.25039,E,1,09,1.12,157.9,M,16.4,M,,*51
$GPGSA,A,3,02,19,05,20,06,09,25,12,13,,,,2.60,1.12,2.35*04
$GPGSV,4,1,13,02,53,355,40,05,39,264,43,06,47,055,24,07,03,091,09*73
$GPGSV,4,2,13,09,21,045,12,12,25,264,40,13,22,186,43,15,00,209,22*70
$GPGSV,4,3,13,17,19,146,,19,42,145,27,20,33,266,44,25,09,296,26*7D
$GPGSV,4,4,13,30,06,126,*4B
$GPGLL,2458.02316,N,12111.25039,E,085707.00,A,A*66
$GPRMC,085708.00,A,2458.02320,N,12111.25040,E,0.017,,090621,,,A*71
$GPVTG,,T,,M,0.017,N,0.032,K,A*24
$GPGGA,085708.00,2458.02320,N,12111.25040,E,1,09,1.12,157.6,M,16.4,M,,*5A
$GPGSA,A,3,02,19,05,20,06,09,25,12,13,,,,2.60,1.12,2.35*04
$GPGSV,4,1,13,02,53,355,40,05,39,264,42,06,47,055,23,07,03,091,07*7B
$GPGSV,4,2,13,09,21,045,12,12,25,264,40,13,22,186,43,15,00,209,22*70
$GPGSV,4,3,13,17,19,146,,19,42,145,27,20,33,266,44,25,09,296,26*7D
$GPGSV,4,4,13,30,06,126,*4B
$GPGLL,2458.02320,N,12111.25040,E,085708.00,A,A*62
$GPGSA,A,3,02,19,05,20,09,25,12,13,,,,,2.77,1.40,2.40*01
$GPGSV,4,1,13,02,53,355,39,05,39,264,42,06,47,055,,07,03,091,07*74
$GPGSV,4,2,13,09,21,045,12,12,25,264,40,13,22,186,42,15,00,209,18*78
$GPGSV,4,3,13,17,19,146,,19,42,145,28,20,33,266,44,25,09,296,26*72
$GPGSV,4,4,13,30,06,126,*4B
$GPGLL,2458.02326,N,12111.25041,E,085711.00,A,A*6D
$GPRMC,085712.00,A,2458.02328,N,12111.25039,E,0.097,,090621,,,A*74
$GPVTG,,T,,M,0.097,N,0.180,K,A*24
$GPGGA,085712.00,2458.02328,N,12111.25039,E,1,09,1.40,157.0,M,16.4,M,,*56
$GPGSA,A,3,02,19,05,20,06,09,25,12,13,,,,2.77,1.40,2.40*07
$GPGSV,4,1,13,02,53,355,39,05,39,264,41,06,47,055,22,07,03,091,07*77
$GPGSV,4,2,13,09,21,045,12,12,25,264,39,13,22,186,42,15,00,209,17*79
$GPGSV,4,3,13,17,19,146,,19,42,145,28,20,33,266,44,25,09,296,26*72
$GPGSV,4,4,13,30,06,126,*4B
$GPGLL,2458.02328,N,12111.25039,E,085712.00,A,A*6F
$GPRMC,085713.00,A,2458.02330,N,12111.25040,E,0.026,,090621,,,A*78
$GPVTG,,T,,M,0.026,N,0.049,K,A*2A
$GPGGA,085713.00,2458.02330,N,12111.25040,E,1,09,1.40,156.9,M,16.4,M,,*58
$GPGSA,A,3,02,19,05,20,06,09,25,12,13,,,,2.77,1.40,2.40*07
$GPGSV,4,1,13,02,54,356,38,05,39,264,39,06,47,055,20,07,03,091,07*7F
$GPGSV,4,2,13,09,21,045,12,12,25,264,40,13,22,186,42,15,00,209,17*77
$GPGSV,4,3,13,17,19,146,,19,42,145,26,20,33,266,44,25,09,296,25*7F
$GPGSV,4,4,13,30,06,126,*4B
$GPGLL,2458.02330,N,12111.25040,E,085713.00,A,A*69
$GPRMC,085714.00,A,2458.02332,N,12111.25043,E,0.027,,090621,,,A*7F
$GPVTG,,T,,M,0.027,N,0.050,K,A*23
$GPGGA,085714.00,2458.02332,N,12111.25043,E,1,09,1.12,156.9,M,16.4,M,,*59
$GPGSA,A,3,02,19,05,20,06,09,25,12,13,,,,2.61,1.12,2.35*05
$GPGSV,4,1,13,02,54,356,39,05,39,264,40,06,47,055,20,07,03,091,09*7E
$GPGSV,4,2,13,09,21,045,13,12,25,264,40,13,22,186,42,15,00,209,17*76
$GPGSV,4,3,13,17,19,146,,19,42,145,26,20,33,266,44,25,09,296,25*7F
$GPGSV,4,4,13,30,06,126,*4B
$GPGLL,2458.02332,N,12111.25043,E,085714.00,A,A*6F
$GPRMC,085715.00,A,2458.02334,N,12111.25049,E,0.066,,090621,,,A*77
$GPVTG,,T,,M,0.066,N,0.122,K,A*22
$GPGGA,085715.00,2458.02334,N,12111.25049,E,1,09,1.12,156.7,M,16.4,M,,*5A
$GPGSA,A,3,02,19,05,20,06,09,25,12,13,,,,2.61,1.12,2.35*05
$GPGSV,4,1,13,02,54,356,39,05,39,264,40,06,47,055,19,07,03,091,09*74
$GPGSV,4,2,13,09,21,045,13,12,25,264,40,13,22,186,41,15,00,209,16*74
$GPGSV,4,3,13,17,19,146,,19,42,145,26,20,33,266,44,25,09,296,26*7C
$GPGSV,4,4,13,30,06,126,*4B
$GPGLL,2458.02334,N,12111.25049,E,085715.00,A,A*62
$GPRMC,085716.00,A,2458.02336,N,12111.25052,E,0.032,,090621,,,A*7D
$GPVTG,,T,,M,0.032,N,0.060,K,A*24
$GPGGA,085716.00,2458.02336,N,12111.25052,E,1,08,1.40,156.7,M,16.4,M,,*57
$GPGSA,A,3,02,19,05,20,09,25,12,13,,,,,2.78,1.40,2.40*0E
$GPGSV,4,1,13,02,54,356,39,05,40,264,40,06,47,055,,07,03,091,09*72
$GPGSV,4,2,13,09,21,045,13,12,25,264,40,13,22,186,41,15,00,209,17*75
$GPGSV,4,3,13,17,19,146,,19,42,145,26,20,33,266,44,25,09,296,26*7C
$GPGSV,4,4,13,30,06,126,*4B
$GPGLL,2458.02336,N,12111.25052,E,085716.00,A,A*69
$GPRMC,085717.00,A,2458.02334,N,12111.25053,E,0.034,,090621,,,A*79
$GPVTG,,T,,M,0.034,N,0.063,K,A*21
$GPGGA,085717.00,2458.02334,N,12111.25053,E,1,09,1.40,156.8,M,16.4,M,,*5B
$GPGSA,A,3,02,19,05,20,06,09,25,12,13,,,,2.78,1.40,2.40*08
$GPGSV,4,1,13,02,54,356,39,05,40,264,39,06,47,056,18,07,03,091,09*76
$GPGSV,4,2,13,09,21,045,13,12,25,264,40,13,22,186,41,15,00,209,16*74
$GPGSV,4,3,13,17,19,146,,19,42,145,26,20,33,266,44,25,09,296,25*7F
$GPGSV,4,4,13,30,06,126,*4B
$GPGLL,2458.02334,N,12111.25053,E,085717.00,A,A*6B
$GPRMC,085718.00,A,2458.02336,N,12111.25058,E,0.075,,090621,,,A*7A
$GPVTG,,T,,M,0.075,N,0.138,K,A*2B
$GPGGA,085718.00,2458.02336,N,12111.25058,E,1,09,1.40,156.7,M,16.4,M,,*52
$GPGSA,A,3,02,19,05,20,06,09,25,12,13,,,,2.78,1.40,2.40*08
$GPGSV,4,1,13,02,54,356,39,05,40,264,41,06,47,056,18,07,03,090,09*78
$GPGSV,4,2,13,09,21,045,13,12,25,264,40,13,22,186,41,15,00,209,14*76
$GPGSV,4,3,13,17,19,146,,19,42,145,25,20,33,266,44,25,09,296,25*7C
$GPGSV,4,4,13,30,06,126,*4B
$GPGLL,2458.02336,N,12111.25058,E,085718.00,A,A*6D
$GPRMC,085719.00,A,2458.02330,N,12111.25059,E,0.138,,090621,,,A*74
$GPVTG,,T,,M,0.138,N,0.255,K,A*2B
$GPGGA,085719.00,2458.02330,N,12111.25059,E,1,09,1.40,157.0,M,16.4,M,,*52
$GPGSA,A,3,02,19,05,20,06,09,25,12,13,,,,2.78,1.40,2.40*08
$GPGSV,4,1,13,02,54,356,39,05,40,264,40,06,47,056,19,07,03,090,09*78
$GPGSV,4,2,13,09,21,045,13,12,25,264,40,13,22,186,41,15,00,209,14*76
$GPGSV,4,3,13,17,19,146,,19,42,145,25,20,33,266,44,25,09,296,25*7C
$GPGSV,4,4,13,30,06,126,*4B
$GPGLL,2458.02330,N,12111.25059,E,085719.00,A,A*6B
$GPRMC,085720.00,A,2458.02332,N,12111.25061,E,0.074,,090621,,,A*7E
$GPRMC,085723.00,A,2458.02343,N,12111.25072,E,0.064,,090621,,,A*78
$GPVTG,,T,,M,0.064,N,0.118,K,A*29
$GPGGA,085723.00,2458.02343,N,12111.25072,E,1,09,1.40,156.5,M,16.4,M,,*52
$GPGSA,A,3,02,19,05,20,06,09,25,12,13,,,,2.78,1.40,2.40*08
$GPGSV,4,1,13,02,54,356,39,05,40,264,40,06,47,056,22,07,03,090,08*71
$GPGSV,4,2,13,09,20,044,18,12,24,263,40,13,22,186,41,15,00,209,16*79
$GPGSV,4,3,13,17,19,146,,19,42,145,27,20,33,266,43,25,09,296,23*7F
$GPGSV,4,4,13,30,06,126,*4B
$GPGLL,2458.02343,N,12111.25072,E,085723.00,A,A*6F
$GPRMC,085724.00,A,2458.02345,N,12111.25074,E,0.071,,090621,,,A*7B
$GPVTG,,T,,M,0.071,N,0.131,K,A*26
$GPGGA,085724.00,2458.02345,N,12111.25074,E,1,09,1.40,156.3,M,16.4,M,,*53
$GPGSA,A,3,02,19,05,20,06,09,25,12,13,,,,2.78,1.40,2.40*08
$GPGSV,4,1,13,02,54,356,39,05,40,264,41,06,47,056,21,07,03,090,08*73
$GPGSV,4,2,13,09,20,044,18,12,24,263,40,13,23,186,41,15,00,209,17*79
$GPGSV,4,3,13,17,19,146,,19,42,145,27,20,33,266,44,25,09,296,23*78
$GPGSV,4,4,13,30,06,126,*4B
$GPGLL,2458.02345,N,12111.25074,E,085724.00,A,A*68
$GPRMC,085725.00,A,2458.02346,N,12111.25075,E,0.032,,090621,,,A*7F
$GPVTG,,T,,M,0.032,N,0.060,K,A*24
$GPGGA,085725.00,2458.02346,N,12111.25075,E,1,09,1.12,156.3,M,16.4,M,,*57
$GPGSA,A,3,02,19,05,20,06,09,25,12,13,,,,2.61,1.12,2.36*06
$GPGSV,4,1,13,02,54,356,38,05,40,264,37,06,47,056,20,07,03,090,08*72
$GPGSV,4,2,13,09,20,044,18,12,24,263,39,13,23,186,38,15,00,209,17*79
$GPGSV,4,3,13,17,19,146,,19,42,145,26,20,33,266,41,25,09,296,24*7B
$GPGSV,4,4,13,30,06,126,*4B
$GPGLL,2458.02346,N,12111.25075,E,085725.00,A,A*6B
$GPRMC,085726.00,A,2458.02347,N,12111.25076,E,0.028,,090621,,,A*75
$GPVTG,,T,,M,0.028,N,0.053,K,A*2F
$GPGGA,085726.00,2458.02347,N,12111.25076,E,1,09,1.40,156.3,M,16.4,M,,*51
$GPGSA,A,3,02,19,05,20,06,09,25,12,13,,,,2.78,1.40,2.40*08
$GPGSV,4,1,13,02,54,356,38,05,40,264,39,06,47,056,18,07,03,090,10*7E
$GPGSV,4,2,13,09,20,044,18,12,24,263,40,13,23,186,42,15,01,209,18*74
$GPGSV,4,3,13,17,19,146,,19,42,145,25,20,33,266,43,25,09,296,24*7A
$GPGSV,4,4,13,30,06,126,*4B
$GPGLL,2458.02347,N,12111.25076,E,085726.00,A,A*6A
$GPRMC,085727.00,A,2458.02345,N,12111.25075,E,0.067,,090621,,,A*7E
$GPVTG,,T,,M,0.067,N,0.124,K,A*25
$GPGGA,085727.00,2458.02345,N,12111.25075,E,1,09,0.91,156.5,M,16.4,M,,*5A
$GPGSA,A,3,02,19,05,20,06,09,25,12,13,,,,2.09,0.91,1.88*04
$GPGSV,4,1,13,02,54,356,38,05,40,264,39,06,47,056,19,07,03,090,10*7F
$GPGSV,4,2,13,09,20,044,18,12,24,263,40,13,23,186,41,15,01,209,18*77
$GPGSV,4,3,13,17,19,146,,19,42,145,25,20,33,266,43,25,09,296,25*7B
$GPGSV,4,4,13,30,06,126,*4B
$GPGLL,2458.02345,N,12111.25075,E,085727.00,A,A*6A
$GPRMC,085728.00,A,2458.02341,N,12111.25074,E,0.075,,090621,,,A*77
$GPVTG,,T,,M,0.075,N,0.139,K,A*2A
$GPGGA,085728.00,2458.02341,N,12111.25074,E,1,09,0.91,156.7,M,16.4,M,,*52
$GPGSA,A,3,02,19,05,20,06,09,25,12,13,,,,2.09,0.91,1.88*04
$GPGSV,4,1,13,02,54,356,38,05,40,264,39,06,47,056,18,07,03,090,10*7E
$GPGSV,4,2,13,09,20,044,18,12,24,263,40,13,23,186,41,15,01,209,16*79
$GPGSV,4,3,13,17,19,146,,19,42,145,25,20,33,266,43,25,09,296,25*7B
$GPGSV,4,4,13,30,06,126,*4B
$GPGLL,2458.02341,N,12111.25074,E,085728.00,A,A*60
$GPRMC,085729.00,A,2458.02339,N,12111.25072,E,0.062,,090621,,,A*79
$GPVTG,,T,,M,0.062,N,0.114,K,A*23
$GPGGA,085729.00,2458.02339,N,12111.25072,E,1,09,0.91,156.7,M,16.4,M,,*5A
$GPGSA,A,3,02,19,05,20,06,09,25,12,13,,,,2.09,0.91,1.88*04
$GPGSV,4,1,13,02,54,356,39,05,40,264,40,06,47,056,19,07,03,090,10*70
$GPGSV,4,2,13,09,20,044,18,12,24,263,40,13,23,186,42,15,01,209,14*78
$GPGSV,4,3,13,17,19,146,,19,42,145,25,20,33,266,44,25,09,296,25*7C
$GPGSV,4,4,13,30,06,126,*4B
$GPGLL,2458.02339,N,12111.25072,E,085729.00,A,A*68
$GPRMC,085730.00,A,2458.02337,N,12111.25072,E,0.021,,090621,,,A*78
$GPVTG,,T,,M,0.021,N,0.038,K,A*2B
$GPGGA,085730.00,2458.02337,N,12111.25072,E,1,09,0.87,156.8,M,16.4,M,,*54
$GPGSA,A,3,02,19,05,20,06,09,25,12,13,,,,2.01,0.87,1.81*02
$GPGSV,4,1,13,02,54,356,39,05,40,264,38,06,47,056,19,07,03,090,10*7F
$GPGSV,4,2,13,09,20,044,18,12,24,263,40,13,23,186,40,15,01,209,12*7C
$GPGSV,4,3,13,17,19,146,,19,41,145,26,20,33,266,43,25,09,296,25*7B
$GPGSV,4,4,13,30,06,126,*4B
$GPGLL,2458.02337,N,12111.25072,E,085730.00,A,A*6E
$GPRMC,085731.00,A,2458.02336,N,12111.25075,E,0.081,,090621,,,A*75
$GPVTG,,T,,M,0.081,N,0.150,K,A*2E
$GPGGA,085731.00,2458.02336,N,12111.25075,E,1,08,0.91,156.8,M,16.4,M,,*55
$GPGSA,A,3,02,19,05,20,09,25,12,13,,,,,2.09,0.91,1.88*02
$GPGSV,4,1,13,02,54,356,36,05,40,264,38,06,47,056,20,07,03,090,10*7A
$GPGSV,4,2,13,09,20,044,18,12,24,263,38,13,23,186,39,15,01,209,13*7C
$GPGSV,4,3,13,17,19,146,,19,41,145,24,20,33,267,42,25,09,296,24*78
$GPGSV,4,4,13,30,06,126,23*4A
$GPVTG,,T,,M,0.065,N,0.121,K,A*22
$GPGGA,085734.00,2458.02348,N,12111.25088,E,1,09,0.87,156.1,M,16.4,M,,*54
$GPGSA,A,3,02,19,05,20,06,09,25,12,13,,,,2.00,0.87,1.81*03
$GPGSV,4,1,13,02,54,356,40,05,40,264,44,06,47,056,23,07,03,090,08*7A
$GPGSV,4,2,13,09,20,044,17,12,24,263,40,13,23,186,42,15,01,209,11*72
$GPGSV,4,3,13,17,19,146,,19,41,145,28,20,33,267,44,25,09,296,26*70
$GPGSV,4,4,13,30,06,126,*4B
$GPGLL,2458.02348,N,12111.25088,E,085734.00,A,A*67
$GPRMC,085735.00,A,2458.02349,N,12111.25087,E,0.053,,090621,,,A*7B
$GPVTG,,T,,M,0.053,N,0.099,K,A*25
$GPGGA,085735.00,2458.02349,N,12111.25087,E,1,09,0.87,156.1,M,16.4,M,,*5B
$GPGSA,A,3,02,19,05,20,06,09,25,12,13,,,,2.00,0.87,1.81*03
$GPGSV,4,1,13,02,54,356,40,05,40,264,42,06,47,056,22,07,03,090,08*7D
$GPGSV,4,2,13,09,20,044,15,12,24,263,40,13,23,186,42,15,01,209,11*70
$GPGSV,4,3,13,17,19,146,,19,41,145,28,20,33,267,44,25,09,296,27*71
$GPGSV,4,4,13,30,06,126,*4B
$GPGLL,2458.02349,N,12111.25087,E,085735.00,A,A*68
$GPRMC,085736.00,A,2458.02352,N,12111.25089,E,0.182,,090621,,,A*71
$GPVTG,,T,,M,0.182,N,0.338,K,A*20
$GPGGA,085736.00,2458.02352,N,12111.25089,E,1,09,0.87,155.9,M,16.4,M,,*57
