$GPRMC,090217.00,A,2458.05125,N,12111.26416,E,0.094,,090621,,,A*71
$GPVTG,,T,,M,0.094,N,0.173,K,A*2B
$GPGGA,090217.00,2458.05125,N,12111.26416,E,1,09,0.90,155.0,M,16.4,M,,*5E
$GPGSA,A,3,02,06,05,19,20,12,13,09,17,,,,2.31,0.90,2.13*0E
$GPGSV,4,1,13,02,55,358,32,05,41,267,20,06,46,059,37,07,04,088,25*7A
$GPGSV,4,2,13,09,19,043,37,12,24,261,20,13,24,186,26,15,02,209,*7F
$GPGSV,4,3,13,17,17,147,23,19,39,147,28,20,34,269,23,25,10,294,*75
$GPGSV,4,4,13,30,07,124,28*42
$GPGLL,2458.05125,N,12111.26416,E,090217.00,A,A*69
$GPRMC,090218.00,A,2458.05137,N,12111.26449,E,0.150,,090621,,,A*7E
$GPVTG,,T,,M,0.150,N,0.277,K,A*25
$GPGGA,090218.00,2458.05137,N,12111.26449,E,1,09,0.90,156.7,M,16.4,M,,*5C
$GPGSA,A,3,02,06,05,19,20,12,13,09,17,,,,2.31,0.90,2.13*0E
$GPGSV,4,1,13,02,55,358,32,05,41,267,18,06,46,059,39,07,04,088,26*7C
$GPGSV,4,2,13,09,19,043,37,12,24,261,19,13,24,186,26,15,02,209,*75
$GPGSV,4,3,13,17,17,147,23,19,39,147,27,20,34,269,22,25,10,294,*7B
$GPGSV,4,4,13,30,07,124,28*42
$GPGLL,2458.05137,N,12111.26449,E,090218.00,A,A*6F
$GPRMC,090219.00,A,2458.05136,N,12111.26489,E,0.312,,090621,,,A*76
$GPVTG,,T,,M,0.312,N,0.578,K,A*29
$GPGGA,090219.00,2458.05136,N,12111.26489,E,1,08,0.90,158.3,M,16.4,M,,*5B
$GPGSA,A,3,02,06,19,20,12,13,09,17,,,,,2.31,0.90,2.13*0B
$GPGSV,4,1,13,02,55,358,35,05,41,267,,06,46,059,40,07,04,088,26*7C
$GPGSV,4,2,13,09,19,043,39,12,24,261,20,13,24,186,26,15,02,209,*71
$GPGSV,4,3,13,17,17,147,23,19,39,147,28,20,34,269,23,25,10,294,*75
$GPGSV,4,4,13,30,07,124,28*42
$GPGLL,2458.05136,N,12111.26489,E,090219.00,A,A*63
$GPRMC,090220.00,A,2458.05152,N,12111.26511,E,0.188,,090621,,,A*7F
$GPVTG,,T,,M,0.188,N,0.349,K,A*2C
$GPGGA,090220.00,2458.05152,N,12111.26511,E,1,08,0.90,159.7,M,16.4,M,,*56
$GPGSA,A,3,02,06,19,20,12,13,09,17,,,,,2.31,0.90,2.13*0B
$GPGSV,4,1,13,02,55,358,32,05,41,267,,06,46,059,39,07,04,088,26*75
$GPGSV,4,2,13,09,19,043,38,12,24,261,21,13,24,186,26,15,02,209,*71
$GPGSV,4,3,13,17,17,147,21,19,39,147,27,20,34,269,23,25,10,294,*78
$GPGSV,4,4,13,30,07,124,28*42
$GPGLL,2458.05152,N,12111.26511,E,090220.00,A,A*6B
$GPRMC,090221.00,A,2458.05157,N,12111.26531,E,0.524,,090621,,,A*7B
$GPVTG,,T,,M,0.524,N,0.971,K,A*2F
$GPGGA,090221.00,2458.05157,N,12111.26531,E,1,08,0.90,160.4,M,16.4,M,,*59
$GPGSA,A,3,02,06,19,20,12,13,09,17,,,,,2.31,0.90,2.13*0B
$GPGSV,4,1,13,02,55,358,34,05,41,267,,06,46,059,39,07,04,088,25*70
$GPGSV,4,2,13,09,19,043,38,12,24,261,21,13,24,186,27,15,02,209,*70
$GPGSV,4,3,13,17,17,147,21,19,39,147,28,20,34,269,24,25,10,294,*70
$GPGSV,4,4,13,30,07,124,29*43
$GPGLL,2458.05157,N,12111.26531,E,090221.00,A,A*6D
$GPRMC,090222.00,A,2458.05178,N,12111.26536,E,0.629,,090621,,,A*7C
$GPVTG,,T,,M,0.629,N,1.164,K,A*2C
$GPGGA,090222.00,2458.05178,N,12111.26536,E,1,08,0.90,161.4,M,16.4,M,,*51
$GPGSA,A,3,02,06,19,20,12,13,09,17,,,,,2.31,0.90,2.13*0B
$GPGSV,4,1,13,02,55,358,29,05,41,267,,06,46,059,39,07,04,088,25*7C
$GPGSV,4,2,13,09,19,043,38,12,24,261,20,13,24,186,27,15,02,209,*71
$GPGSV,4,3,13,17,17,147,22,19,39,147,29,20,34,269,24,25,10,294,*72
$GPGSV,4,4,13,30,07,124,29*43
$GPGLL,2458.05178,N,12111.26536,E,090222.00,A,A*64
$GPRMC,090223.00,A,2458.05196,N,12111.26543,E,0.380,,090621,,,A*79
$GPVTG,,T,,M,0.380,N,0.704,K,A*2B
$GPGGA,090223.00,2458.05196,N,12111.26543,E,1,08,0.90,162.1,M,16.4,M,,*54
$GPGSA,A,3,02,06,19,20,12,13,09,17,,,,,2.31,0.90,2.12*0A
$GPGSV,4,1,13,02,55,358,30,05,41,267,,06,46,059,40,07,04,088,25*7A
$GPGSV,4,2,13,09,19,043,38,12,24,261,20,13,24,186,27,15,02,209,*71
$GPGSV,4,3,13,17,17,147,23,19,39,147,29,20,34,269,23,25,10,294,*74
$GPGSV,4,4,13,30,07,124,29*43
$GPGLL,2458.05196,N,12111.26543,E,090223.00,A,A*67
$GPRMC,090224.00,A,2458.05209,N,12111.26537,E,0.132,,090621,,,A*73
$GPVTG,,T,,M,0.132,N,0.244,K,A*21
$GPGGA,090224.00,2458.05209,N,12111.26537,E,1,09,0.90,162.9,M,16.4,M,,*5C
$GPGSA,A,3,02,06,05,19,20,12,13,09,17,,,,2.31,0.90,2.12*0F
$GPGSV,4,1,13,02,55,358,31,05,41,267,26,06,46,059,40,07,04,088,26*7C
$GPGSV,4,2,13,09,19,043,40,12,24,261,20,13,24,186,28,15,02,209,*71
$GPGSV,4,3,13,17,17,147,25,19,39,147,29,20,34,269,24,25,10,294,*75
$GPGSV,4,4,13,30,07,124,29*43
$GPGLL,2458.05209,N,12111.26537,E,090224.00,A,A*66
$GPVTG,,T,,M,0.708,N,1.311,K,A*2E
$GPGSV,4,1,13,02,55,358,30,05,41,267,25,06,46,059,38,07,04,088,25*72
$GPGSV,4,2,13,09,19,043,34,12,24,261,21,13,24,186,27,15,02,209,*7C
$GPGSV,4,3,13,17,17,147,25,19,39,147,29,20,34,269,24,25,10,294,*75
$GPGSV,4,4,13,30,07,124,29*43
$GPGLL,2458.05228,N,12111.26503,E,090225.00,A,A*63
$GPRMC,090226.00,A,2458.05240,N,12111.26476,E,0.029,,090621,,,A*73
$GPVTG,,T,,M,0.029,N,0.053,K,A*2E
$GPGGA,090226.00,2458.05240,N,12111.26476,E,1,09,0.86,163.5,M,16.4,M,,*5D
$GPGSA,A,3,02,06,05,19,20,12,13,09,17,,,,2.25,0.86,2.08*06
$GPGSV,4,1,13,02,55,358,31,05,41,267,25,06,46,059,42,07,04,088,26*7D
$GPGSV,4,2,13,09,19,043,40,12,24,261,22,13,24,186,28,15,02,209,*73
$GPGSV,4,3,13,17,17,147,26,19,39,147,30,20,34,269,26,25,10,294,*7C
$GPGSV,4,4,13,30,07,124,29*43
$GPGLL,2458.05240,N,12111.26476,E,090226.00,A,A*6D
$GPRMC,090227.00,A,2458.05250,N,12111.26471,E,0.249,,090621,,,A*70
$GPVTG,,T,,M,0.249,N,0.462,K,A*2C
$GPGGA,090227.00,2458.05250,N,12111.26471,E,1,09,0.91,164.2,M,16.4,M,,*5C
$GPGSA,A,3,02,06,05,19,20,12,13,09,17,,,,2.27,0.91,2.08*02
$GPGSV,4,1,13,02,55,358,31,05,41,267,25,06,46,059,41,07,04,088,26*7E
$GPGSV,4,2,13,09,19,043,40,12,24,261,21,13,24,186,28,15,02,209,*70
$GPGSV,4,3,13,17,17,147,26,19,39,147,30,20,34,269,26,25,10,294,*7C
$GPGSV,4,4,13,30,07,124,29*43
$GPGLL,2458.05250,N,12111.26471,E,090227.00,A,A*6A
$GPRMC,090228.00,A,2458.05255,N,12111.26472,E,0.230,,090621,,,A*77
$GPVTG,,T,,M,0.230,N,0.425,K,A*21
$GPGGA,090228.00,2458.05255,N,12111.26472,E,1,09,0.91,164.9,M,16.4,M,,*5E
$GPGSA,A,3,02,06,05,19,20,12,13,09,17,,,,2.27,0.91,2.08*02
$GPGSV,4,1,13,02,55,358,30,05,41,267,25,06,46,059,41,07,04,088,26*7F
$GPGSV,4,2,13,09,19,043,39,12,24,261,21,13,24,186,28,15,02,209,*7E
$GPGSV,4,3,13,17,17,147,26,19,39,147,30,20,34,269,26,25,10,294,*7C
$GPGSV,4,4,13,30,07,124,30*4B
$GPGLL,2458.05255,N,12111.26472,E,090228.00,A,A*63
$GPVTG,,T,,M,0.042,N,0.077,K,A*25
$GPGGA,090229.00,2458.05262,N,12111.26474,E,1,09,0.91,165.2,M,16.4,M,,*57
$GPGSV,4,2,13,09,19,043,37,12,24,261,20,13,24,186,28,15,02,209,*71
$GPGSV,4,3,13,17,17,147,26,19,39,147,30,20,34,269,25,25,10,294,06*79
$GPGSV,4,4,13,30,07,124,30*4B
$GPGLL,2458.05262,N,12111.26474,E,090229.00,A,A*60
$GPRMC,090230.00,A,2458.05216,N,12111.26544,E,0.167,,090621,,,A*7C
$GPVTG,,T,,M,0.167,N,0.309,K,A*29
$GPGGA,090230.00,2458.05216,N,12111.26544,E,1,09,1.03,164.4,M,16.4,M,,*53
$GPGSA,A,3,02,06,05,19,20,12,13,09,17,,,,2.55,1.03,2.33*05
$GPGSV,4,1,13,02,55,358,38,05,41,267,26,06,46,059,38,07,04,088,25*79
$GPGSV,4,2,13,09,19,043,37,12,24,261,19,13,24,186,27,15,02,209,*74
$GPGSV,4,3,13,17,17,147,26,19,39,147,20,20,34,269,25,25,10,294,*7E
$GPGSV,4,4,13,30,07,124,29*43
$GPGLL,2458.05216,N,12111.26544,E,090230.00,A,A*69
$GPRMC,090231.00,A,2458.05159,N,12111.26583,E,0.706,,090621,,,A*7F
$GPVTG,,T,,M,0.706,N,1.307,K,A*27
$GPGGA,090231.00,2458.05159,N,12111.26583,E,1,10,0.85,163.1,M,16.4,M,,*54
$GPGSA,A,3,02,06,05,19,20,12,13,09,17,30,,,2.00,0.85,1.82*00
$GPGSV,4,1,13,02,55,358,37,05,41,267,22,06,46,059,35,07,04,088,22*78
$GPGSV,4,2,13,09,19,043,34,12,24,261,18,13,24,186,25,15,02,209,*74
$GPGSV,4,3,13,17,17,147,25,19,39,147,20,20,34,269,21,25,10,294,07*7E
$GPGSV,4,4,13,30,07,124,27*4D
$GPGLL,2458.05159,N,12111.26583,E,090231.00,A,A*6B
$GPRMC,090232.00,A,2458.05129,N,12111.26574,E,0.293,,090621,,,A*7A
$GPVTG,,T,,M,0.293,N,0.542,K,A*28
$GPGGA,090232.00,2458.05129,N,12111.26574,E,1,11,0.85,161.9,M,16.4,M,,*53
$GPGSA,A,3,02,06,05,19,20,12,13,09,17,25,30,,2.00,0.85,1.82*07
$GPGSV,4,1,13,02,55,358,34,05,41,267,22,06,46,059,31,07,04,088,20*7D
$GPGSV,4,2,13,09,19,043,34,12,24,261,15,13,24,186,22,15,02,209,*7E
$GPGSV,4,3,13,17,17,147,22,19,39,147,20,20,34,269,19,25,10,294,12*76
$GPGSV,4,4,13,30,07,124,26*4C
$GPGLL,2458.05129,N,12111.26574,E,090232.00,A,A*67
$GPRMC,090233.00,A,2458.05119,N,12111.26559,E,0.361,,090621,,,A*7B
$GPVTG,,T,,M,0.361,N,0.669,K,A*2E
$GPGGA,090233.00,2458.05119,N,12111.26559,E,1,11,0.85,161.0,M,16.4,M,,*57
$GPGSA,A,3,02,06,05,19,20,12,13,09,17,25,30,,2.00,0.85,1.82*07
$GPGSV,4,2,13,09,19,043,34,12,24,261,13,13,24,186,22,15,02,209,*78
$GPGSV,4,4,13,30,07,124,26*4C
$GPGLL,2458.05119,N,12111.26559,E,090233.00,A,A*6A
$GPVTG,,T,,M,0.194,N,0.360,K,A*2A
$GPGGA,090234.00,2458.05109,N,12111.26559,E,1,11,0.85,160.4,M,16.4,M,,*54
$GPGSA,A,3,02,06,05,19,20,12,13,09,17,25,30,,2.00,0.85,1.82*07
$GPGSV,4,1,13,02,55,358,33,05,41,267,22,06,46,059,38,07,04,088,28*7B
$GPGSV,4,2,13,09,19,043,34,12,24,261,10,13,24,186,24,15,02,209,*7D
$GPGSV,4,3,13,17,17,147,23,19,39,147,29,20,34,269,23,25,10,294,14*71
$GPGSV,4,4,13,30,07,124,26*4C
$GPGLL,2458.05109,N,12111.26559,E,090234.00,A,A*6C
$GPRMC,090235.00,A,2458.05107,N,12111.26547,E,0.229,,090621,,,A*70
$GPVTG,,T,,M,0.229,N,0.425,K,A*29
$GPGGA,090235.00,2458.05107,N,12111.26547,E,1,11,0.85,159.8,M,16.4,M,,*52
$GPGSA,A,3,02,06,05,19,20,12,13,09,17,25,30,,2.00,0.85,1.82*07
$GPGSV,4,1,13,02,55,358,33,05,41,267,21,06,46,059,38,07,04,088,28*78
$GPGSV,4,2,13,09,19,043,35,12,24,261,12,13,24,186,25,15,02,209,*7F
$GPGSV,4,3,13,17,17,147,24,19,39,147,30,20,34,269,25,25,10,294,13*7F
$GPGSV,4,4,13,30,07,124,25*4F
$GPGLL,2458.05107,N,12111.26547,E,090235.00,A,A*6C
$GPRMC,090236.00,A,2458.05086,N,12111.26512,E,0.805,,090621,,,A*7F
$GPVTG,,T,,M,0.805,N,1.490,K,A*22
$GPGGA,090236.00,2458.05086,N,12111.26512,E,1,11,0.75,158.9,M,16.4,M,,*56
$GPGSA,A,3,02,06,05,19,20,12,13,09,17,25,30,,1.61,0.75,1.43*01
$GPGSV,4,1,13,02,55,358,30,05,41,267,22,06,46,059,35,07,04,088,28*75
$GPGSV,4,2,13,09,19,043,35,12,24,261,12,13,24,186,24,15,02,209,*7E
$GPGSV,4,3,13,17,17,147,23,19,39,147,30,20,34,269,26,25,10,294,11*79
$GPGSV,4,4,13,30,07,124,25*4F
$GPGLL,2458.05086,N,12111.26512,E,090236.00,A,A*67
$GPVTG,,T,,M,0.654,N,1.212,K,A*24
$GPGGA,090237.00,2458.05079,N,12111.26498,E,
$GPGSA,A,3,02,06,05,19,20,12,13,09,17,30,,,2.27,0.91,2.08*01
$GPGSV,4,1,13,02,55,358,33,05,41,267,22,06,46,059,38,07,04,088,28*7B
$GPGSV,4,2,13,09,19,043,35,12,24,261,15,13,24,186,24,15,02,209,*79
$GPGSV,4,3,13,17,17,147,23,19,39,147,30,20,34,269,26,25,10,294,08*71
$GPGSV,4,4,13,30,07,124,26*4C
$GPVTG,,T,,M,0.287,N,0.531,K,A*29
$GPGGA,090238.00,2458.05088,N,12111.26494,E,1,10,0.91,158.6,M,16.4,M,,*5D
$GPGSA,A,3,02,06,05,19,20,12,13,09,17,30,,,2.27,0.91,2.08*01
$GPGSV,4,1,13,02,55,358,33,05,41,267,23,06,46,059,38,07,04,088,29*7B
$GPGSV,4,2,13,09,19,043,35,12,24,261,14,13,24,186,24,15,02,209,*78
$GPGSV,4,3,13,17,17,147,24,19,39,147,30,20,34,269,26,25,10,294,08*76
$GPGSV,4,4,13,30,07,124,27*4D
$GPGLL,2458.05088,N,12111.26494,E,090238.00,A,A*68
$GPRMC,090239.00,A,2458.05093,N,12111.26488,E,0.226,,090621,,,A*7D
$GPVTG,,T,,M,0.226,N,0.419,K,A*29
$GPGGA,090239.00,2458.05093,N,12111.26488,E,1,10,0.91,158.5,M,16.4,M,,*58
$GPGSA,A,3,02,06,05,19,20,12,13,09,17,30,,,2.27,0.91,2.08*01
$GPGSV,4,1,13,02,55,358,33,05,41,267,24,06,46,059,38,07,04,088,29*7C
$GPGSV,4,2,13,09,19,043,35,12,24,261,14,13,24,186,24,15,02,209,*78
$GPGSV,4,3,13,17,17,147,24,19,39,147,29,20,34,269,26,25,10,294,08*7E
$GPGSV,4,4,13,30,07,124,28*42
$GPGLL,2458.05093,N,12111.26488,E,090239.00,A,A*6E
$GPRMC,090240.00,A,2458.05060,N,12111.26470,E,0.842,,090621,,,A*70
$GPVTG,,T,,M,0.842,N,1.559,K,A*25
$GPGGA,090240.00,2458.05060,N,12111.26470,E,1,10,0.89,157.3,M,16.4,M,,*5D
$GPGSA,A,3,02,06,05,19,20,12,13,09,17,30,,,2.03,0.89,1.82*0F
$GPGSV,4,1,13,02,55,358,32,05,41,267,25,06,46,059,38,07,04,088,29*7C
$GPGSV,4,2,13,09,19,043,35,12,24,261,14,13,24,186,24,15,02,209,*78
$GPGSV,4,3,13,17,17,147,25,19,39,147,30,20,34,269,26,25,10,294,08*77
$GPGSV,4,4,13,30,07,124,28*42
$GPGLL,2458.05060,N,12111.26470,E,090240.00,A,A*6B
$GPRMC,090241.00,A,2458.05030,N,12111.26434,E,0.429,,090621,,,A*75
$GPVTG,,T,,M,0.429,N,0.795,K,A*27
$GPGGA,090241.00,2458.05030,N,12111.26434,E,1,10,0.85,156.1,M,16.4,M,,*56
$GPGSA,A,3,02,06,05,19,20,12,13,09,17,30,,,2.00,0.85,1.82*00
$GPGSV,4,1,13,02,55,358,32,05,41,267,25,06,46,059,38,07,04,088,29*7C
$GPGSV,4,2,13,09,19,043,35,12,24,261,13,13,24,186,23,15,02,209,*78
$GPVTG,,T,,M,0.1
$GPGGA,090317.00,2458.04395,N,12111.26258,E,1,10,0.82,138.4,M,16.4,M,,*5F
$GPGSA,A,3,02,06,19,20,12,13,09,17,25,30,,,1.70,0.82,1.49*06
$GPGSV,4,1,13,02,55,359,39,05,41,268,,06,46,060,39,07,04,088,21*7D
$GPGSV,4,2,13,09,18,043,32,12,24,261,18,13,25,186,18,15,03,209,*7D
$GPGSV,4,3,13,17,16,147,26,19,39,147,25,20,34,270,27,25,10,294,26*74
$GPGSV,4,4,13,30,07,124,32*49
$GPGLL,2458.04395,N,12111.26258,E,090317.00,A,A*6C
$GPRMC,090318.00,A,2458.04389,N,12111.26271,E,0.268,,090621,,,A*7C
$GPVTG,,T,,M,0.268,N,0.496,K,A*24
$GPGGA,090318.00,2458.04389,N,12111.26271,E,1,10,0.77,138.3,M,16.4,M,,*5B
$GPGSA,A,3,02,06,19,20,12,13,09,17,25,30,,,1.67,0.77,1.49*0A
$GPGSV,4,1,13,02,55,359,39,05,41,268,,06,46,060,38,07,04,088,21*7C
$GPGSV,4,2,13,09,18,043,32,12,24,261,17,13,25,186,17,15,03,209,*7D
$GPGSV,4,3,13,17,16,147,25,19,39,147,26,20,34,270,27,25,10,294,26*74
$GPGSV,4,4,13,30,07,124,32*49
$GPGLL,2458.04389,N,12111.26271,E,090318.00,A,A*65
$GPRMC,090319.00,A,2458.04373,N,12111.26267,E,0.033,,090621,,,A*73
$GPVTG,,T,,M,0.033,N,0.060,K,A*25
$GPGGA,090319.00,2458.04373,N,12111.26267,E,1,10,0.82,138.0,M,16.4,M,,*51
$GPGSA,A,3,02,06,19,20,12,13,09,17,25,30,,,1.70,0.82,1.49*06
$GPGSV,4,1,13,02,55,359,36,05,41,268,,06,46,060,35,07,04,088,20*7F
$GPGSV,4,2,13,09,18,043,30,12,24,261,14,13,25,186,16,15,03,209,*7D
$GPGSV,4,3,13,17,16,147,24,19,39,147,24,20,34,270,26,25,10,294,26*76
$GPGSV,4,4,13,30,07,124,31*4A
$GPGLL,2458.04373,N,12111.26267,E,090319.00,A,A*66
$GPRMC,090320.00,A,2458.04359,N,12111.26264,E,0.107,,090621,,,A*74
$GPVTG,,T,,M,0.107,N,0.198,K,A*25
$GPGGA,090320.00,2458.04359,N,12111.26264,E,1,10,0.82,137.9,M,16.4,M,,*56
$GPGSA,A,3,02,06,19,20,12,13,09,17,25,30,,,1.70,0.82,1.49*06
$GPGSV,4,1,13,02,55,359,37,05,41,268,,06,46,060,36,07,04,088,20*7D
$GPGSV,4,2,13,09,18,043,31,12,24,261,12,13,25,186,15,15,03,209,*79
$GPGSV,4,3,13,17,16,147,23,19,39,147,24,20,34,270,26,25,10,294,26*71
$GPGSV,4,4,13,30,07,124,31*4A
$GPGLL,2458.04359,N,12111.26264,E,090320.00,A,A*67
$GPRMC,090321.00,A,2458.04343,N,12111.26262,E,0.103,,090621,,,A*7C
$GPVTG,,T,,M,0.103,N,0.191,K,A*28
$GPGGA,090321.00,2458.04343,N,12111.26262,E,1,10,0.82,137.5,M,16.4,M,,*56
$GPGSA,A,3,02,06,19,20,12,13,09,17,25,30,,,1.70,0.82,1.49*06
$GPGSV,4,1,13,02,55,359,41,05,41,268,,06,46,060,38,07,04,088,18*79
$GPGSV,4,2,13,09,18,043,31,12,24,261,12,13,25,186,16,15,03,209,*7A
$GPGSV,4,3,13,17,16,147,23,19,39,147,24,20,34,270,26,25,10,294,27*70
$GPGSV,4,4,13,30,07,124,35*4E
$GPGLL,2458.04343,N,12111.26262,E,090321.00,A,A*6B
$GPRMC,090322.00,A,2458.04325,N,12111.26259,E,0.135,,090621,,,A*72
$GPVTG,,T,,M,0.135,N,0.250,K,A*23
$GPGGA,090322.00,2458.04325,N,12111.26259,E,1,11,0.82,137.3,M,16.4,M,,*5A
$GPGSA,A,3,02,06,05,19,20,12,13,09,17,25,30,,1.70,0.82,1.49*03
$GPGSV,4,1,13,02,55,359,38,05,41,268,16,06,46,060,37,07,04,088,18*7F
$GPGSV,4,2,13,09,18,043,32,12,24,261,10,13,25,186,15,15,03,209,*78
$GPGSV,4,3,13,17,16,147,24,19,39,147,24,20,34,270,26,25,10,294,28*78
$GPGSV,4,4,13,30,07,124,34*4F
$GPGLL,2458.04325,N,12111.26259,E,090322.00,A,A*60
$GPRMC,090323.00,A,2458.04308,N,12111.26257,E,0.149,,090621,,,A*79
$GPVTG,,T,,M,0.149,N,0.276,K,A*2C
$GPGGA,090323.00,2458.04308,N,12111.26257,E,1,09,0.82,137.1,M,16.4,M,,*51
$GPGSA,A,3,02,06,19,20,13,09,17,25,30,,,,1.70,0.82,1.49*05
$GPGSV,4,1,13,02,55,359,39,05,41,268,15,06,46,060,37,07,04,088,20*76
$GPGSV,4,2,13,09,18,043,32,12,24,261,09,13,25,186,17,15,03,209,16*75
$GPRMC,090324.00,A,2458.04292,N,12111.26257,E,0.128,,090621,,,A*7B
$GPVTG,,T,,M,0.128,N,0.238,K,A*21
$GPGGA,090324.00,2458.04292,N,12111.26257,E,1,10,0.82,137.1,M,16.4,M,,*5C
$GPGSA,A,3,02,06,05,19,20,13,09,17,25,30,,,1.70,0.82,1.49*00
$GPGSV,4,1,13,02,55,359,38,05,41,268,15,06,46,060,37,07,04,088,20*77
$GPRMC,090325.00,A,2458.04281,N,12111.26257,E,0.019,,090621,,,A*7B
$GPRMC,090326.00,A,2458.04276,N,12111.26260,E,0.129,,090621,,,A*76
$GPVTG,,T,,M,0.129,N,0.238,K,A*20
$GPGGA,090326.00,2458.04276,N,12111.26260,E,1,09,0.82,137.0,M,16.4,M,,*59
$GPGSA,A,3,02,06,19,20,13,09,17,25,30,,,,1.70,0.82,1.49*05
$GPGSV,4,1,13,02,55,359,39,05,41,268,15,06,46,060,36,07,04,088,18*7C
$GPRMC,090327.00,A,2458.04270,N,12111.26267,E,0.120,,090621,,,A*7F
$GPVTG,,T,,M,0.120,N,0.221,K,A*21
$GPGGA,090327.00,2458.04270,N,12111.26267,E,1,09,0.82,137.0,M,16.4,M,,*59
$GPGSA,A,3,02,06,19,20,13,09,17,25,30,,,,1.70,0.82,1.49*05
$GPGSV,4,1,13,02,55,359,39,05,41,268,15,06,46,060,36,07,04,088,17*73
$GPRMC,090328.00,A,2458.04269,N,12111.26275,E,0.216,,090621,,,A*7D
$GPVTG,,T,,M,0.216,N,0.400,K,A*22
$GPGGA,090328.00,2458.04269,N,12111.26275,E,1,11,0.82,137.0,M,16.4,M,,*54
$GPGSA,A,3,02,06,05,19,20,12,13,09,17,25,30,,1.70,0.82,1.49*03
$GPGSV,4,1,13,02,55,359,40,05,41,268,17,06,46,060,37,07,04,088,17*7E
$GPGSV,4,2,13,09,18,043,31,12,24,261,13,13,25,186,17,15,03,209,12*79
$GPRMC,090329.00,A,2458.04263,N,12111.26284,E,0.200,,090621,,,A*7F
$GPVTG,,T,,M,0.200,N,0.370,K,A*25
$GPGGA,090329.00,2458.04263,N,12111.26284,E,1,11,0.82,137.0,M,16.4,M,,*51
$GPGSA,A,3,02,06,05,19,20,12,13,09,17,25,30,,1.70,0.82,1.49*03
$GPRMC,090330.00,A,2458.04251,N,12111.26283,E,0.103,,090621,,,A*71
$GPVTG,,T,,M,0.103,N,0.190,K,A*29
$GPGGA,090330.00,2458.04251,N,12111.26283,E,1,11,0.82,137.0,M,16.4,M,,*5F
$GPGSA,A,3,02,06,05,19,20,12,13,09,17,25,30,,1.70,0.82,1.49*03
$GPRMC,090331.00,A,2458.04239,N,12111.26283,E,0.129,,090621,,,A*76
$GPVTG,,T,,M,0.129,N,0.239,K,A*21
$GPGGA,090331.00,2458.04239,N,12111.26283,E,1,11,0.82,136.9,M,16.4,M,,*58
$GPGSA,A,3,02,06,05,19,20,12,13,09,17,25,30,,1.70,0.82,1.49*03
$GPRMC,090332.00,A,2458.04237,N,12111.26288,E,0.120,,090621,,,A*79
$GPVTG,,T,,M,0.120,N,0.222,K,A*22
$GPGGA,090332.00,2458.04237,N,12111.26288,E,1,10,0.91,136.8,M,16.4,M,,*5C
$GPGSA,A,3,02,06,19,20,12,13,09,17,25,30,,,1.75,0.91,1.50*09
$GPGSV,4,1,13,02,55,359,37,05,41,268,17,06,46,060,36,07,04,088,19*71
$GPGSV,4,2,13,09,18,043,30,12,24,261,22,13,25,186,15,15,03,209,11*7B
$GPGSV,4,3,13,17,16,147,23,19,39,147,26,20,34,270,28,25,10,294,28*73
$GPGSV,4,4,13,30,07,124,31*4A
$GPRMC,090333.00,A,2458.04230,N,12111.26291,E,0.042,,090621,,,A*72
$GPVTG,,T,,M,0.042,N,0.079,K,A*2B
$GPGGA,090333.00,2458.04230,N,12111.26291,E,1,11,0.91,136.7,M,16.4,M,,*5C
$GPGSA,A,3,02,06,05,19,20,12,13,09,17,25,30,,1.75,0.91,1.50*0C
$GPGSV,4,1,13,02,55,359,39,05,41,268,17,06,46,060,37,07,04,088,19*7E
$GPGSV,4,2,13,09,18,043,30,12,24,261,23,13,25,186,14,15,03,209,11*7B
$GPRMC,090334.00,A,2458.04231,N,12111.26299,E,0.341,,090621,,,A*7C
$GPVTG,,T,,M,0.341,N,0.631,K,A*21
$GPGGA,090334.00,2458.04231,N,12111.26299,E,1,11,0.82,136.7,M,16.4,M,,*50
$GPRMC,090335.00,A,2458.04231,N,12111.26303,E,0.531,,090621,,,A*7E
$GPVTG,,T,,M,0.531,N,0.983,K,A*26
$GPGGA,090335.00,2458.04231,N,12111.26303,E,1,11,0.82,136.6,M,16.4,M,,*52
$GPRMC,090336.00,A,2458.04222,N,12111.26306,E,0.211,,090621,,,A*7F
$GPVTG,,T,,M,0.211,N,0.391,K,A*2A
$GPGGA,090336.00,2458.04222,N,12111.26306,E,1,11,0.82,136.6,M,16.4,M,,*56
$GPGSA,A,3,02,06,05,19,20,12,13,09,17,25,30,,1.70,0.82,1.49*03
$GPGSV,4,1,13,02,55,359,36,05,41,268,18,06,46,060,35,07,04,088,19*7C
$GPGSV,4,2,13,09,18,043,30,12,24,261,23,13,25,186,13,15,03,209,11*7C
$GPRMC,090337.00,A,2458.04209,N,12111.26307,E,0.041,,090621,,,A*71
$GPVTG,,T,,M,0.041,N,0.076,K,A*27
$GPGGA,090337.00,2458.04209,N,12111.26307,E,1,11,0.82,136.7,M,16.4,M,,*5E
$GPGSA,A,3,02,06,05,19,20,12,13,09,17,25,30,,1.70,0.82,1.49*03
$GPRMC,090338.00,A,2458.04199,N,12111.26310,E,0.079,,090621,,,A*79
$GPVTG,,T,,M,0.079,N,0.146,K,A*2E
$GPGGA,090338.00,2458.04199,N,12111.26310,E,1,11,0.82,136.7,M,16.4,M,,*5D
$GPRMC,090339.00,A,2458.04188,N,12111.26313,E,0.109,,090621,,,A*7D
$GPRMC,090340.00,A,2458.04183,N,12111.26316,E,0.119,,090621,,,A*7C
$GPVTG,,T,,M,0.119,N,0.219,K,A*20
$GPGGA,090340.00,2458.04183,N,12111.26316,E,1,11,0.91,136.7,M,16.4,M,,*5D
$GPRMC,090341.00,A,2458.04181,N,12111.26324,E,0.025,,090621,,,A*70
$GPVTG,,T,,M,0.025,N,0.046,K,A*26
$GPGGA,090341.00,2458.04181,N,12111.26324,E,1,11,0.91,136.6,M,16.4,M,,*5E
$GPRMC,090342.00,A,2458.04182,N,12111.26327,E,0.070,,090621,,,A*73
$GPVTG,,T,,M,0.070,N,0.130,K,A*26
$GPGGA,090342.00,2458.04182,N,12111.26327,E,1,11,0.91,136.4,M,16.4,M,,*5F
$GPGSA,A,3,02,06,05,19,20,12,13,09,17,25,30,,1.75,0.91,1.50*0C
$GPRMC,090343.00,A,2458.04189,N,12111.26336,E,0.245,,090621,,,A*7D
$GPVTG,,T,,M,0.245,N,0.454,K,A*25
$GPGGA,090343.00,2458.04189,N,12111.26336,E,1,11,0.91,136.2,M,16.4,M,,*53
$GPGSA,A,3,02,06,05,19,20,12,13,09,17,25,30,,1.75,0.91,1.50*0C
$GPGSV,4,1,13,02,55,359,38,05,41,268,20,06,46,060,38,07,04,088,22*7C
$GPRMC,090344.00,A,2458.04188,N,12111.26336,E,0.072,,090621,,,A*7D
$GPVTG,,T,,M,0.072,N,0.134,K,A*20
$GPGGA,090344.00,2458.04188,N,12111.26336,E,1,11,0.91,136.1,M,16.4,M,,*56
$GPRMC,090345.00,A,2458.04192,N,12111.26338,E,0.093,,090621,,,A*76
$GPVTG,,T,,M,0.093,N,0.172,K,A*2D
$GPGGA,090345.00,2458.04192,N,12111.26338,E,1,11,0.91,135.9,M,16.4,M,,*59
$GPRMC,090346.00,A,2458.04194,N,12111.26336,E,0.071,,090621,,,A*71
$GPVTG,,T,,M,0.071,N,0.132,K,A*25
$GPGGA,090346.00,2458.04194,N,12111.26336,E,1,11,0.82,135.8,M,16.4,M,,*51
$GPRMC,090347.00,A,2458.04199,N,12111.26339,E,0.090,,090621,,,A*7D
$GPVTG,,T,,M,0.090,N,0.167,K,A*2A
$GPGGA,090347.00,2458.04199,N,12111.26339,E,1,11,0.82,135.7,M,16.4,M,,*5D
$GPGSA,A,3,02,06,05,19,20,12,13,09,17,25,30,,1.70,0.82,1.49*03
$GPRMC,090348.00,A,2458.04202,N,12111.26341,E,0.101,,090621,,,A*75
$GPVTG,,T,,M,0.101,N,0.187,K,A*2D
$GPGGA,090348.00,2458.04202,N,12111.26341,E,1,11,0.78,135.6,M,16.4,M,,*58
$GPGSA,A,3,02,06,05,19,20,12,13,09,17,25,30,,1.64,0.78,1.44*0E
$GPRMC,090349.00,A,2458.04207,N,12111.26340,E,0.105,,090621,,,A*74
$GPVTG,,T,,M,0.105,N,0.194,K,A*2B
$GPGGA,090349.00,2458.04207,N,12111.26340,E,1,11,0.78,135.5,M,16.4,M,,*5E
$GPGSA,A,3,02,06,05,19,20,12,13,09,17,25,30,,1.64,0.78,1.44*0E
$GPRMC,090350.00,A,2458.04212,N,12111.26337,E,0.069,,090621,,,A*73
$GPVTG,,T,,M,0.069,N,0.128,K,A*27
$GPGGA,090350.00,2458.04212,N,12111.26337,E,1,11,0.78,135.3,M,16.4,M,,*54
$GPGSA,A,3,02,06,05,19,20,12,13,09,17,25,30,,1.64,0.78,1.44*0E
$GPRMC,090351.00,A,2458.04214,N,12111.26335,E,0.094,,090621,,,A*74
$GPVTG,,T,,M,0.094,N,0.174,K,A*2C
$GPGGA,090351.00,2458.04214,N,12111.26335,E,1,11,0.78,135.2,M,16.4,M,,*50
$GPRMC,090352.00,A,2458.04213,N,12111.26335,E,0.054,,090621,,,A*7C
$GPVTG,,T,,M,0.054,N,0.100,K,A*23
$GPGGA,090352.00,2458.04213,N,12111.26335,E,1,11,0.78,135.1,M,16.4,M,,*57
$GPRMC,090353.00,A,2458.04213,N,12111.26336,E,0.061,,090621,,,A*78
$GPVTG,,T,,M,0.061,N,0.113,K,A*27
$GPGGA,090353.00,2458.04213,N,12111.26336,E,1,11,0.78,135.1,M,16.4,M,,*55
$GPGSA,A,3,02,06,05,19,20,12,13,09,17,25,30,,1.64,0.78,1.44*0E
$GPGSV,4,1,13,02,55,359,39,05,41,268,19,06,46,060,37,07,04,088,22*78
$GPRMC,090354.00,A,2458.04217,N,12111.26339,E,0.095,,090621,,,A*7F
$GPVTG,,T,,M,0.095,N,0.176,K,A*2F
$GPGGA,090354.00,2458.04217,N,12111.26339,E,1,10,0.78,135.0,M,16.4,M,,*59
$GPRMC,090355.00,A,2458.04223,N,12111.26345,E,0.184,,090621,,,A*73
$GPVTG,,T,,M,0.184,N,0.341,K,A*28
$GPGGA,090355.00,2458.04223,N,12111.26345,E,1,10,0.78,134.8,M,16.4,M,,*5D
$GPGSA,A,3,02,06,05,19,20,13,09,17,25,30,,,1.64,0.78,1.44*0D
$GPRMC,090356.00,A,2458.04228,N,12111.26347,E,0.062,,090621,,,A*70
$GPVTG,,T,,M,0.062,N,0.115,K,A*22
$GPGGA,090356.00,2458.04228,N,12111.26347,E,1,09,0.86,134.7,M,16.4,M,,*51
$GPRMC,090357.00,A,2458.04236,N,12111.26355,E,0.066,,090621,,,A*79
$GPRMC,090358.00,A,2458.04243,N,12111.26362,E,0.061,,090621,,,A*77
$GPVTG,,T,,M,0.061,N,0.114,K,A*20
$GPGGA,090358.00,2458.04243,N,12111.26362,E,1,09,0.86,134.3,M,16.4,M,,*51
$GPGSA,A,3,02,06,05,19,20,09,17,25,30,,,,1.67,0.86,1.44*0D
$GPGSV,4,1,13,02,55,359,39,05,41,268,20,06,46,060,38,07,04,088,23*7C
$GPGSV,4,2,13,09,18,043,31,12,24,261,,13,25,186,,15,03,209,*7E
$GPRMC,090359.00,A,2458.04247,N,12111.26367,E,0.029,,090621,,,A*7B
$GPVTG,,T,,M,0.029,N,0.054,K,A*29
$GPGGA,090359.00,2458.04247,N,12111.26367,E,1,11,0.91,134.1,M,16.4,M,,*5C
$GPRMC,090400.00,A,2458.04251,N,12111.26371,E,0.023,,090621,,,A*7A
$GPVTG,,T,,M,0.023,N,0.043,K,A*25
$GPRMC,090401.00,A,2458.04254,N,12111.26377,E,0.080,,090621,,,A*71
$GPVTG,,T,,M,0.080,N,0.148,K,A*26
$GPGGA,090401.00,2458.04254,N,12111.26377,E,1,11,0.91,133.7,M,16.4,M,,*54
$GPRMC,090403.00,A,2458.04267,N,12111.26383,E,0.323,,090621,,,A*72
$GPVTG,,T,,M,0.323,N,0.599,K,A*24
$GPGGA,090403.00,2458.04267,N,12111.26383,E,1,10,0.91,133.3,M,16.4,M,,*58
$GPRMC,090404.00,A,2458.04267,N,12111.26384,E,0.090,,090621,,,A*79
$GPVTG,,T,,M,0.090,N,0.168,K,A*25
$GPGGA,090404.00,2458.04267,N,12111.26384,E,1,10,0.91,133.2,M,16.4,M,,*59
$GPRMC,090405.00,A,2458.04266,N,12111.26384,E,0.088,,090621,,,A*70
$GPVTG,,T,,M,0.088,N,0.164,K,A*20
$GPGGA,090405.00,2458.04266,N,12111.26384,E,1,10,0.91,133.0,M,16.4,M,,*5B
$GPGSA,A,3,02,06,19,20,12,13,09,17,25,30,,,1.75,0.91,1.50*09
$GPRMC,090406.00,A,2458.04264,N,12111.26383,E,0.141,,090621,,,A*72
$GPVTG,,T,,M,0.141,N,0.260,K,A*23
$GPGGA,090406.00,2458.04264,N,12111.26383,E,1,11,0.91,132.8,M,16.4,M,,*55
$GPRMC,090407.00,A,2458.04260,N,12111.26381,E,0.169,,090621,,,A*7F
$GPVTG,,T,,M,0.169,N,0.314,K,A*2B
$GPGGA,090407.00,2458.04260,N,12111.26381,E,1,11,0.91,132.6,M,16.4,M,,*5C
$GPGSA,A,3,02,06,05,19,20,12,13,09,17,25,30,,1.75,0.91,1.50*0C
$GPRMC,090409.00,A,2458.04258,N,12111.26372,E,0.239,,090621,,,A*70
$GPVTG,,T,,M,0.239,N,0.442,K,A*29
$GPGGA,090409.00,2458.04258,N,12111.26372,E,1,11,0.91,132.1,M,16.4,M,,*52
$GPRMC,090410.00,A,2458.04253,N,12111.26369,E,0.154,,090621,,,A*71
$GPVTG,,T,,M,0.154,N,0.285,K,A*2C
$GPGGA,090410.00,2458.04253,N,12111.26369,E,1,11,0.91,131.9,M,16.4,M,,*50
$GPGSA,A,3,02,06,05,19,20,12,13,09,17,25,30,,1.75,0.91,1.50*0C
$GPRMC,090411.00,A,2458.04251,N,12111.26365,E,0.167,,090621,,,A*7E
$GPVTG,,T,,M,0.167,N,0.310,K,A*21
$GPGGA,090411.00,2458.04251,N,12111.26365,E,1,11,0.91,131.7,M,16.4,M,,*51
$GPGSA,A,3,02,06,05,19,20,12,13,09,17,25,30,,1.75,0.91,1.50*0C
$GPGSV,4,1,13,02,55,000,39,05,41,268,21,06,46,060,36,07,04,087,16*75
$GPRMC,090412.00,A,2458.04249,N,12111.26367,E,0.091,,090621,,,A*7E
$GPVTG,,T,,M,0.091,N,0.168,K,A*24
$GPGGA,090412.00,2458.04249,N,12111.26367,E,1,11,0.91,131.6,M,16.4,M,,*58
$GPRMC,090413.00,A,2458.04244,N,12111.26377,E,0.380,,090621,,,A*70
$GPVTG,,T,,M,0.380,N,0.704,K,A*2B
$GPGGA,090413.00,2458.04244,N,12111.26377,E,1,11,0.91,131.8,M,16.4,M,,*5B
$GPRMC,090418.00,A,2458.04287,N,12111.26411,E,0.069,,090621,,,A*77
$GPVTG,,T,,M,0.069,N,0.127,K,A*28
$GPGGA,090418.00,2458.04287,N,12111.26411,E,1,10,0.84,131.2,M,16.4,M,,*57
$GPGSA,A,3,02,06,05,19,20,12,13,09,17,30,,,1.99,0.84,1.80*00
$GPGSV,4,1,13,02,55,000,39,05,41,268,16,06,46,060,35,07,04,087,18*7C
$GPGSV,4,2,13,09,18,043,33,12,23,260,11,13,25,186,19,15,03,209,*72
$GPGSV,4,3,13,17,16,148,13,19,38,147,26,20,35,270,23,25,10,294,08*76
$GPGSV,4,4,13,30,07,124,31*4A
$GPRMC,090419.00,A,2458.04307,N,12111.26446,E,0.340,,090621,,,A*75
$GPVTG,,T,,M,0.340,N,0.630,K,A*21
$GPGGA,090419.00,2458.04307,N,12111.26446,E,1,10,0.87,131.5,M,16.4,M,,*59
$GPGSA,A,3,02,06,05,19,20,12,13,09,17,30,,,2.02,0.87,1.82*00
$GPGSV,4,1,13,02,55,000,37,05,41,268,14,06,46,060,35,07,04,087,19*71
$GPGSV,4,2,13,09,18,043,33,12,23,260,12,13,25,186,20,15,03,209,*7B
$GPGSV,4,3,13,17,16,148,15,19,38,147,26,20,35,270,22,25,10,294,08*71
$GPGSV,4,4,13,30,07,124,31*4A
$GPGLL,2458.04307,N,12111.26446,E,090419.00,A,A*67
$GPRMC,090420.00,A,2458.04303,N,12111.26443,E,0.108,,090621,,,A*70
$GPVTG,,T,,M,0.108,N,0.199,K,A*2B
$GPGGA,090420.00,2458.04303,N,12111.26443,E,1,10,1.10,131.4,M,16.4,M,,*5C
$GPGSA,A,3,02,06,05,19,20,12,13,09,17,30,,,2.27,1.10,1.99*02
$GPGSV,4,1,13,02,55,000,40,05,41,268,13,06,46,060,35,07,04,087,20*7C
$GPGSV,4,2,13,09,18,043,33,12,23,260,11,13,25,186,20,15,03,209,*78
$GPGSV,4,3,13,17,16,148,18,19,38,147,27,20,35,270,21,25,10,294,06*70
$GPGSV,4,4,13,30,07,124,32*49
$GPGLL,2458.04303,N,12111.26443,E,090420.00,A,A*6C
$GPRMC,090421.00,A,2458.04311,N,12111.26447,E,0.079,,090621,,,A*71
$GPVTG,,T,,M,0.079,N,0.147,K,A*2F
$GPGGA,090421.00,2458.04311,N,12111.26447,E,1,10,1.03,131.3,M,16.4,M,,*5F
$GPGSA,A,3,02,06,05,19,20,12,13,09,17,30,,,2.24,1.03,1.99*03
$GPGSV,4,1,13,02,55,000,38,05,41,268,12,06,46,060,33,07,04,087,20*74
$GPGSV,4,2,13,09,18,043,33,12,23,260,10,13,25,186,19,15,03,209,*73
$GPGSV,4,3,13,17,16,148,19,19,38,147,26,20,35,270,19,25,10,294,06*7B
$GPGSV,4,4,13,30,07,124,26*4C
$GPGLL,2458.04311,N,12111.26447,E,090421.00,A,A*6A
$GPRMC,090422.00,A,2458.04320,N,12111.26459,E,0.180,,090621,,,A*78
$GPVTG,,T,,M,0.180,N,0.334,K,A*2E
$GPGGA,090422.00,2458.04320,N,12111.26459,E,1,09,0.94,131.3,M,16.4,M,,*56
$GPGSA,A,3,02,06,05,19,20,13,09,17,30,,,,2.20,0.94,1.98*0A
$GPGSV,4,1,13,02,55,000,39,05,41,268,14,06,46,060,35,07,04,087,22*77
$GPGSV,4,2,13,09,18,043,33,12,23,260,09,13,25,186,20,15,03,209,*71
$GPGSV,4,3,13,17,16,148,21,19,38,147,27,20,35,270,19,25,10,294,06*71
$GPGSV,4,4,13,30,07,124,29*43
$GPGLL,2458.04320,N,12111.26459,E,090422.00,A,A*64
$GPRMC,090423.00,A,2458.04308,N,12111.26451,E,0.251,,090621,,,A*74
$GPVTG,,T,,M,0.251,N,0.465,K,A*22
$GPGGA,090423.00,2458.04308,N,12111.26451,E,1,09,1.10,131.2,M,16.4,M,,*59
$GPGSA,A,3,02,06,05,19,20,13,09,17,30,,,,2.27,1.10,1.99*01
$GPGSV,4,1,13,02,55,000,40,05,41,268,17,06,46,060,36,07,04,087,24*7F
$GPGSV,4,2,13,09,18,043,34,12,23,260,08,13,25,186,21,15,03,209,*76
$GPGSV,4,3,13,17,16,148,22,19,38,147,27,20,35,270,20,25,10,293,06*7F
$GPGSV,4,4,13,30,07,124,30*4B
$GPGLL,2458.04308,N,12111.26451,E,090423.00,A,A*67
$GPRMC,090424.00,A,2458.04303,N,12111.26437,E,0.308,,090621,,,A*75
$GPVTG,,T,,M,0.308,N,0.570,K,A*2A
$GPGGA,090424.00,2458.04303,N,12111.26437,E,1,09,1.10,131.1,M,16.4,M,,*56
$GPGSA,A,3,02,06,05,19,20,13,09,17,30,,,,2.27,1.10,1.99*01
$GPGSV,4,1,13,02,55,000,38,05,41,268,17,06,46,060,36,07,04,087,24*70
$GPGSV,4,2,13,09,18,043,30,12,23,260,08,13,25,186,20,15,03,209,*73
$GPGSV,4,3,13,17,16,148,22,19,38,147,24,20,35,270,19,25,10,293,06*76
$GPGSV,4,4,13,30,07,124,29*43
$GPGLL,2458.04303,N,12111.26437,E,090424.00,A,A*6B
$GPRMC,090425.00,A,2458.04297,N,12111.26433,E,0.133,,090621,,,A*76
$GPVTG,,T,,M,0.133,N,0.246,K,A*22
$GPGGA,090425.00,2458.04297,N,12111.26433,E,1,09,1.10,131.1,M,16.4,M,,*5F
$GPGSA,A,3,02,06,05,19,20,13,09,17,30,,,,2.27,1.10,1.99*01
$GPGSV,4,1,13,02,55,000,38,05,41,268,17,06,46,060,37,07,04,087,23*76
$GPGSV,4,2,13,09,18,043,30,12,23,260,08,13,25,186,21,15,03,209,*72
$GPGSV,4,3,13,17,16,148,21,19,38,147,23,20,35,270,20,25,10,293,06*78
$GPGSV,4,4,13,30,07,124,28*42
$GPGLL,2458.04297,N,12111.26433,E,090425.00,A,A*62
$GPRMC,090426.00,A,2458.04289,N,12111.26429,E,0.121,,090621,,,A*72
$GPVTG,,T,,M,0.121,N,0.225,K,A*24
$GPGGA,090426.00,2458.04289,N,12111.26429,E,1,10,1.10,131.2,M,16.4,M,,*53
$GPGSA,A,3,02,06,05,19,20,12,13,09,17,30,,,2.27,1.10,1.99*02
$GPGSV,4,1,13,02,55,000,39,05,41,268,17,06,46,060,38,07,04,087,22*79
$GPGSV,4,2,13,09,18,043,31,12,23,260,08,13,25,186,21,15,03,209,*73
$GPGSV,4,3,13,17,16,148,20,19,38,147,22,20,35,270,20,25,10,293,05*7B
$GPGSV,4,4,13,30,07,124,28*42
$GPGLL,2458.04289,N,12111.26429,E,090426.00,A,A*65
$GPRMC,090427.00,A,2458.04280,N,12111.26434,E,0.148,,090621,,,A*79
$GPVTG,,T,,M,0.148,N,0.273,K,A*28
$GPGGA,090427.00,2458.04280,N,12111.26434,E,1,10,1.10,131.3,M,16.4,M,,*56
$GPGSA,A,3,02,06,05,19,20,12,13,09,17,30,,,2.27,1.10,1.99*02
$GPGSV,4,1,13,02,55,000,37,05,41,268,17,06,46,060,37,07,04,087,21*7B
$GPGSV,4,2,13,09,18,043,31,12,23,260,09,13,25,186,22,15,03,209,*71
$GPGSV,4,3,13,17,16,148,20,19,38,147,22,20,35,270,20,25,10,293,06*78
$GPGSV,4,4,13,30,07,124,29*43
$GPGLL,2458.04280,N,12111.26434,E,090427.00,A,A*61
$GPRMC,090428.00,A,2458.04271,N,12111.26436,E,0.263,,090621,,,A*70
$GPVTG,,T,,M,0.263,N,0.488,K,A*20
$GPGGA,090428.00,2458.04271,N,12111.26436,E,1,10,1.10,131.4,M,16.4,M,,*52
$GPGSA,A,3,02,06,05,19,20,12,13,09,17,30,,,2.27,1.10,1.99*02
$GPGSV,4,1,13,02,55,000,37,05,41,268,17,06,46,060,37,07,04,087,20*7A
$GPGSV,4,2,13,09,18,043,30,12,23,260,10,13,25,186,22,15,03,209,*78
$GPGSV,4,3,13,17,16,148,20,19,38,147,21,20,35,270,21,25,10,293,*7C
$GPGSV,4,4,13,30,08,123,28*4A
$GPGLL,2458.04271,N,12111.26436,E,090428.00,A,A*62
$GPRMC,090435.00,A,2458.04224,N,12111.26461,E,0.135,,090621,,,A*7E
$GPVTG,,T,,M,0.135,N,0.250,K,A*23
$GPGGA,090435.00,2458.04224,N,12111.26461,E,1,09,1.10,132.4,M,16.4,M,,*57
$GPGSA,A,3,02,06,05,19,20,13,09,17,30,,,,2.27,1.10,1.99*01
$GPGSV,4,1,13,02,55,000,37,05,41,268,17,06,46,060,34,07,04,087,23*7A
$GPGSV,4,2,13,09,18,043,31,12,23,260,,13,25,186,23,15,03,209,*79
$GPGSV,4,3,13,17,16,148,22,19,38,147,18,20,35,270,22,25,10,293,*77
$GPGSV,4,4,13,30,08,123,28*4A
$GPGLL,2458.04224,N,12111.26461,E,090435.00,A,A*6C
$GPRMC,090436.00,A,2458.04220,N,12111.26462,E,0.106,,090621,,,A*7A
$GPVTG,,T,,M,0.106,N,0.197,K,A*2B
$GPGGA,090436.00,2458.04220,N,12111.26462,E,1,09,1.10,132.5,M,16.4,M,,*52
$GPGSA,A,3,02,06,05,19,20,13,09,17,30,,,,2.27,1.10,1.99*01
$GPGSV,4,1,13,02,55,000,37,05,41,268,17,06,46,060,34,07,04,087,22*7B
$GPGSV,4,2,13,09,18,043,30,12,23,260,,13,25,186,24,15,03,209,*7F
$GPGSV,4,3,13,17,16,148,22,19,38,147,17,20,35,270,22,25,10,293,*78
$GPGSV,4,4,13,30,08,123,28*4A
$GPGLL,2458.04220,N,12111.26462,E,090436.00,A,A*68
$GPRMC,090437.00,A,2458.04227,N,12111.26471,E,0.198,,090621,,,A*79
$GPVTG,,T,,M,0.198,N,0.367,K,A*21
$GPGGA,090437.00,2458.04227,N,12111.26471,E,1,09,1.10,132.7,M,16.4,M,,*54
$GPGSA,A,3,02,06,05,19,20,13,09,17,30,,,,2.27,1.10,1.99*01
$GPGSV,4,1,13,02,55,000,35,05,41,268,16,06,46,060,33,07,04,087,21*7C
$GPGSV,4,2,13,09,18,043,30,12,23,260,,13,25,186,23,15,03,209,*78
$GPGSV,4,3,13,17,16,148,21,19,38,147,18,20,35,270,21,25,10,293,*77
$GPGSV,4,4,13,30,08,123,28*4A
$GPGLL,2458.04227,N,12111.26471,E,090437.00,A,A*6C
$GPRMC,090438.00,A,2458.04222,N,12111.26476,E,0.125,,090621,,,A*72
$GPVTG,,T,,M,0.125,N,0.231,K,A*25
$GPGGA,090438.00,2458.04222,N,12111.26476,E,1,09,1.10,132.7,M,16.4,M,,*59
$GPGSA,A,3,02,06,05,19,20,13,09,17,30,,,,2.27,1.10,1.99*01
$GPGSV,4,1,13,02,55,000,37,05,41,268,16,06,46,060,35,07,04,087,21*78
$GPGSV,4,2,13,09,18,043,30,12,23,260,,13,25,186,23,15,03,209,*78
$GPGSV,4,3,13,17,16,148,21,19,38,147,18,20,35,270,20,25,10,293,*76
$GPGSV,4,4,13,30,08,123,28*4A
$GPGLL,2458.04222,N,12111.26476,E,090438.00,A,A*61
$GPRMC,090439.00,A,2458.04221,N,12111.26483,E,0.123,,090621,,,A*7C
$GPVTG,,T,,M,0.123,N,0.228,K,A*2B
$GPGGA,090439.00,2458.04221,N,12111.26483,E,1,09,1.10,132.9,M,16.4,M,,*5F
$GPGSA,A,3,02,06,05,19,20,13,09,17,30,,,,2.27,1.10,1.99*01
$GPGSV,4,1,13,02,55,000,37,05,41,268,16,06,46,060,35,07,04,087,22*7B
$GPGSV,4,2,13,09,18,043,31,12,23,260,,13,25,186,22,15,03,209,*78
$GPGSV,4,3,13,17,16,148,22,19,38,147,16,20,35,270,19,25,10,293,*71
$GPGSV,4,4,13,30,08,123,28*4A
$GPGLL,2458.04221,N,12111.26483,E,090439.00,A,A*69
$GPRMC,090440.00,A,2458.04231,N,12111.26496,E,0.242,,090621,,,A*73
$GPVTG,,T,,M,0.242,N,0.448,K,A*2F
$GPGGA,090440.00,2458.04231,N,12111.26496,E,1,09,1.10,133.0,M,16.4,M,,*5C
$GPGSA,A,3,02,06,05,19,20,13,09,17,30,,,,2.27,1.10,1.99*01
$GPGSV,4,1,13,02,55,000,37,05,41,268,16,06,46,060,35,07,04,087,21*78
$GPGSV,4,2,13,09,18,043,30,12,23,260,,13,25,186,22,15,03,209,*79
$GPGSV,4,3,13,17,16,148,24,19,38,147,15,20,35,270,19,25,10,293,*74
$GPGSV,4,4,13,30,08,123,27*45
$GPGLL,2458.04231,N,12111.26496,E,090440.00,A,A*62
$GPRMC,090441.00,A,2458.04231,N,12111.26506,E,0.065,,090621,,,A*7D
$GPVTG,,T,,M,0.065,N,0.121,K,A*22
$GPGGA,090441.00,2458.04231,N,12111.26506,E,1,10,1.10,133.2,M,16.4,M,,*5F
$GPGSA,A,3,02,06,05,19,20,12,13,09,17,30,,,2.27,1.10,1.99*02
$GPGSV,4,1,13,02,55,000,37,05,41,268,15,06,46,060,34,07,04,087,21*7A
$GPGSV,4,2,13,09,18,043,30,12,23,260,16,13,25,186,22,15,03,209,*7E
$GPGSV,4,3,13,17,16,148,24,19,38,147,15,20,35,270,19,25,10,293,*74
$GPGSV,4,4,13,30,08,123,26*44
$GPGLL,2458.04231,N,12111.26506,E,090441.00,A,A*6B
$GPRMC,090442.00,A,2458.04211,N,12111.26511,E,0.475,,090621,,,A*7F
$GPVTG,,T,,M,0.475,N,0.880,K,A*25
$GPGGA,090442.00,2458.04211,N,12111.26511,E,1,10,1.10,133.4,M,16.4,M,,*5E
$GPGSA,A,3,02,06,05,19,20,12,13,09,17,30,,,2.27,1.10,1.98*03
$GPGSV,4,1,13,02,55,000,37,05,41,268,14,06,46,060,33,07,04,087,21*7C
$GPGSV,4,2,13,09,18,043,30,12,23,260,14,13,25,186,22,15,03,209,*7C
$GPGSV,4,3,13,17,16,148,25,19,38,147,15,20,35,270,20,25,10,293,*7F
$GPGSV,4,4,13,30,08,123,26*44
$GPGLL,2458.04211,N,12111.26511,E,090442.00,A,A*6C
$GPRMC,090443.00,A,2458.04217,N,12111.26531,E,0.234,,090621,,,A*79
$GPVTG,,T,,M,0.234,N,0.434,K,A*25
$GPGGA,090443.00,2458.04217,N,12111.26531,E,1,10,1.10,133.5,M,16.4,M,,*5A
$GPGSA,A,3,02,06,05,19,20,12,13,09,17,30,,,2.27,1.10,1.98*03
$GPGSV,4,1,13,02,55,000,39,05,41,268,12,06,46,060,30,07,04,087,20*76
$GPGSV,4,2,13,09,18,043,23,12,23,260,16,13,25,186,22,15,03,209,*7C
$GPGSV,4,3,13,17,16,148,24,19,38,147,14,20,35,270,20,25,10,293,*7F
$GPGSV,4,4,13,30,08,123,27*45
$GPGLL,2458.04217,N,12111.26531,E,090443.00,A,A*69
$GPRMC,090444.00,A,2458.04217,N,12111.26539,E,0.196,,090621,,,A*7D
$GPVTG,,T,,M,0.196,N,0.364,K,A*2C
$GPGGA,090444.00,2458.04217,N,12111.26539,E,1,09,1.10,133.7,M,16.4,M,,*5F
$GPGSA,A,3,02,06,05,19,20,13,09,17,30,,,,2.27,1.10,1.98*00
$GPGSV,4,1,13,02,55,000,40,05,41,268,10,06,46,060,33,07,04,087,20*79
$GPGSV,4,2,13,09,18,043,25,12,23,260,17,13,25,186,22,15,03,209,*7B
$GPGSV,4,3,13,17,16,148,25,19,38,147,10,20,35,270,20,25,10,293,*7A
$GPGSV,4,4,13,30,08,123,27*45
$GPGLL,2458.04217,N,12111.26539,E,090444.00,A,A*66
$GPRMC,090445.00,A,2458.04251,N,12111.26578,E,0.153,,090621,,,A*72
$GPVTG,,T,,M,0.153,N,0.284,K,A*2A
$GPGGA,090445.00,2458.04251,N,12111.26578,E,1,09,0.97,134.0,M,16.4,M,,*57
$GPGSA,A,3,02,06,20,12,13,09,17,25,30,,,,2.31,0.97,2.10*03
$GPGSV,4,1,13,02,55,000,40,05,41,268,09,06,46,060,32,07,04,087,22*72
$GPGSV,4,2,13,09,18,043,27,12,23,260,18,13,25,186,23,15,03,209,*77
$GPGSV,4,3,13,17,16,148,25,19,38,147,09,20,35,270,22,25,10,293,17*76
$GPGSV,4,4,13,30,08,123,27*45
$GPGLL,2458.04251,N,12111.26578,E,090445.00,A,A*60
$GPRMC,090446.00,A,2458.04263,N,12111.26614,E,0.176,,090621,,,A*7E
$GPVTG,,T,,M,0.176,N,0.326,K,A*24
$GPGGA,090446.00,2458.04263,N,12111.26614,E,1,10,0.94,134.5,M,16.4,M,,*52
$GPGSA,A,3,02,06,05,19,20,12,13,09,17,30,,,2.05,0.94,1.83*04
$GPGSV,4,1,13,02,55,000,39,05,41,268,12,06,46,060,34,07,04,087,23*71
$GPGSV,4,2,13,09,18,043,28,12,23,260,18,13,25,186,23,15,03,209,*78
$GPGSV,4,3,13,17,16,148,25,19,38,147,11,20,35,270,22,25,10,293,17*7F
$GPGSV,4,4,13,30,08,123,26*44
$GPGLL,2458.04263,N,12111.26614,E,090446.00,A,A*6B
$GPRMC,090447.00,A,2458.04299,N,12111.26668,E,0.187,,090621,,,A*7F
$GPVTG,,T,,M,0.187,N,0.346,K,A*2C
$GPGGA,090447.00,2458.04299,N,12111.26668,E,1,10,0.97,134.9,M,16.4,M,,*52
$GPGSA,A,3,02,06,05,20,12,13,09,17,25,30,,,2.31,0.97,2.10*06
$GPGSV,4,1,13,02,55,000,38,05,41,268,11,06,46,060,34,07,04,087,23*73
$GPGSV,4,2,13,09,18,043,29,12,23,260,16,13,25,186,22,15,03,209,*76
$GPGSV,4,3,13,17,16,148,24,19,38,147,,20,35,270,22,25,10,293,14*7D
$GPGSV,4,4,13,30,08,123,26*44
$GPGLL,2458.04299,N,12111.26668,E,090447.00,A,A*64
$GPRMC,090512.00,A,2458.04928,N,12111
$GPVTG,,T,,M,0.309,N,0.572,K,A*29
$GPGGA,090512.00,2458.04928,N,12111.27385,E,1,10,0.77,136.7,M,16.4,M,,*57
$GPGSA,A,3,02,06,05,19,12,13,09,17,25,30,,,1.63,0.77,1.43*03
$GPGSV,4,1,13,02,55,001,38,05,41,268,21,06,46,060,35,07,04,087,16*76
$GPGSV,4,2,13,09,18,043,27,12,23,260,21,13,25,186,23,15,03,209,*7D
$GPGSV,4,3,13,17,16,148,27,19,38,147,20,20,35,270,,25,10,293,14*7C
$GPGSV,4,4,13,30,08,123,27*45
$GPGLL,2458.04928,N,12111.27385,E,090512.00,A,A*63
$GPRMC,090513.00,A,2458.04931,N,12111.27393,E,0.157,,090621,,,A*7B
$GPVTG,,T,,M,0.157,N,0.291,K,A*2A
$GPGGA,090513.00,2458.04931,N,12111.27393,E,1,10,0.77,136.7,M,16.4,M,,*59
$GPGSA,A,3,02,06,05,19,12,13,09,17,25,30,,,1.63,0.77,1.43*03
$GPGSV,4,1,13,02,55,001,38,05,41,268,21,06,46,060,35,07,04,087,16*76
$GPRMC,090514.00,A,2458.04934,N,12111.27403,E,0.222,,090621,,,A*76
$GPVTG,,T,,M,0.222,N,0.411,K,A*25
$GPGGA,090514.00,2458.04934,N,12111.27403,E,1,10,0.77,136.7,M,16.4,M,,*55
$GPRMC,090515.00,A,2458.04929,N,12111.27408,E,0.161,,090621,,,A*74
$GPVTG,,T,,M,0.161,N,0.299,K,A*27
$GPGGA,090515.00,2458.04929,N,12111.27408,E,1,11,0.77,136.8,M,16.4,M,,*5D
$GPGSA,A,3,02,06,05,19,20,12,13,09,17,25,30,,1.63,0.77,1.43*01
$GPGSV,4,1,13,02,55,001,39,05,41,269,18,06,46,061,36,07,04,087,13*7B
$GPGSV,4,2,13,09,18,043,29,12,23,260,22,13,25,186,22,15,03,209,*71
$GPRMC,090516.00,A,2458.04924,N,12111.27434,E,0.616,,090621,,,A*72
$GPVTG,,T,,M,0.616,N,1.141,K,A*27
$GPRMC,090517.00,A,2458.04919,N,12111.27467,E,0.825,,090621,,,A*75
$GPVTG,,T,,M,0.825,N,1.528,K,A*22
$GPGGA,090517.00,2458.04919,N,12111.27467,E,1,11,0.77,138.2,M,16.4,M,,*51
$GPRMC,090519.00,A,2458.04912,N,12111.27530,E,0.655,,090621,,,A*7A
$GPVTG,,T,,M,0.655,N,1.213,K,A*24
$GPGGA,090519.00,2458.04912,N,12111.27530,E,1,11,0.81,139.4,M,16.4,M,,*59
$GPGSA,A,3,02,06,05,19,20,12,13,09,17,25,30,,1.72,0.81,1.52*08
$GPGSV,4,1,13,02,55,001,40,05,41,269,16,06,46,061,38,07,04,087,14*72
$GPGSV,4,2,13,09,18,042,28,12,23,260,20,13,25,186,22,15,03,209,*73
$GPGSV,4,3,13,17,16,148,28,19,38,147,25,20,35,270,11,25,10,293,15*77
$GPRMC,090520.00,A,2458.04907,N,12111.27531,E,0.400,,090621,,,A*77
$GPVTG,,T,,M,0.400,N,0.741,K,A*25
$GPGGA,090520.00,2458.04907,N,12111.27531,E,1,10,0.77,139.5,M,16.4,M,,*5F
$GPGSA,A,3,02,06,19,20,12,13,09,17,25,30,,,1.67,0.77,1.48*0B
$GPRMC,090521.00,A,2458.04890,N,12111.27531,E,0.275,,090621,,,A*7D
$GPVTG,,T,,M,0.275,N,0.509,K,A*2F
$GPGGA,090521.00,2458.04890,N,12111.27531,E,1,10,0.77,139.8,M,16.4,M,,*5C
$GPGSA,A,3,02,06,19,20,12,13,09,17,25,30,,,1.67,0.77,1.48*0B
$GPRMC,090523.00,A,2458.04864,N,12111.27519,E,0.151,,090621,,,A*7B
$GPVTG,,T,,M,0.151,N,0.279,K,A*2A
$GPGGA,090523.00,2458.04864,N,12111.27519,E,1,10,0.77,140.0,M,16.4,M,,*59
$GPGSA,A,3,02,06,19,20,12,13,09,17,25,30,,,1.67,0.77,1.48*0B
$GPGSV,4,1,13,02,55,001,38,05,41,269,,06,46,061,38,07,04,087,15*7B
$GPGSV,4,2,13,09,18,042,29,12,23,260,20,13,26,185,22,15,03,209,*72
$GPRMC,090524.00,A,2458.04856,N,12111.27508,E,0.237,,090621,,,A*7E
$GPVTG,,T,,M,0.237,N,0.440,K,A*25
$GPGGA,090524.00,2458.04856,N,12111.27508,E,1,10,0.77,140.0,M,16.4,M,,*5F
$GPGSA,A,3,02,06,19,20,12,13,09,17,25,30,,,1.66,0.77,1.48*0A
$GPRMC,090525.00,A,2458.04844,N,12111.27503,E,0.114,,090621,,,A*75
$GPVTG,,T,,M,0.114,N,0.211,K,A*25
$GPGGA,090525.00,2458.04844,N,12111.27503,E,1,10,0.77,140.1,M,16.4,M,,*57
$GPGSA,A,3,02,06,19,20,12,13,09,17,25,30,,,1.66,0.77,1.48*0A
$GPGSV,4,1,13,02,55,001,38,05,41,269,,06,46,061,38,07,04,087,14*7A
$GPRMC,090526.00,A,2458.04837,N,12111.27495,E,0.061,,090621,,,A*7F
$GPRMC,090527.00,A,2458.04825,N,12111.27483,E,0.261,,090621,,,A*78
$GPVTG,,T,,M,0.261,N,0.483,K,A*29
$GPGGA,090527.00,2458.04825,N,12111.27483,E,1,10,0.77,140.3,M,16.4,M,,*59
$GPGSA,A,3,02,06,19,20,12,13,09,17,25,30,,,1.66,0.77,1.48*0A
$GPRMC,090528.00,A,2458.04814,N,12111.27463,E,0.142,,090621,,,A*79
$GPVTG,,T,,M,0.142,N,0.264,K,A*24
$GPGGA,090528.00,2458.04814,N,12111.27463,E,1,10,0.82,140.2,M,16.4,M,,*51
$GPGSA,A,3,02,06,19,20,12,13,09,17,25,30,,,1.69,0.82,1.48*0F
$GPRMC,090529.00,A,2458.04810,N,12111.27473,E,0.033,,090621,,,A*7A
$GPVTG,,T,,M,0.033,N,0.060,K,A*25
$GPGGA,090529.00,2458.04810,N,12111.27473,E,1,10,0.77,140.5,M,16.4,M,,*58
$GPGSA,A,3,02,06,19,20,12,13,09,17,25,30,,,1.66,0.77,1.48*0A
$GPGSV,4,1,13,02,55,001,39,05,41,269,,06,46,061,39,07,04,087,17*79
$GPRMC,090530.00,A,2458.04806,N,12111.27473,E,0.214,,090621,,,A*72
$GPVTG,,T,,M,0.214,N,0.397,K,A*29
$GPRMC,090531.00,A,2458.04805,N,12111.27478,E,0.182,,090621,,,A*77
$GPVTG,,T,,M,0.182,N,0.336,K,A*2E
$GPGGA,090531.00,2458.04805,N,12111.27478,E,1,11,0.77,140.5,M,16.4,M,,*5F
$GPRMC,090532.00,A,2458.04798,N,12111.27473,E,0.331,,090621,,,A*7E
$GPVTG,,T,,M,0.331,N,0.612,K,A*27
$GPGGA,090532.00,2458.04798,N,12111.27473,E,1,11,0.77,140.5,M,16.4,M,,*5C
$GPRMC,090533.00,A,2458.04787,N,12111.27474,E,0.343,,090621,,,A*73
$GPVTG,,T,,M,0.343,N,0.636,K,A*24
$GPRMC,090534.00,A,2458.04784,N,12111.27480,E,0.117,,090621,,,A*7F
$GPVTG,,T,,M,0.117,N,0.217,K,A*20
$GPRMC,090535.00,A,2458.04781,N,12111.27488,E,0.051,,090621,,,A*70
$GPVTG,,T,,M,0.051,N,0.094,K,A*2A
$GPGGA,090535.00,2458.04781,N,12111.27488,E,1,11,0.81,140.8,M,16.4,M,,*53
$GPGSA,A,3,02,06,05,19,20,12,13,09,17,25,30,,1.72,0.81,1.52*08
$GPGSV,4,1,13,02,55,001,39,05,41,269,18,06,46,061,38,07,04,087,15*73
$GPRMC,090536.00,A,2458.04768,N,12111.27477,E,0.502,,090621,,,A*77
$GPVTG,,T,,M,0.502,N,0.930,K,A*2E
$GPGGA,090536.00,2458.04768,N,12111.27477,E,1,11,0.77,140.8,M,16.4,M,,*5E
$GPGSA,A,3,02,06,05,19,20,12,13,09,17,25,30,,1.66,0.77,1.48*0F
$GPGSV,4,1,13,02,55,001,39,05,41,269,19,06,46,061,38,07,04,087,14*73
$GPRMC,090537.00,A,2458.04762,N,12111.27469,E,0.308,,090621,,,A*7F
$GPVTG,,T,,M,0.308,N,0.571,K,A*2B
$GPGGA,090537.00,2458.04762,N,12111.27469,E,1,11,0.75,140.7,M,16.4,M,,*57
$GPGSA,A,3,02,06,05,19,20,12,13,09,17,25,30,,1.60,0.75,1.42*01
$GPGSV,4,1,13,02,55,001,39,05,41,269,20,06,46,061,38,07,04,087,13*7E
$GPGSV,4,2,13,09,18,042,30,12,23,260,16,13,26,185,21,15,04,209,*7B
$GPRMC,090538.00,A,2458.04748,N,12111.27462,E,0.139,,090621,,,A*73
$GPVTG,,T,,M,0.139,N,0.257,K,A*28
$GPGGA,090538.00,2458.04748,N,12111.27462,E,1,11,0.75,141.0,M,16.4,M,,*5D
$GPRMC,090539.00,A,2458.04744,N,12111.27450,E,0.076,,090621,,,A*75
$GPRMC,090540.00,A,2458.04732,N,12111.27424,E,0.083,,090621,,,A*73
$GPVTG,,T,,M,0.083,N,0.154,K,A*28
$GPGGA,090540.00,2458.04732,N,12111.27424,E,1,10,0.78,140.7,M,16.4,M,,*57
$GPGSA,A,3,02,06,05,19,20,13,09,17,25,30,,,1.63,0.78,1.43*0D
$GPRMC,090541.00,A,2458.04709,N,12111.27404,E,0.156,,090621,,,A*71
$GPVTG,,T,,M,0.156,N,0.289,K,A*22
$GPGGA,090541.00,2458.04709,N,12111.27404,E,1,10,0.78,141.0,M,16.4,M,,*5A
$GPGSA,A,3,02,06,05,19,20,13,09,17,25,30,,,1.63,0.78,1.43*0D
$GPRMC,090542.00,A,2458.04693,N,12111.27374,E,0.098,,090621,,,A*73
$GPVTG,,T,,M,0.098,N,0.182,K,A*29
$GPGGA,090542.00,2458.04693,N,12111.27374,E,1,10,0.78,140.8,M,16.4,M,,*52
$GPGSA,A,3,02,06,05,19,20,13,09,17,25,30,,,1.63,0.78,1.43*0D
$GPGSV,4,1,13,02,55,001,38,05,41,269,22,06,46,061,36,07,04,087,08*79
$GPGSV,4,2,13,09,18,042,31,12,23,260,08,13,26,185,20,15,04,209,*74
$GPRMC,090543.00,A,2458.04677,N,12111.27348,E,0.119,,090621,,,A*7F
$GPVTG,,T,,M,0.119,N,0.221,K,A*2B
$GPGGA,090543.00,2458.04677,N,12111.27348,E,1,10,0.78,140.8,M,16.4,M,,*56
$GPRMC,090544.00,A,2458.04671,N,12111.27344,E,0.188,,090621,,,A*7A
$GPRMC,090545.00,A,2458.04657,N,12111.27321,E,0.206,,090621,,,A*79
$GPVTG,,T,,M,0.206,N,0.381,K,A*2D
$GPGGA,090545.00,2458.04657,N,12111.27321,E,1,10,0.78,141.0,M,16.4,M,,*54
$GPGSA,A,3,02,06,05,19,20,13,09,17,
$GPGSV,4,1,13,02,55,001,37,05,41,269,21,06,46,061,36,07,04,087,12*7E
$GPRMC,090549.00,A,2458.04612,N,12111.27217,E,0.141,,090621,,,A*70
$GPVTG,,T,,M,0.141,N,0.262,K,A*21
$GPGGA,090549.00,2458.04612,N,12111.27217,E,1,10,0.78,140.5,M,16.4,M,,*59
$GPGSA,A,3,02,06,05,19,20,13,09,17,25,30,,,1.63,0.78,1.43*0D
$GPGSV,4,1,13,02,55,001,34,05,41,269,22,06,46,061,36,07,04,087,12*7E
$GPGSV,4,2,13,09,18,042,32,12,23,260,06,13,26,185,18,15,04,209,*72
$GPGSV,4,3,13,17,15,148,22,19,38,148,27,20,35,271,12,25,10,293,11*75
$GPGSV,4,4,13,30,08,123,30*43
$GPGLL,2458.04612,N,12111.27217,E,090549.00,A,A*61
$GPRMC,090550.00,A,2458.04600,N,12111.27195,E,0.326,,090621,,,A*71
$GPVTG,,T,,M,0.326,N,0.604,K,A*26
$GPGGA,090550.00,2458.04600,N,12111.27195,E,1,11,0.75,140.3,M,16.4,M,,*51
$GPGSA,A,3,02,06,05,19,20,12,13,09,17,25,30,,1.60,0.75,1.42*01
$GPGSV,4,1,13,02,55,001,36,05,41,269,23,06,46,061,36,07,04,087,07*79
$GPGSV,4,2,13,09,18,042,32,12,23,260,07,13,26,185,18,15,04,209,*73
$GPGSV,4,3,13,17,15,148,22,19,38,148,27,20,35,271,10,25,10,293,12*74
$GPGSV,4,4,13,30,08,123,31*42
$GPGLL,2458.04600,N,12111.27195,E,090550.00,A,A*63
$GPRMC,090551.00,A,2458.04584,N,12111.27164,E,0.696,,090621,,,A*7F
$GPVTG,,T,,M,0.696,N,1.290,K,A*20
$GPGGA,090551.00,2458.04584,N,12111.27164,E,1,10,0.77,140.0,M,16.4,M,,*51
$GPGSA,A,3,02,06,05,19,12,13,09,17,25,30,,,1.62,0.77,1.43*02
$GPGSV,4,1,13,02,55,001,36,05,41,269,23,06,46,061,37,07,04,087,07*78
$GPGSV,4,2,13,09,18,042,31,12,23,260,07,13,26,185,18,15,04,209,*70
$GPGSV,4,3,13,17,15,148,22,19,38,148,27,20,35,271,08,25,10,293,12*7D
$GPGSV,4,4,13,30,08,123,31*42
$GPGLL,2458.04584,N,12111.27164,E,090551.00,A,A*63
$GPRMC,090552.00,A,2458.04574,N,12111.27123,E,0.783,,090621,,,A*75
$GPVTG,,T,,M,0.783,N,1.450,K,A*2F
$GPGGA,090552.00,2458.04574,N,12111.27123,E,1,11,0.75,139.7,M,16.4,M,,*54
$GPGSA,A,3,02,06,05,19,20,12,13,09,17,25,30,,1.60,0.75,1.42*01
$GPGSV,4,1,13,02,55,001,35,05,41,269,24,06,46,061,37,07,04,087,08*73
$GPGSV,4,2,13,09,18,042,31,12,23,260,09,13,26,185,18,15,04,209,*7E
$GPGSV,4,3,13,17,15,148,22,19,38,148,26,20,35,271,10,25,10,293,14*73
$GPGSV,4,4,13,30,08,123,30*43
$GPGLL,2458.04574,N,12111.27123,E,090552.00,A,A*6C
$GPRMC,090553.00,A,2458.04562,N,12111.27061,E,1.210,340.78,090621,,,A*6C
$GPVTG,340.78,T,,M,1.210,N,2.241,K,A*32
$GPGGA,090553.00,2458.04562,N,12111.27061,E,1,11,0.75,139.1,M,16.4,M,,*53
$GPGSA,A,3,02,06,05,19,20,12,13,09,17,25,30,,1.60,0.75,1.42*01
$GPRMC,090555.00,A,2458.04531,N,12111.26956,E,0.814,,090621,,,A*79
$GPVTG,,T,,M,0.814,N,1.508,K,A*22
$GPGGA,090555.00,2458.04531,N,12111.26956,E,1,11,0.75,138.0,M,16.4,M,,*5F
$GPGSA,A,3,02,06,05,19,20,12,13,09,17,25,30,,1.60,0.75,1.42*01
$GPGSV,4,1,13,02,55,001,37,05,41,269,25,06,46,061,38,07,04,087,*77
$GPGSV,4,2,13,09,18,042,30,12,23,260,09,13,26,185,18,15,04,209,*7F
$GPRMC,090556.00,A,2458.04528,N,12111.26924,E,0.369,,090621,,,A*76
$GPVTG,,T,,M,0.369,N,0.683,K,A*22
$GPGGA,090556.00,2458.04528,N,12111.26924,E,1,10,0.78,137.5,M,16.4,M,,*57
$GPGSA,A,3,02,06,05,19,20,13,09,17,25,30,,,1.63,0.78,1.43*0D
$GPGSV,4,1,13,02,55,001,36,05,41,269,27,06,46,061,41,07,04,087,*7A
$GPGSV,4,2,13,09,18,042,30,12,23,260,06,13,26,185,18,15,04,209,*70
$GPRMC,090557.00,A,2458.04518,N,12111.26884,E,0.380,,090621,,,A*78
$GPVTG,,T,,M,0.380,N,0.704,K,A*2B
$GPRMC,090558.00,A,2458.04500,N,12111.26849,E,0.597,,090621,,,A*7F
$GPRMC,090559.00,A,2458.04487,N,12111.26820,E,0.342,,090621,,,A*71
$GPVTG,,T,,M,0.342,N,0.633,K,A*20
$GPGGA,090559.00,2458.04487,N,12111.26820,E,1,10,0.78,136.1,M,16.4,M,,*5C
$GPGSA,A,3,02,06,05,19,20,13,09,17,25,30,,,1.63,0.78,1.43*0D
$GPRMC,090600.00,A,2458.04479,N,12111.26790,E,0.271,,090621,,,A*7A
$GPVTG,,T,,M,0.271,N,0.503,K,A*21
$GPGGA,090600.00,2458.04479,N,12111.26790,E,1,10,0.78,135.7,M,16.4,M,,*53
$GPGSA,A,3,02,06,05,19,20,13,09,17,25,30,,,1.63,0.78,1.43*0D
$GPGSV,4,1,13,02,55,001,37,05,41,269,28,06,46,061,42,07,04,087,*77
$GPGSV,4,2,13,09,18,042,30,12,23,260,06,13,26,185,19,15,04,209,*71
$GPRMC,090601.00,A,2458.04478,N,12111.26765,E,0.106,,090621,,,A*73
$GPVTG,,T,,M,0.106,N,0.196,K,A*2A
$GPGGA,090601.00,2458.04478,N,12111.26765,E,1,11,0.78,135.2,M,16.4,M,,*5D
$GPRMC,090602.00,A,2458.04468,N,12111.26754,E,0.154,,090621,,,A*74
$GPVTG,,T,,M,0.154,N,0.284,K,A*2D
$GPGGA,090602.00,2458.04468,N,12111.26754,E,1,11,1.12,135.1,M,16.4,M,,*53
$GPRMC,090603.00,A,2458.04460,N,12111.26746,E,0.129,,090621,,,A*74
$GPRMC,090604.00,A,2458.04455,N,12111.26744,E,0.149,,090621,,,A*71
$GPVTG,,T,,M,0.149,N,0.275,K,A*2F
$GPGGA,090604.00,2458.04455,N,12111.26744,E,1,10,0.89,134.9,M,16.4,M,,*51
$GPGSA,A,3,02,06,05,19,20,12,13,09,17,30,,,2.00,0.89,1.79*08
$GPGSV,4,1,13,02,55,001,37,05,41,269,30,06,46,061,42,07,04,087,*7E
$GPGSV,4,2,13,09,18,042,30,12,23,260,20,13,26,185,19,15,04,209,*75
$GPGSV,4,3,13,17,15,148,22,19,38,148,20,20,35,271,20,25,10,293,*73
$GPGSV,4,4,13,30,08,123,27*45
$GPRMC,090605.00,A,2458.04442,N,12111.26739,E,0.263,,090621,,,A*77
$GPVTG,,T,,M,0.263,N,0.487,K,A*2F
$GPGGA,090605.00,2458.04442,N,12111.26739,E,1,10,0.89,134.9,M,16.4,M,,*5C
$GPRMC,090606.00,A,2458.04427,N,12111.26732,E,0.316,,090621,,,A*7F
$GPVTG,,T,,M,0.316,N,0.586,K,A*2C
$GPGGA,090606.00,2458.04427,N,12111.26732,E,1,11,0.89,134.9,M,16.4,M,,*56
$GPGSA,A,3,02,06,05,19,20,12,13,09,17,25,30,,2.00,0.89,1.79*0F
$GPRMC,090607.00,A,2458.04421,N,12111.26731,E,0.152,,090621,,,A*79
$GPVTG,,T,,M,0.152,N,0.281,K,A*2E
$GPGGA,090607.00,2458.04421,N,12111.26731,E,1,11,0.89,134.9,M,16.4,M,,*52
$GPGSA,A,3,02,06,05,19,20,12,13,09,17,25,30,,2.00,0.89,1.79*0F
$GPRMC,090608.00,A,2458.04421,N,12111.26731,E,0.132,,090621,,,A*70
$GPVTG,,T,,M,0.132,N,0.244,K,A*21
$GPGGA,090608.00,2458.04421,N,12111.26731,E,1,11,0.89,135.0,M,16.4,M,,*55
$GPGSA,A,3,02,06,05,19,20,12,13,09,17,25,30,,2.00,0.89,1.79*0F
$GPGSV,4,1,13,02,55,001,37,05,41,269,30,06,46,061,43,07,04,087,*7F
$GPRMC,090609.00,A,2458.04418,N,12111.26729,E,0.111,,090621,,,A*73
$GPRMC,090610.00,A,2458.04416,N,12111.26725,E,0.116,,090621,,,A*7E
$GPVTG,,T,,M,0.116,N,0.216,K,A*20
$GPGGA,090610.00,2458.04416,N,12111.26725,E,1,11,0.77,134.9,M,16.4,M,,*54
$GPGSA,A,3,02,06,05,19,20,12,13,09,17,25,30,,1.62,0.77,1.43*00
$GPGSV,4,1,13,02,55,001,37,05,41,269,29,06,46,061,43,07,04,087,*77
$GPGSV,4,2,13,09,18,042,30,12,23,260,20,13,26,185,17,15,04,209,*7B
$GPRMC,090611.00,A,2458.04417,N,12111.26729,E,0.291,,090621,,,A*7E
$GPVTG,,T,,M,0.291,N,0.539,K,A*26
$GPGGA,090611.00,2458.04417,N,12111.26729,E,1,11,0.77,135.0,M,16.4,M,,*50
$GPGSA,A,3,02,06,05,19,20,12,13,09,17,25,30,,1.62,0.77,1.43*00
$GPGSV,4,1,13,02,55,001,37,05,41,269,29,06,46,061,43,07,04,087,*77
$GPRMC,090612.00,A,2458.04416,N,12111.26730,E,0.230,,090621,,,A*7F
$GPVTG,,T,,M,0.230,N,0.427,K,A*23
$GPRMC,090613.00,A,2458.04410,N,12111.26723,E,0.055,,090621,,,A*7B
$GPVTG,,T,,M,0.055,N,0.101,K,A*23
$GPGGA,090613.00,2458.04410,N,12111.26723,E,1,11,0.77,134.8,M,16.4,M,,*56
$GPGSA,A,3,02,06,05,19,20,12,13,09,17,25,30,,1.62,0.77,1.43*00
$GPRMC,090614.00,A,2458.04408,N,12111.26712,E,0.310,,090621,,,A*75
$GPVTG,,T,,M,0.310,N,0.575,K,A*26
$GPRMC,090615.00,A,2458.04408,N,12111.26703,E,0.118,,090621,,,A*7E
$GPVTG,,T,,M,0.118,N,0.218,K,A*20
$GPGGA,090615.00,2458.04408,N,12111.26703,E,1,11,0.75,134.3,M,16.4,M,,*52
$GPRMC,090616.00,A,2458.04402,N,12111.26690,E,0.116,,090621,,,A*72
$GPRMC,090617.00,A,2458.04390,N,12111.26673,E,0.258,,090621,,,A*7B
$GPVTG,,T,,M,0.258,N,0.478,K,A*27
$GPGGA,090617.00,2458.04390,N,12111.26673,E,1,10,0.84,133.8,M,16.4,M,,*53
$GPGSA,A,3,02,06,05,19,20,12,13,09,17,30,,,1.97,0.84,1.78*09
$GPGSV,4,1,13,02,55,001,37,05,41,269,27,06,46,061,41,07,04,087,*7B
$GPGSV,4,2,13,09,18,042,31,12,23,260,19,13,26,185,12,15,04,209,*75
$GPRMC,090618.00,A,2458.04383,N,12111.26663,E,0.090,,090621,,,A*71
$GPVTG,,T,,M,0.090,N,0.166,K,A*2B
$GPGGA,090618.00,2458.04383,N,12111.26663,E,1,10,0.84,133.7,M,16.4,M,,*50
$GPRMC,090620.00,A,2458.04391,N,12111.26644,E,0.154,,090621,,,A*75
$GPVTG,,T,,M,0.154,N,0.284,K,A*2D
$GPRMC,090621.00,A,2458.04385,N,12111.26632,E,0.224,,090621,,,A*74
$GPRMC,090622.00,A,2458.04382,N,12111.26620,E,0.284,,090621,,,A*79
$GPVTG,,T,,M,0.284,N,0.527,K,A*2D
$GPGGA,090622.00,2458.04382,N,12111.26620,E,1,11,0.84,132.8,M,16.4,M,,*50
$GPGSA,A,3,02,06,05,19,20,12,13,09,17,25,30,,1.97,0.84,1.78*0E
$GPGSV,4,1,13,02,56,001,37,05,41,269,24,06,46,061,42,07,04,087,18*71
$GPGSV,4,2,13,09,18,042,31,12,23,260,23,13,26,185,16,15,04,209,*78
$GPRMC,090623.00,A,2458.04380,N,12111.26611,E,0.184,,090621,,,A*7B
$GPVTG,,T,,M,0.184,N,0.340,K,A*29
$GPGGA,090623.00,2458.04380,N,12111.26611,E,1,11,0.84,132.8,M,16.4,M,,*51
$GPGSA,A,3,02,06,05,19,20,12,13,09,17,25,30,,1.97,0.84,1.78*0E
$GPGSV,4,1,13,02,56,001,37,05,41,269,24,06,46,061,42,07,04,087,19*70
$GPGSV,4,2,13,09,18,042,31,12,23,260,23,13,26,185,16,15,04,209,*78
$GPRMC,090625.00,A,2458.04395,N,12111.26602,E,0.278,,090621,,,A*7B
$GPVTG,,T,,M,0.278,N,0.515,K,A*2F
$GPGGA,090625.00,2458.04395,N,12111.26602,E,1,10,0.87,132.5,M,16.4,M,,*5E
$GPRMC,090626.00,A,2458.04407,N,12111.26600,E,0.289,,090621,,,A*78
$GPVTG,,T,,M,0.289,N,0.535,K,A*23
$GPGGA,090626.00,2458.04407,N,12111.26600,E,1,10,0.87,132.3,M,16.4,M,,*55
$GPGSA,A,3,02,06,19,20,12,13,09,17,25,30,,,2.00,0.87,1.80*02
$GPRMC,090627.00,A,2458.04408,N,12111.26595,E,0.075,,090621,,,A*78
$GPVTG,,T,,M,0.075,N,0.139,K,A*2A
$GPGGA,090627.00,2458.04408,N,12111.26595,E,1,10,0.87,132.3,M,16.4,M,,*54
$GPGSA,A,3,02,06,19,20,12,13,09,17,25,30,,,2.00,0.87,1.80*02
$GPGSV,4,1,13,02,56,001,36,05,42,270,,06,46,062,42,07,04,086,21*75
$GPGSV,4,2,13,09,18,042,30,12,23,260,25,13,26,185,12,15,04,209,*7B
$GPGSV,4,3,13,17,15,148,25,19,38,148,28,20,35,271,26,25,10,293,12*79
$GPRMC,090628.00,A,2458.04415,N,12111.26587,E,0.121,,090621,,,A*78
$GPVTG,,T,,M,0.121,N,0.224,K,A*25
$GPGGA,090628.00,2458.04415,N,12111.26587,E,1,10,0.84,132.1,M,16.4,M,,*55
$GPGSA,A,3,02,06,19,20,12,13,09,17,25,30,,,1.71,0.84,1.49*01
$GPGSV,4,1,13,02,56,001,36,05,42,270,,06,46,062,41,07,04,086,19*7D
$GPRMC,090629.00,A,2458.04421,N,12111.26578,E,0.121,,090621,,,A*7E
$GPVTG,,T,,M,0.121,N,0.224,K,A*25
$GPRMC,090631.00,A,2458.04424,N,12111.26562,E,0.279,,090621,,,A*77
$GPVTG,,T,,M,0.279,N,0.516,K,A*2D
$GPGGA,090631.00,2458.04424,N,12111.26562,E,1,10,0.77,131.6,M,16.4,M,,*5C
$GPRMC,090632.00,A,2458.04420,N,12111.26557,E,0.369,,090621,,,A*76
$GPVTG,,T,,M,0.369,N,0.684,K,A*25
$GPGGA,090632.00,2458.04420,N,12111.26557,E,1,11,0.87,131.4,M,16.4,M,,*51
$GPGSA,A,3,02,06,05,19,20,12,13,09,17,25,30,,1.99,0.87,1.80*04
$GPGSV,4,1,13,02,56,001,35,05,42,270,17,06,46,062,37,07,04,086,12*72
$GPGSV,4,2,13,09,17,042,31,12,23,259,24,13,26,185,14,15,04,209,*78
$GPRMC,090633.00,A,2458.04427,N,12111.26553,E,0.189,,090621,,,A*78
$GPVTG,,T,,M,0.189,N,0.349,K,A*2D
$GPGGA,090633.00,2458.04427,N,12111.26553,E,1,11,0.87,131.5,M,16.4,M,,*52
$GPGSA,A,3,02,06,05,19,20,12,13,09,17,25,30,,1.99,0.87,1.80*04
$GPRMC,090634.00,A,2458.04431,N,12111.26548,E,0.198,,090621,,,A*72
$GPVTG,,T,,M,0.198,N,0.367,K,A*21
$GPRMC,090635.00,A,2458.04428,N,12111.26536,E,0.271,,090621,,,A*76
$GPRMC,090636.00,A,2458.04421,N,12111.26534,E,0.289,,090621,,,A*79
$GPRMC,090638.00,A,2458.04435,N,12111.26522,E,0.080,,090621,,,A*7E
$GPVTG,,T,,M,0.080,N,0.149,K,A*27
$GPGGA,090638.00,2458.04435,N,12111.26522,E,1,11,0.84,131.2,M,16.4,M,,*58
$GPGSA,A,3,02,06,05,19,20,12,13,09,17,25,30,,1.97,0.84,1.78*0E
$GPGSV,4,1,13,02,56,001,35,05,42,270,24,06,46,062,38,07,04,086,09*77
$GPGSV,4,2,13,09,17,042,33,12,23,259,24,13,27,185,13,15,04,209,*7C
$GPGSV,4,3,13,17,15,148,23,19,38,148,30,20,35,271,25,25,10,293,15*72
$GPRMC,090639.00,A,2458.04441,N,12111.26518,E,0.080,,090621,,,A*75
$GPVTG,,T,,M,0.080,N,0.148,K,A*26
$GPGGA,090639.00,2458.04441,N,12111.26518,E,1,10,0.91,131.1,M,16.4,M,,*55
$GPGSA,A,3,02,06,05,19,20,12,13,09,17,30,,,2.01,0.91,1.79*00
$GPRMC,090640.00,A,2458.04444,N,12111.26515,E,0.057,,090621,,,A*79
$GPVTG,,T,,M,0.057,N,0.106,K,A*26
$GPGGA,090640.00,2458.04444,N,12111.26515,E,1,11,0.91,131.2,M,16.4,M,,*51
$GPGSA,A,3,02,06,05,19,20,12,13,09,17,25,30,,2.01,0.91,1.79*07
$GPRMC,090641.00,A,2458.04449,N,12111.26515,E,0.076,,090621,,,A*76
$GPRMC,090642.00,A,2458.04453,N,12111.26512,E,0.089,,090621,,,A*79
$GPVTG,,T,,M,0.089,N,0.165,K,A*20
$GPGGA,090642.00,2458.04453,N,12111.26512,E,1,10,0.91,131.1,M,16.4,M,,*50
$GPGSA,A,3,02,06,05,19,20,12,09,17,25,30,,,2.01,0.91,1.79*05
$GPRMC,090643.00,A,2458.04456,N,12111.26512,E,0.069,,090621,,,A*73
$GPRMC,090644.00,A,2458.04458,N,12111.26516,E,0.055,,090621,,,A*71
$GPVTG,,T,,M,0.055,N,0.103,K,A*21
$GPGGA,090644.00,2458.04458,N,12111.26516,E,1,11,0.82,131.5,M,16.4,M,,*5E
$GPGSA,A,3,02,06,05,19,20,12,13,09,17,25,30,,1.64,0.82,1.42*0D
$GPGSV,4,1,13,02,56,001,36,05,42,270,25,06,46,062,37,07,04,086,20*71
$GPGSV,4,2,13,09,17,042,32,12,23,259,26,13,27,185,13,15,04,209,*7F
$GPRMC,090645.00,A,2458.04460,N,12111.26520,E,0.093,,090621,,,A*74
$GPVTG,,T,,M,0.093,N,0.172,K,A*2D
$GPGGA,090645.00,2458.04460,N,12111.26520,E,1,11,0.82,131.7,M,16.4,M,,*53
$GPRMC,090646.00,A,2458.04458,N,12111.26527,E,0.007,,090621,,,A*76
$GPVTG,,T,,M,0.007,N,0.012,K,A*27
$GPGGA,090646.00,2458.04458,N,12111.26527,E,1,11,0.82,132.0,M,16.4,M,,*58
$GPGSA,A,3,02,06,05,19,20,12,13,09,17,25,30,,1.64,0.82,1.42*0D
$GPGSV,4,1,13,02,56,001,36,05,42,270,26,06,46,062,36,07,04,086,20*73
$GPGSV,4,2,13,09,17,042,32,12,23,259,27,13,27,185,13,15,04,209,*7E
$GPGSV,4,1,14,02,56,001,36,05,42,270,27,06,46,062,37,07,04,086,21*75
$GPGSV,4,2,14,09,17,042,32,12,23,259,27,13,2
$GPGSV,4,3,14,17,15,148,22,19,37,148,28,20,35,272,27,25,10,292,17*70
$GPGSV,4,4,14,29,00,323,,30,08,122,28*75
$GPRMC,090651.00,A,2458.04464,N,12111.26553,E,0.114,,090621,,,A*7F
$GPVTG,,T,,M,0.114,N,0.212,K,A*26
$GPGGA,090651.00,2458.04464,N,12111.26553,E,1,11,0.82,133.3,M,16.4,M,,*50
$GPGSA,A,3,02,06,05,19,20,12,13,09,17,25,30,,1.64,0.82,1.42*0D
$GPGSV,4,1,14,02,56,001,39,05,42,270,27,06,46,062,39,07,04,086,21*74
$GPGSV,4,2,14,09,17,042,32,12,23,259,27,13,27,185,10,15,04,209,*7A
$GPGSV,4,3,14,17,15,148,22,19,37,148,28,20,35,272,27,25,10,292,16*71
$GPGSV,4,4,14,29,00,323,,30,08,122,28*75
$GPGLL,2458.04464,N,12111.26553,E,090651.00,A,A*6E
$GPRMC,090652.00,A,2458.04467,N,12111.26559,E,0.037,,090621,,,A*75
