$GPRMC,092246.00,A,2458.07402,N,12111.34532,E,0.578,,090621,,,D*73
$GPVTG,,T,,M,0.578,N,1.070,K,D*2A
$GPGGA,092246.00,2458.07402,N,12111.34532,E,2,12,0.78,146.6,M,16.4,M,,0000*55
$GPGSA,A,3,02,06,05,19,20,12,13,07,09,17,15,50,1.56,0.78,1.35*0B
$GPRMC,092247.00,A,2458.07397,N,12111.34533,E,0.543,,090621,,,D*70
$GPVTG,,T,,M,0.543,N,1.005,K,D*20
$GPGGA,092247.00,2458.07397,N,12111.34533,E,2,12,0.78,146.6,M,16.4,M,,0000*5E
$GPGSA,A,3,02,06,05,19,20,12,13,07,09,17,15,50,1.56,0.78,1.35*0B
$GPGSV,4,1,15,02,59,012,32,05,45,279,18,06,44,072,27,07,06,080,20*78
$GPGSV,4,2,15,09,12,039,09,12,20,252,21,13,34,185,31,15,10,209,18*79
$GPGSV,4,3,15,17,09,150,20,19,30,151,37,20,38,280,26,25,09,285,*7F
$GPGSV,4,4,15,29,05,323,,30,11,116,08,50,60,166,34*49
$GPGLL,2458.07397,N,12111.34533,E,092247.00,A,D*67
$GPRMC,092248.00,A,2458.07387,N,12111.34526,E,0.602,,090621,,,D*7C
$GPVTG,,T,,M,0.602,N,1.115,K,D*26
$GPGGA,092248.00,2458.07387,N,12111.34526,E,2,12,0.78,147.1,M,16.4,M,,0000*52
$GPGSA,A,3,02,06,05,19,20,12,13,07,09,17,15,50,1.56,0.78,1.35*0B
$GPGSV,4,1,15,02,59,012,32,05,45,279,17,06,44,072,27,07,06,080,20*77
$GPGSV,4,2,15,09,12,039,09,12,20,252,20,13,34,185,31,15,10,209,18*78
$GPGSV,4,3,15,17,09,150,21,19,30,151,38,20,38,280,25,25,09,285,*72
$GPGSV,4,4,15,29,05,323,,30,11,116,08,50,60,166,34*49
$GPGLL,2458.07387,N,12111.34526,E,092248.00,A,D*6D
$GPRMC,092249.00,A,2458.07375,N,12111.34534,E,0.539,,090621,,,D*78
$GPVTG,,T,,M,0.539,N,0.999,K,D*20
$GPGGA,092249.00,2458.07375,N,12111.34534,E,2,12,0.78,147.7,M,16.4,M,,0000*5B
$GPGSA,A,3,02,06,05,19,20,12,13,07,09,17,15,50,1.56,0.78,1.35*0B
$GPGSV,4,1,15,02,59,012,31,05,45,279,19,06,44,072,26,07,06,080,21*7A
$GPGSV,4,2,15,09,12,039,09,12,20,252,19,13,34,185,31,15,10,209,19*73
$GPGSV,4,3,15,17,09,150,21,19,30,151,37,20,38,280,25,25,09,285,*7D
$GPGSV,4,4,15,29,05,323,,30,11,116,08,50,60,166,34*49
$GPGLL,2458.07375,N,12111.34534,E,092249.00,A,D*62
$GPRMC,092250.00,A,2458.07367,N,12111.34542,E,0.561,,090621,,,D*7F
$GPVTG,,T,,M,0.561,N,1.039,K,D*2F
$GPGGA,092250.00,2458.07367,N,12111.34542,E,2,12,0.78,148.1,M,16.4,M,,0000*58
$GPGSA,A,3,02,06,05,19,20,12,13,07,09,17,15,30,1.56,0.78,1.35*0D
$GPGSV,4,1,15,02,59,012,32,05,45,279,21,06,44,072,26,07,06,080,21*72
$GPGLL,2458.07347,N,12111.34579,E,092255.00,A,D*67
$GPRMC,092256.00,A,2458.07344,N,12111.34576,E,0.446,,090621,,,D*7B
$GPVTG,,T,,M,0.446,N,0.825,K,D*2F
$GPGGA,092256.00,2458.07344,N,12111.34576,E,2,12,0.82,148.6,M,16.4,M,,0000*5A
$GPGSA,A,3,02,06,05,19,20,12,13,07,09,17,15,30,1.52,0.82,1.28*00
$GPGSV,4,1,15,02,59,013,32,05,45,279,25,06,44,072,25,07,06,080,17*71
$GPGSV,4,2,15,09,12,039,15,12,20,252,14,13,34,185,32,15,10,209,17*7E
$GPGSV,4,3,15,17,09,150,18,19,30,151,37,20,38,280,23,25,09,285,*71
$GPGSV,4,4,15,29,05,323,,30,11,116,13,50,60,166,34*43
$GPGLL,2458.07344,N,12111.34576,E,092256.00,A,D*68
$GPRMC,092257.00,A,2458.07346,N,12111.34573,E,0.365,,090621,,,D*7B
$GPVTG,,T,,M,0.365,N,0.676,K,D*21
$GPGGA,092257.00,2458.07346,N,12111.34573,E,2,12,0.76,148.1,M,16.4,M,,0000*50
$GPGSA,A,3,02,06,05,19,20,12,13,07,09,17,15,30,1.43,0.76,1.21*02
$GPGSV,4,1,15,02,59,013,32,05,45,279,26,06,44,072,25,07,06,080,17*72
$GPGSV,4,2,15,09,12,039,15,12,20,252,14,13,34,185,31,15,10,209,18*72
$GPGSV,4,3,15,17,09,150,19,19,30,151,37,20,38,280,21,25,09,285,*72
$GPGSV,4,4,15,29,05,323,,30,11,116,13,50,60,166,34*43
$GPGLL,2458.07346,N,12111.34573,E,092257.00,A,D*6E
$GPRMC,092258.00,A,2458.07337,N,12111.34581,E,0.091,,090621,,,D*77
$GPVTG,,T,,M,0.091,N,0.169,K,D*20
$GPGGA,092258.00,2458.07337,N,12111.34581,E,2,12,0.73,148.6,M,16.4,M,,0000*56
$GPGSA,A,3,02,06,05,19,20,12,13,07,09,17,15,30,1.35,0.73,1.13*07
$GPGSV,4,1,15,02,59,013,31,05,45,279,26,06,44,072,24,07,06,080,16*71
$GPGSV,4,2,15,09,12,039,15,12,20,252,15,13,34,185,31,15,10,209,19*72
$GPGSV,4,3,15,17,09,150,18,19,30,151,37,20,38,280,22,25,09,285,*70
$GPGSV,4,4,15,29,05,323,,30,11,116,13,50,60,166,33*44
$GPGLL,2458.07337,N,12111.34581,E,092258.00,A,D*6A
$GPRMC,092259.00,A,2458.07336,N,12111.34592,E,0.077,,090621,,,D*7D
$GPVTG,,T,,M,0.077,N,0.142,K,D*21
$GPGGA,092259.00,2458.07336,N,12111.34592,E,2,12,0.76,148.2,M,16.4,M,,0000*55
$GPGSA,A,3,02,06,05,19,20,12,13,07,09,17,15,30,1.43,0.76,1.21*02
$GPGSV,4,1,15,02,59,013,31,05,45,280,26,06,44,072,23,07,06,080,14*72
$GPGSV,4,2,15,09,12,039,15,12,20,252,14,13,34,185,32,15,10,209,18*71
$GPGSV,4,3,15,17,09,150,18,19,30,151,37,20,38,280,22,25,09,285,*70
$GPGSV,4,4,15,29,05,323,,30,11,116,13,50,60,166,33*44
$GPGLL,2458.07336,N,12111.34592,E,092259.00,A,D*68
$GPRMC,092300.00,A,2458.07333,N,12111.34594,E,0.231,,090621,,,D*73
$GPVTG,,T,,M,0.231,N,0.427,K,D*27
$GPGGA,092300.00,2458.07333,N,12111.34594,E,2,12,0.82,148.3,M,16.4,M,,0000*51
$GPGSA,A,3,02,06,05,19,20,12,13,07,09,17,15,30,1.52,0.82,1.28*00
$GPGSV,4,1,15,02,59,013,31,05,45,280,26,06,44,073,23,07,06,080,11*76
$GPGSV,4,2,15,09,12,039,15,12,20,252,14,13,34,185,32,15,10,209,19*70
$GPGSV,4,3,15,17,09,150,16,19,30,151,37,20,38,280,20,25,09,285,*7C
$GPGSV,4,4,15,29,05,323,,30,11,116,13,50,60,166,33*44
$GPGLL,2458.07333,N,12111.34594,E,092300.00,A,D*66
$GPRMC,092301.00,A,2458.07332,N,12111.34603,E,0.090,,090621,,,D*77
$GPVTG,,T,,M,0.090,N,0.167,K,D*2F
$GPGGA,092301.00,2458.07332,N,12111.34603,E,2,12,0.82,148.2,M,16.4,M,,0000*5D
$GPGSA,A,3,02,06,05,19,20,12,13,09,17,15,30,50,1.52,0.82,1.28*02
$GPGSV,4,1,15,02,59,013,32,05,45,280,26,06,44,073,23,07,06,080,09*7C
$GPGSV,4,2,15,09,12,039,15,12,20,252,12,13,34,185,32,15,10,209,19*76
$GPGSV,4,3,15,17,09,150,18,19,30,151,37,20,38,280,20,25,09,285,*72
$GPGSV,4,4,15,29,05,323,,30,11,116,13,50,60,166,33*44
$GPGLL,2458.07332,N,12111.34603,E,092301.00,A,D*6B
$GPRMC,092304.00,A,2458.07331,N,12111.34614,E,0.193,,090621,,,D*75
$GPVTG,,T,,M,0.193,N,0.358,K,D*23
$GPGGA,092304.00,2458.07331,N,12111.34614,E,2,12,1.05,148.0,M,16.4,M,,0000*51
$GPGSA,A,3,02,06,05,19,20,13,07,09,17,15,30,50,1.96,1.05,1.66*0A
$GPGSV,4,1,15,02,59,013,31,05,45,280,27,06,44,073,21,07,06,080,10*74
$GPGSV,4,2,15,09,12,039,11,12,20,252,09,13,34,185,32,15,10,209,18*79
$GPGSV,4,3,15,17,09,150,18,19,30,151,36,20,38,280,22,25,09,285,*71
$GPGSV,4,4,15,29,05,323,,30,11,116,16,50,60,166,33*41
$GPGLL,2458.07331,N,12111.34614,E,092304.00,A,D*6B
$GPRMC,092305.00,A,2458.07328,N,12111.34616,E,0.261,,090621,,,D*70
$GPVTG,,T,,M,0.261,N,0.483,K,D*2C
$GPGGA,092305.00,2458.07328,N,12111.34616,E,2,12,1.05,148.1,M,16.4,M,,0000*5B
$GPGSA,A,3,02,06,05,19,20,12,13,07,09,17,15,30,1.96,1.05,1.66*0C
$GPGSV,4,1,15,02,59,013,31,05,45,280,27,06,44,073,22,07,06,080,13*74
$GPGSV,4,2,15,09,12,039,12,12,20,252,11,13,34,185,33,15,10,209,18*72
$GPGSV,4,3,15,17,09,150,17,19,30,151,35,20,38,280,21,25,09,285,*7E
$GPGSV,4,4,15,29,05,323,,30,11,116,17,50,60,166,33*40
$GPGLL,2458.07328,N,12111.34616,E,092305.00,A,D*60
$GPRMC,092306.00,A,2458.07319,N,12111.34626,E,0.184,,090621,,,D*7A
$GPVTG,,T,,M,0.184,N,0.341,K,D*2D
$GPGGA,092306.00,2458.07319,N,12111.34626,E,2,12,1.05,148.3,M,16.4,M,,0000*5B
$GPGSA,A,3,02,06,05,19,20,12,13,07,09,17,15,30,1.96,1.05,1.66*0C
$GPGSV,4,1,15,02,59,013,31,05,45,280,27,06,44,073,23,07,06,080,13*75
$GPGSV,4,2,15,09,12,039,12,12,20,251,12,13,34,185,32,15,10,209,17*7C
$GPGSV,4,3,15,17,09,150,16,19,30,151,36,20,38,280,21,25,09,285,*7C
$GPGSV,4,4,15,29,05,323,,30,11,116,17,50,60,166,33*40
$GPGLL,2458.07319,N,12111.34626,E,092306.00,A,D*62
$GPRMC,092307.00,A,2458.07321,N,12111.34639,E,0.324,,090621,,,D*76
$GPVTG,,T,,M,0.324,N,0.599,K,D*26
$GPGGA,092307.00,2458.07321,N,12111.34639,E,2,11,1.05,148.3,M,16.4,M,,0000*5C
$GPGSA,A,3,02,06,05,19,20,13,09,17,15,30,50,,1.96,1.05,1.66*0D
$GPGSV,4,1,15,02,59,013,31,05,45,280,27,06,44,073,23,07,06,080,*77
$GPGSV,4,2,15,09,12,039,12,12,20,251,,13,34,184,32,15,10,209,17*7E
$GPGSV,4,3,15,17,09,150,16,19,30,151,36,20,38,280,21,25,09,285,*7C
$GPGSV,4,4,15,29,05,323,,30,11,116,17,50,60,166,33*40
$GPGLL,2458.07321,N,12111.34639,E,092307.00,A,D*66
$GPRMC,092308.00,A,2458.07323,N,12111.34653,E,0.170,,090621,,,D*74
$GPVTG,,T,,M,0.170,N,0.314,K,D*26
$GPGGA,092308.00,2458.07323,N,12111.34653,E,2,11,1.05,148.3,M,16.4,M,,0000*5D
$GPGSA,A,3,02,06,05,19,20,13,09,17,15,30,50,,1.96,1.05,1.66*0D
$GPGSV,4,1,15,02,59,013,31,05,45,280,28,06,44,073,24,07,06,080,*7F
$GPGSV,4,2,15,09,12,039,11,12,20,251,,13,34,184,33,15,10,209,17*7C
$GPGSV,4,3,15,17,09,150,16,19,30,151,36,20,38,280,21,25,09,285,*7C
$GPGSV,4,4,15,29,05,323,,30,11,116,17,50,60,166,33*40
$GPGLL,2458.07323,N,12111.34653,E,092308.00,A,D*67
$GPRMC,092309.00,A,2458.07329,N,12111.34649,E,0.463,,090621,,,D*73
$GPVTG,,T,,M,0.463,N,0.858,K,D*22
$GPGGA,092309.00,2458.07329,N,12111.34649,E,2,11,1.15,148.1,M,16.4,M,,0000*5E
$GPGSA,A,3,02,06,05,19,20,12,13,09,17,15,50,,2.24,1.15,1.92*0D
$GPGSV,4,1,15,02,59,013,31,05,45,280,28,06,44,073,25,07,06,080,*7E
$GPGSV,4,2,15,09,12,039,11,12,20,251,13,13,34,184,33,15,10,210,18*79
$GPGSV,4,3,15,17,09,150,17,19,30,151,36,20,38,280,20,25,09,285,*7C
$GPGSV,4,4,15,29,05,323,,30,11,116,09,50,60,166,33*4F
$GPGLL,2458.07329,N,12111.34649,E,092309.00,A,D*67
$GPRMC,092310.00,A,2458.07334,N,12111.34660,E,0.384,,090621,,,D*72
$GPVTG,,T,,M,0.384,N,0.712,K,D*2D
$GPGGA,092310.00,2458.07334,N,12111.34660,E,2,12,0.82,148.0,M,16.4,M,,0000*5C
$GPGSA,A,3,02,06,05,19,20,12,13,09,17,15,30,50,1.52,0.82,1.28*02
$GPGSV,4,1,15,02,59,013,31,05,45,280,28,06,44,073,25,07,06,080,*7E
$GPGSV,4,2,15,09,12,039,11,12,20,251,15,13,34,184,33,15,10,210,19*7E
$GPGSV,4,3,15,17,09,150,17,19,30,151,36,20,38,280,19,25,09,285,*76
$GPGSV,4,4,15,29,05,323,19,30,11,116,14,50,60,166,33*4B
$GPGLL,2458.07334,N,12111.34660,E,092310.00,A,D*68
$GPRMC,092311.00,A,2458.07344,N,12111.34673,E,0.365,,090621,,,D*79
$GPVTG,,T,,M,0.365,N,0.675,K,D*22
$GPGGA,092311.00,2458.07344,N,12111.34673,E,2,12,0.82,147.6,M,16.4,M,,0000*51
$GPGSA,A,3,02,06,05,19,20,12,13,09,17,25,15,30,1.52,0.82,1.28*00
$GPGSV,4,1,15,02,59,013,31,05,45,280,29,06,44,073,25,07,06,080,*7F
$GPGSV,4,2,15,09,12,039,11,12,20,251,16,13,34,184,33,15,10,210,18*7C
$GPGSV,4,3,15,17,08,150,17,19,30,151,36,20,38,280,19,25,09,285,13*75
$GPGSV,4,4,15,29,05,323,17,30,11,116,17,50,60,166,34*41
$GPGLL,2458.07344,N,12111.34673,E,092311.00,A,D*6C
$GPRMC,092312.00,A,2458.07349,N,12111.34680,E,0.249,,090621,,,D*74
$GPVTG,,T,,M,0.249,N,0.461,K,D*2A
$GPGGA,092312.00,2458.07349,N,12111.34680,E,2,12,0.82,147.4,M,16.4,M,,0000*51
$GPGSA,A,3,02,06,05,19,20,12,13,07,09,17,25,15,1.52,0.82,1.28*04
$GPGSV,4,1,15,02,59,013,31,05,45,280,29,06,44,073,25,07,06,080,13*7D
$GPGSV,4,2,15,09,12,039,11,12,20,251,16,13,34,184,33,15,10,210,18*7C
$GPGSV,4,3,15,17,08,150,18,19,30,151,35,20,38,280,20,25,09,285,12*72
$GPGSV,4,4,15,29,05,323,17,30,11,116,18,50,60,166,34*4E
$GPGLL,2458.07349,N,12111.34680,E,092312.00,A,D*6E
$GPRMC,092313.00,A,2458.07346,N,12111.34679,E,0.051,,090621,,,D*77
$GPRMC,092316.00,A,2458.07319,N,12111.34674,E,0.250,,090621,,,D*76
$GPVTG,,T,,M,0.250,N,0.463,K,D*20
$GPGGA,092316.00,2458.07319,N,12111.34674,E,2,12,0.82,149.4,M,16.4,M,,0000*55
$GPGSA,A,3,02,06,05,19,20,12,13,09,17,15,30,50,1.52,0.82,1.28*02
$GPGSV,4,1,15,02,59,013,31,05,45,280,30,06,44,073,25,07,06,080,07*70
$GPGSV,4,2,15,09,12,039,13,12,20,251,15,13,34,184,33,15,10,210,19*7C
$GPGSV,4,3,15,17,08,150,15,19,30,151,36,20,38,280,21,25,09,285,08*76
$GPGSV,4,4,15,29,05,323,18,30,11,116,18,50,60,166,33*46
$GPGLL,2458.07319,N,12111.34674,E,092316.00,A,D*64
$GPRMC,092317.00,A,2458.07298,N,12111.34665,E,0.683,,090621,,,D*75
$GPVTG,,T,,M,0.683,N,1.264,K,D*2A
$GPGGA,092317.00,2458.07298,N,12111.34665,E,2,12,0.82,150.4,M,16.4,M,,0000*54
$GPGSA,A,3,02,06,05,19,20,12,13,09,17,15,30,50,1.52,0.82,1.28*02
$GPGSV,4,1,15,02,59,013,31,05,45,280,29,06,44,073,26,07,06,080,07*7B
$GPGSV,4,2,15,09,12,039,13,12,20,251,17,13,34,184,33,15,10,210,19*7E
$GPGSV,4,3,15,17,08,150,17,19,30,151,36,20,38,280,21,25,09,285,08*74
$GPGSV,4,4,15,29,05,323,16,30,11,116,18,50,60,166,33*48
$GPGLL,2458.07298,N,12111.34665,E,092317.00,A,D*6D
$GPRMC,092318.00,A,2458.07268,N,12111.34669,E,0.883,,090621,,,D*77
$GPVTG,,T,,M,0.883,N,1.635,K,D*24
$GPGGA,092318.00,2458.07268,N,12111.34669,E,2,12,0.82,151.8,M,16.4,M,,0000*55
$GPGSA,A,3,02,06,05,19,20,12,13,09,17,15,30,50,1.52,0.82,1.28*02
$GPGSV,4,1,15,02,59,013,31,05,45,280,29,06,44,073,26,07,06,080,07*7B
$GPGSV,4,2,15,09,12,039,13,12,20,251,17,13,34,184,34,15,10,210,20*73
$GPGSV,4,3,15,17,08,150,18,19,30,151,36,20,38,280,21,25,09,285,07*74
$GPGSV,4,4,15,29,05,323,,30,11,116,18,50,60,166,33*4F
$GPGLL,2458.07268,N,12111.34669,E,092318.00,A,D*61
$GPRMC,092319.00,A,2458.07265,N,12111.34672,E,0.326,,090621,,,D*75
$GPVTG,,T,,M,0.326,N,0.604,K,D*23
$GPGGA,092319.00,2458.07265,N,12111.34672,E,2,12,0.82,151.8,M,16.4,M,,0000*53
$GPGSA,A,3,02,06,05,19,20,12,13,09,17,15,30,50,1.52,0.82,1.28*02
$GPGSV,4,1,15,02,59,013,31,05,45,280,29,06,44,073,25,07,06,080,07*78
$GPGSV,4,2,15,09,12,039,13,12,20,251,17,13,34,184,34,15,10,210,21*72
$GPGSV,4,3,15,17,08,150,18,19,30,151,36,20,38,280,21,25,09,285,07*74
$GPGSV,4,4,15,29,05,323,16,30,11,116,17,50,60,166,33*47
$GPGLL,2458.07265,N,12111.34672,E,092319.00,A,D*67
$GPRMC,092320.00,A,2458.07261,N,12111.34676,E,0.365,,090621,,,D*78
$GPVTG,,T,,M,0.365,N,0.677,K,D*20
$GPGGA,092320.00,2458.07261,N,12111.34676,E,2,12,0.82,151.9,M,16.4,M,,0000*58
$GPGSA,A,3,02,06,05,19,20,12,13,07,09,17,25,15,1.52,0.82,1.28*04
$GPGSV,4,1,15,02,59,013,31,05,45,280,28,06,44,073,25,07,06,080,08*76
$GPGSV,4,2,15,09,12,039,11,12,20,251,16,13,34,184,34,15,10,210,20*70
$GPGSV,4,3,15,17,08,150,19,19,30,151,36,20,38,280,20,25,09,285,07*74
$GPGSV,4,4,15,29,05,323,14,30,11,116,17,50,60,166,33*45
$GPGLL,2458.07261,N,12111.34676,E,092320.00,A,D*6D
$GPRMC,092321.00,A,2458.07258,N,12111.34683,E,0.338,,090621,,,D*71
$GPVTG,,T,,M,0.338,N,0.626,K,D*2C
$GPGGA,092321.00,2458.07258,N,12111.34683,E,2,12,0.82,152.3,M,16.4,M,,0000*50
$GPGSA,A,3,02,06,05,19,20,12,13,07,09,17,25,15,1.52,0.82,1.28*04
$GPGSV,4,1,15,02,59,013,31,05,45,280,28,06,44,073,24,07,06,080,08*77
$GPGSV,4,2,15,09,12,039,11,12,20,251,14,13,34,184,34,15,10,210,20*72
$GPGSV,4,3,15,17,08,150,19,19,30,151,36,20,38,280,21,25,09,285,07*75
$GPGSV,4,4,15,29,05,323,13,30,11,116,17,50,60,166,33*42
$GPGLL,2458.07258,N,12111.34683,E,092321.00,A,D*6C
$GPRMC,092322.00,A,2458.07278,N,12111.34669,E,0.112,,090621,,,D*7E
$GPVTG,,T,,M,0.112,N,0.208,K,D*2E
$GPGGA,092322.00,2458.07278,N,12111.34669,E,2,12,1.05,151.3,M,16.4,M,,0000*58
$GPGSA,A,3,02,06,05,19,20,12,13,07,09,17,25,15,1.96,1.05,1.66*08
$GPGSV,4,1,15,02,59,013,31,05,45,280,28,06,44,073,23,07,06,080,08*70
$GPGSV,4,2,15,09,12,039,11,12,20,251,18,13,34,184,34,15,10,210,20*7E
$GPGSV,4,3,15,17,08,150,19,19,30,151,36,20,38,280,20,25,09,285,07*74
$GPGSV,4,4,15,29,05,323,12,30,11,116,17,50,60,166,33*43
$GPGLL,2458.07278,N,12111.34669,E,092322.00,A,D*69
$GPRMC,092323.00,A,2458.07295,N,12111.34681,E,0.691,,090621,,,D*76
$GPVTG,,T,,M,0.691,N,1.280,K,D*23
$GPGGA,092323.00,2458.07295,N,12111.34681,E,2,12,1.05,151.0,M,16.4,M,,0000*5F
$GPGSA,A,3,02,06,05,19,20,13,07,09,17,25,15,30,1.96,1.05,1.66*08
$GPGSV,4,1,15,02,59,013,31,05,45,280,27,06,44,073,22,07,06,080,08*7E
$GPGSV,4,2,15,09,12,039,11,12,20,251,17,13,34,184,34,15,10,210,20*71
$GPGSV,4,3,15,17,08,150,20,19,30,151,36,20,38,280,21,25,09,285,07*7F
$GPGSV,4,4,15,29,06,323,14,30,11,116,17,50,60,166,33*46
$GPGLL,2458.07295,N,12111.34681,E,092323.00,A,D*6D
$GPRMC,092324.00,A,2458.07300,N,12111.34684,E,0.171,,090621,,,D*70
$GPVTG,,T,,M,0.171,N,0.317,K,D*24
$GPGGA,092324.00,2458.07300,N,12111.34684,E,2,12,1.05,150.9,M,16.4,M,,0000*58
$GPGSA,A,3,02,06,05,19,20,12,13,07,09,17,15,30,1.96,1.05,1.66*0C
$GPGSV,4,1,15,02,59,013,31,05,45,280,27,06,44,073,22,07,06,080,08*7E
$GPGSV,4,2,15,09,12,039,11,12,20,251,16,13,34,184,34,15,10,210,20*70
$GPGSV,4,3,15,17,08,150,20,19,30,151,36,20,38,280,22,25,09,285,*7B
$GPGSV,4,4,15,29,06,323,14,30,11,116,17,50,60,166,33*46
$GPGLL,2458.07300,N,12111.34684,E,092324.00,A,D*62
$GPRMC,092325.00,A,2458.07301,N,12111.34700,E,0.485,,090621,,,D*73
$GPVTG,,T,,M,0.485,N,0.898,K,D*26
$GPGGA,092325.00,2458.07301,N,12111.34700,E,2,12,1.05,150.8,M,16.4,M,,0000*54
$GPGSA,A,3,02,06,05,19,20,13,07,09,17,15,30,50,1.96,1.05,1.66*0A
$GPGSV,4,1,15,02,59,013,31,05,45,280,27,06,44,073,22,07,06,080,08*7E
$GPGSV,4,2,15,09,12,039,11,12,20,251,16,13,34,184,34,15,10,210,20*70
$GPGSV,4,3,15,17,08,150,20,19,30,151,35,20,38,280,22,25,09,285,*78
$GPGSV,4,4,15,29,06,323,15,30,11,116,17,50,60,166,33*47
$GPGLL,2458.07301,N,12111.34700,E,092325.00,A,D*6F
$GPRMC,092326.00,A,2458.07294,N,12111.34718,E,0.847,,090621,,,D*76
$GPVTG,,T,,M,0.847,N,1.568,K,D*27
$GPGGA,092326.00,2458.07294,N,12111.34718,E,2,12,0.99,151.1,M,16.4,M,,0000*5F
$GPGSA,A,3,02,06,05,19,20,12,13,07,09,17,15,30,1.85,0.99,1.56*09
$GPGSV,4,1,15,02,59,013,30,05,45,280,26,06,44,073,22,07,06,080,15*72
$GPGSV,4,2,15,09,12,039,14,12,20,251,16,13,34,184,32,15,10,210,20*73
$GPGSV,4,3,15,17,08,150,20,19,30,151,33,20,38,280,21,25,09,285,*7D
$GPGSV,4,4,15,29,06,323,14,30,11,116,17,50,60,166,32*47
$GPGLL,2458.07294,N,12111.34718,E,092326.00,A,D*68
$GPRMC,092327.00,A,2458.07286,N,12111.34727,E,0.452,,090621,,,D*70
$GPVTG,,T,,M,0.452,N,0.837,K,D*29
$GPGGA,092327.00,2458.07286,N,12111.34727,E,2,12,0.99,151.8,M,16.4,M,,0000*58
$GPGSA,A,3,02,06,05,19,20,12,13,07,09,17,15,30,1.85,0.99,1.56*09
$GPGSV,4,1,15,02,59,013,30,05,45,280,26,06,44,073,21,07,06,080,15*71
$GPGSV,4,2,15,09,12,039,14,12,20,251,14,13,34,184,35,15,10,210,20*76
$GPGSV,4,3,15,17,08,150,19,19,30,151,36,20,38,280,22,25,09,285,*71
$GPGSV,4,4,15,29,06,323,12,30,11,116,17,50,60,166,35*46
$GPGLL,2458.07286,N,12111.34727,E,092327.00,A,D*66
$GPRMC,092328.00,A,2458.07282,N,12111.34741,E,0.381,,090621,,,D*72
$GPVTG,,T,,M,0.381,N,0.706,K,D*2D
$GPGGA,092328.00,2458.07282,N,12111.34741,E,2,12,0.99,152.1,M,16.4,M,,0000*59
$GPGSA,A,3,02,06,05,19,20,12,13,07,09,17,15,30,1.85,0.99,1.56*09
$GPGSV,4,1,15,02,59,013,30,05,45,280,26,06,44,073,22,07,06,080,14*73
$GPGSV,4,2,15,09,12,039,13,12,20,251,12,13,34,184,34,15,10,210,20*76
$GPGSV,4,3,15,17,08,150,19,19,30,151,35,20,38,280,23,25,09,285,*73
$GPGSV,4,4,15,29,06,323,13,30,11,116,17,50,60,166,33*41
$GPGLL,2458.07282,N,12111.34741,E,092328.00,A,D*6D
$GPRMC,092329.00,A,2458.07272,N,12111.34751,E,0.551,,090621,,,D*76
$GPVTG,,T,,M,0.551,N,1.021,K,D*25
$GPGGA,092329.00,2458.07272,N,12111.34751,E,2,12,0.99,152.5,M,16.4,M,,0000*52
$GPGSA,A,3,02,06,05,19,20,12,13,07,09,17,15,30,1.85,0.99,1.56*09
$GPGSV,4,1,15,02,59,013,31,05,45,280,27,06,44,073,22,07,06,080,14*73
$GPGSV,4,2,15,09,12,039,13,12,20,251,12,13,34,184,34,15,10,210,20*76
$GPGSV,4,3,15,17,08,150,19,19,30,151,35,20,38,280,23,25,09,285,*73
$GPGSV,4,4,15,29,06,323,12,30,11,116,16,50,60,166,33*41
$GPGLL,2458.07272,N,12111.34751,E,092329.00,A,D*62
$GPRMC,092332.00,A,2458.07279,N,12111.34751,E,0.299,,090621,,,D*74
$GPVTG,,T,,M,0.299,N,0.553,K,D*27
$GPGGA,092332.00,2458.07279,N,12111.34751,E,2,12,1.05,152.6,M,16.4,M,,0000*54
$GPGSA,A,3,02,06,05,19,20,13,07,09,17,15,30,50,1.96,1.05,1.66*0A
$GPGSV,4,1,15,02,59,013,31,05,45,280,27,06,44,073,23,07,06,080,16*70
$GPGSV,4,2,15,09,12,039,12,12,20,251,08,13,34,184,36,15,10,210,21*7F
$GPGSV,4,3,15,17,08,150,20,19,30,151,37,20,38,280,26,25,09,285,08*76
$GPGSV,4,4,15,29,06,323,13,30,11,116,17,50,60,166,34*46
$GPGLL,2458.07279,N,12111.34751,E,092332.00,A,D*63
$GPRMC,092333.00,A,2458.07274,N,12111.34760,E,0.356,,090621,,,D*78
$GPVTG,,T,,M,0.356,N,0.659,K,D*2C
$GPGGA,092333.00,2458.07274,N,12111.34760,E,2,12,1.05,153.1,M,16.4,M,,0000*5C
$GPGSA,A,3,02,06,05,19,20,13,07,09,17,15,30,50,1.96,1.05,1.66*0A
$GPGSV,4,1,15,02,59,013,31,05,45,280,27,06,44,073,23,07,06,080,16*70
$GPGSV,4,2,15,09,12,039,12,12,20,251,08,13,34,184,36,15,10,210,22*7C
$GPGSV,4,3,15,17,08,150,21,19,30,151,37,20,38,280,27,25,09,285,08*76
$GPGSV,4,4,15,29,06,323,12,30,11,116,17,50,60,166,33*40
$GPGLL,2458.07274,N,12111.34760,E,092333.00,A,D*6D
$GPRMC,092334.00,A,2458.07278,N,12111.34765,E,0.174,,090621,,,D*74
$GPVTG,,T,,M,0.174,N,0.321,K,D*24
$GPGGA,092334.00,2458.07278,N,12111.34765,E,2,12,1.05,153.2,M,16.4,M,,0000*51
$GPGSA,A,3,02,06,05,19,20,13,07,09,17,15,30,50,1.96,1.05,1.66*0A
$GPGSV,4,1,15,02,59,013,32,05,45,280,28,06,44,073,25,07,06,080,16*7A
$GPGSV,4,2,15,09,12,039,12,12,20,251,08,13,34,184,36,15,10,210,22*7C
$GPGSV,4,3,15,17,08,150,22,19,30,151,36,20,38,280,27,25,09,285,*7C
$GPGSV,4,4,15,29,06,323,11,30,11,116,18,50,60,166,33*4C
$GPGLL,2458.07278,N,12111.34765,E,092334.00,A,D*63
$GPRMC,092335.00,A,2458.07273,N,12111.34763,E,0.267,,090621,,,D*79
$GPVTG,,T,,M,0.267,N,0.495,K,D*2D
$GPGGA,092335.00,2458.07273,N,12111.34763,E,2,12,1.05,153.7,M,16.4,M,,0000*58
$GPGSA,A,3,02,06,05,19,20,13,07,09,17,15,30,50,1.96,1.05,1.66*0A
$GPGSV,4,1,15,02,59,013,32,05,45,280,28,06,44,073,24,07,06,080,16*7B
$GPGSV,4,2,15,09,12,039,12,12,20,251,08,13,34,184,36,15,10,210,22*7C
$GPGSV,4,3,15,17,08,150,22,19,30,151,37,20,38,280,27,25,09,285,*7D
$GPGSV,4,4,15,29,06,323,14,30,11,116,18,50,60,166,33*49
$GPGLL,2458.07273,N,12111.34763,E,092335.00,A,D*6F
$GPRMC,092336.00,A,2458.07270,N,12111.34758,E,0.155,,090621,,,D*73
$GPVTG,,T,,M,0.155,N,0.287,K,D*2A
$GPGGA,092336.00,2458.07270,N,12111.34758,E,2,12,1.05,153.9,M,16.4,M,,0000*5E
$GPGSA,A,3,02,06,05,19,20,12,13,07,09,17,15,30,1.96,1.05,1.66*0C
$GPGSV,4,1,15,02,59,013,31,05,45,280,27,06,44,073,25,07,06,080,16*76
$GPGSV,4,2,15,09,12,039,12,12,20,251,13,13,34,184,35,15,10,210,22*75
$GPGSV,4,3,15,17,08,150,21,19,30,151,36,20,38,280,27,25,09,285,*7F
$GPGSV,4,4,15,29,06,323,15,30,11,116,20,50,60,166,34*44
$GPGLL,2458.07270,N,12111.34758,E,092336.00,A,D*67
$GPRMC,092337.00,A,2458.07272,N,12111.34758,E,0.181,,090621,,,D*79
$GPVTG,,T,,M,0.181,N,0.336,K,D*28
$GPGGA,092337.00,2458.07272,N,12111.34758,E,2,12,1.05,153.9,M,16.4,M,,0000*5D
$GPGSA,A,3,02,06,05,19,20,12,13,07,09,17,15,30,1.96,1.05,1.66*0C
$GPGSV,4,1,15,02,59,013,32,05,45,280,27,06,44,073,23,07,06,080,16*73
$GPGSV,4,2,15,09,12,039,12,12,20,251,16,13,34,184,36,15,10,210,21*70
$GPGSV,4,3,15,17,08,150,20,19,30,151,36,20,38,280,26,25,09,285,*7F
$GPGSV,4,4,15,29,06,323,15,30,11,116,20,50,60,166,33*43
$GPGLL,2458.07272,N,12111.34758,E,092337.00,A,D*64
$GPRMC,092338.00,A,2458.07273,N,12111.34751,E,0.213,,090621,,,D*76
$GPVTG,,T,,M,0.213,N,0.394,K,D*28
$GPGGA,092338.00,2458.07273,N,12111.34751,E,2,12,0.99,153.9,M,16.4,M,,0000*5E
$GPGSA,A,3,02,06,05,19,20,12,13,07,09,17,15,30,1.85,0.99,1.56*09
$GPGSV,4,1,15,02,59,013,32,05,45,280,27,06,44,073,23,07,06,080,12*77
$GPGSV,4,2,15,09,12,039,16,12,20,251,19,13,34,184,36,15,10,210,21*7B
$GPGSV,4,3,15,17,08,150,20,19,30,151,36,20,38,280,25,25,09,285,*7C
$GPGSV,4,4,15,29,06,323,15,30,11,116,22,50,60,166,34*46
$GPGLL,2458.07273,N,12111.34751,E,092338.00,A,D*63
$GPRMC,092339.00,A,2458.07262,N,12111.34754,E,0.323,,090621,,,D*70
$GPVTG,,T,,M,0.323,N,0.598,K,D*20
$GPGGA,092339.00,2458.07262,N,12111.34754,E,2,12,0.99,154.7,M,16.4,M,,0000*53
$GPGSA,A,3,02,06,05,19,20,12,13,07,09,17,15,30,1.85,0.99,1.56*09
$GPGSV,4,1,15,02,59,013,32,05,45,280,26,06,44,073,22,07,06,080,12*77
$GPGSV,4,2,15,09,12,039,16,12,20,251,20,13,34,184,35,15,10,210,21*72
$GPGSV,4,3,15,17,08,150,19,19,30,151,35,20,38,280,25,25,09,285,*75
$GPGSV,4,4,15,29,06,323,14,30,11,116,21,50,60,166,33*43
$GPGLL,2458.07262,N,12111.34754,E,092339.00,A,D*67
$GPRMC,092340.00,A,2458.07260,N,12111.34747,E,0.087,,090621,,,D*73
$GPVTG,,T,,M,0.087,N,0.161,K,D*2F
$GPGGA,092340.00,2458.07260,N,12111.34747,E,2,12,0.99,154.9,M,16.4,M,,0000*53
$GPGSA,A,3,02,06,05,19,20,12,13,07,09,17,15,30,1.85,0.99,1.56*09
$GPGSV,4,1,15,02,59,013,32,05,45,280,27,06,44,073,23,07,06,080,12*77
$GPGSV,4,2,15,09,12,039,16,12,20,251,22,13,34,184,36,15,10,210,21*73
$GPGSV,4,3,15,17,08,150,18,19,30,151,36,20,38,280,25,25,09,285,*77
$GPGSV,4,4,15,29,06,323,14,30,11,116,22,50,60,166,34*47
$GPGLL,2458.07260,N,12111.34747,E,092340.00,A,D*69
$GPRMC,092341.00,A,2458.07257,N,12111.34747,E,0.051,,090621,,,D*7D
$GPGSV,4,3,15,17,08,150,19,19,30,151,36,20,38,280,26,25,09,285,*75
$GPGSV,4,4,15,29,06,323,16,30,11,116,24,50,60,166,34*43
$GPGLL,2458.07239,N,12111.34753,E,092343.00,A,D*63
$GPRMC,092344.00,A,2458.07229,N,12111.34746,E,0.146,,090621,,,D*77
$GPVTG,,T,,M,0.146,N,0.271,K,D*21
$GPGGA,092344.00,2458.07229,N,12111.34746,E,2,12,0.99,157.5,M,16.4,M,,0000*54
$GPGSA,A,3,02,06,05,19,20,12,13,07,09,17,15,30,1.85,0.99,1.56*09
$GPGSV,4,1,15,02,59,013,33,05,45,280,28,06,44,073,25,07,06,080,08*74
$GPGSV,4,2,15,09,12,039,13,12,20,251,22,13,34,184,36,15,10,210,23*74
$GPGSV,4,3,15,17,08,150,19,19,30,151,36,20,38,280,26,25,09,285,*75
$GPGSV,4,4,15,29,06,323,16,30,11,116,24,50,60,166,34*43
$GPGLL,2458.07229,N,12111.34746,E,092344.00,A,D*61
$GPRMC,092345.00,A,2458.07220,N,12111.34745,E,0.185,,090621,,,D*73
$GPVTG,,T,,M,0.185,N,0.343,K,D*2E
$GPGGA,092345.00,2458.07220,N,12111.34745,E,2,12,0.84,158.0,M,16.4,M,,0000*59
$GPGSA,A,3,02,06,05,19,20,12,13,07,09,17,15,30,1.51,0.84,1.25*08
$GPGSV,4,1,15,02,59,013,33,05,45,280,27,06,44,073,25,07,06,080,07*74
$GPGSV,4,2,15,09,12,039,13,12,20,251,22,13,34,184,36,15,10,210,23*74
$GPGSV,4,3,15,17,08,150,18,19,30,151,36,20,38,280,27,25,09,285,*75
$GPGSV,4,4,15,29,06,323,15,30,11,116,24,50,60,166,34*40
$GPGLL,2458.07220,N,12111.34745,E,092345.00,A,D*6A
$GPRMC,092346.00,A,2458.07206,N,12111.34738,E,0.220,,090621,,,D*72
$GPVTG,,T,,M,0.220,N,0.408,K,D*2A
$GPGGA,092346.00,2458.07206,N,12111.34738,E,2,12,0.99,158.7,M,16.4,M,,0000*5F
$GPGSA,A,3,02,06,05,19,20,12,13,07,09,17,15,30,1.85,0.99,1.56*09
$GPGSV,4,1,15,02,59,013,33,05,45,280,27,06,44,073,26,07,06,080,07*77
$GPGSV,4,2,15,09,12,039,13,12,20,251,22,13,34,184,36,15,10,210,23*74
$GPGSV,4,3,15,17,08,150,16,19,30,151,36,20,38,280,28,25,09,285,*74
$GPGSV,4,4,15,29,06,323,14,30,11,116,24,50,60,166,34*41
$GPGLL,2458.07206,N,12111.34738,E,092346.00,A,D*67
$GPRMC,092347.00,A,2458.07195,N,12111.34723,E,0.193,,090621,,,D*7B
$GPVTG,,T,,M,0.193,N,0.357,K,D*2C
$GPGGA,092347.00,2458.07195,N,12111.34723,E,2,12,0.99,159.2,M,16.4,M,,0000*59
$GPGSA,A,3,02,06,05,19,20,12,13,07,09,17,15,30,1.85,0.99,1.56*09
$GPGSV,4,1,15,02,59,013,34,05,45,280,27,06,44,073,26,07,06,080,07*70
$GPGSV,4,2,15,09,12,039,13,12,20,251,21,13,34,184,36,15,10,210,24*70
$GPGSV,4,3,15,17,08,150,16,19,30,151,36,20,38,280,28,25,09,285,*74
$GPGSV,4,4,15,29,06,323,14,30,11,116,24,50,60,166,34*41
$GPGLL,2458.07195,N,12111.34723,E,092347.00,A,D*65
$GPRMC,092348.00,A,2458.07186,N,12111.34710,E,0.029,,090621,,,D*76
$GPVTG,,T,,M,0.029,N,0.053,K,D*2B
$GPGGA,092348.00,2458.07186,N,12111.34710,E,2,12,0.99,159.5,M,16.4,M,,0000*53
$GPGSA,A,3,02,06,05,19,20,12,13,07,09,17,15,30,1.85,0.99,1.56*09
$GPGSV,4,1,15,02,59,013,33,05,45,280,27,06,44,073,26,07,06,080,07*77
$GPGSV,4,2,15,09,12,039,13,12,20,251,18,13,34,184,36,15,10,210,24*7A
$GPGSV,4,3,15,17,08,150,15,19,30,151,36,20,38,280,28,25,09,285,*77
$GPGSV,4,4,15,29,06,323,13,30,11,116,24,50,60,166,34*46
$GPGLL,2458.07186,N,12111.34710,E,092348.00,A,D*68
$GPRMC,092349.00,A,2458.07177,N,12111.34697,E,0.039,,090621,,,D*76
$GPVTG,,T,,M,0.039,N,0.071,K,D*2A
$GPGGA,092349.00,2458.07177,N,12111.34697,E,2,12,0.99,159.8,M,16.4,M,,0000*5F
$GPGSA,A,3,02,06,05,19,20,12,13,07,09,17,15,30,1.85,0.99,1.56*09
$GPGSV,4,1,15,02,59,013,33,05,45,280,27,06,44,073,26,07,06,080,07*77
$GPGSV,4,2,15,09,12,039,13,12,20,251,18,13,34,184,35,15,10,210,23*7E
$GPGSV,4,3,15,17,08,150,16,19,30,151,35,20,38,280,28,25,09,285,*77
$GPGSV,4,4,15,29,06,323,14,30,11,116,24,50,60,166,34*41
$GPGLL,2458.07177,N,12111.34697,E,092349.00,A,D*69
$GPRMC,092350.00,A,2458.07166,N,12111.34687,E,0.025,,090621,,,D*72
$GPVTG,,T,,M,0.025,N,0.047,K,D*22
$GPGGA,092350.00,2458.07166,N,12111.34687,E,2,12,0.99,160.2,M,16.4,M,,0000*56
$GPGSA,A,3,02,06,05,19,20,12,13,09,17,15,30,50,1.85,0.99,1.56*0B
$GPGSV,4,1,15,02,59,013,33,05,45,280,27,06,44,073,26,07,06,080,06*76
$GPGSV,4,2,15,09,12,039,15,12,20,251,18,13,34,184,36,15,10,210,23*7B
$GPGSV,4,3,15,17,08,150,16,19,30,151,36,20,38,280,28,25,09,285,*74
$GPGSV,4,4,15,29,06,323,15,30,11,116,24,50,60,166,34*40
$GPGLL,2458.07166,N,12111.34687,E,092350.00,A,D*60
$GPRMC,092351.00,A,2458.07158,N,12111.34678,E,0.024,,090621,,,D*7F
$GPVTG,,T,,M,0.024,N,0.045,K,D*21
$GPGGA,092351.00,2458.07158,N,12111.34678,E,2,11,0.99,160.5,M,16.4,M,,0000*5E
$GPGSA,A,3,02,06,05,19,20,12,13,17,15,30,50,,1.85,0.99,1.56*02
$GPGSV,4,1,15,02,59,013,33,05,45,280,27,06,44,073,26,07,06,080,06*76
$GPGSV,4,2,15,09,12,039,09,12,20,251,17,13,34,184,36,15,10,210,23*79
$GPGSV,4,3,15,17,08,150,17,19,30,151,36,20,38,280,28,25,09,285,*75
$GPGSV,4,4,15,29,06,323,15,30,11,116,23,50,60,166,34*47
$GPGLL,2458.07158,N,12111.34678,E,092351.00,A,D*6C
$GPRMC,092352.00,A,2458.07152,N,12111.34677,E,0.206,,090621,,,D*7B
$GPVTG,,T,,M,0.206,N,0.382,K,D*2B
$GPGGA,092352.00,2458.07152,N,12111.34677,E,2,12,0.99,160.7,M,16.4,M,,0000*59
$GPGSA,A,3,02,06,05,19,20,12,13,09,17,15,30,50,1.85,0.99,1.56*0B
$GPGSV,4,1,15,02,59,013,34,05,45,280,26,06,44,073,26,07,06,080,*76
$GPGSV,4,2,15,09,12,039,15,12,20,251,16,13,34,184,36,15,10,210,24*72
$GPGSV,4,3,15,17,08,150,17,19,30,151,35,20,38,280,28,25,09,285,*76
$GPGSV,4,4,15,29,06,323,15,30,11,116,22,50,60,166,34*46
$GPGLL,2458.07152,N,12111.34677,E,092352.00,A,D*6A
$GPRMC,092353.00,A,2458.07147,N,12111.34674,E,0.066,,090621,,,D*79
$GPVTG,,T,,M,0.066,N,0.122,K,D*27
$GPGGA,092353.00,2458.07147,N,12111.34674,E,2,12,0.99,160.7,M,16.4,M,,0000*5F
$GPGSA,A,3,02,06,05,19,20,12,13,09,17,15,30,50,1.85,0.99,1.56*0B
$GPGSV,4,1,15,02,59,013,34,05,45,280,27,06,44,073,26,07,06,080,*77
$GPGSV,4,2,15,09,12,039,18,12,20,251,15,13,34,184,36,15,10,210,25*7D
$GPGSV,4,3,15,17,08,150,15,19,30,151,35,20,38,280,28,25,09,285,*74
$GPGSV,4,4,15,29,06,323,14,30,11,116,22,50,60,166,34*47
$GPGLL,2458.07147,N,12111.34674,E,092353.00,A,D*6C
$GPRMC,092354.00,A,2458.07140,N,12111.34669,E,0.141,,090621,,,D*71
$GPVTG,,T,,M,0.141,N,0.261,K,D*27
$GPGGA,092354.00,2458.07140,N,12111.34669,E,2,12,0.99,161.0,M,16.4,M,,0000*55
$GPGSA,A,3,02,06,05,19,20,12,13,09,17,15,30,50,1.85,0.99,1.56*0B
$GPGSV,4,1,15,02,59,013,33,05,45,280,27,06,44,073,26,07,06,080,*70
$GPGSV,4,2,15,09,12,039,19,12,20,251,14,13,34,184,36,15,10,210,25*7D
$GPGSV,4,3,15,17,08,150,15,19,30,151,35,20,38,280,28,25,09,285,*74
$GPGSV,4,4,15,29,06,323,14,30,11,116,21,50,60,166,34*44
$GPGLL,2458.07140,N,12111.34669,E,092354.00,A,D*60
$GPRMC,092355.00,A,2458.07135,N,12111.34662,E,0.068,,090621,,,D*73
$GPVTG,,T,,M,0.068,N,0.125,K,D*2E
$GPGGA,092355.00,2458.07135,N,12111.34662,E,2,12,0.99,161.0,M,16.4,M,,0000*5D
$GPGSA,A,3,02,06,05,19,20,12,13,09,17,25,15,30,1.85,0.99,1.56*09
$GPGSV,4,1,15,02,59,013,33,05,45,280,27,06,44,073,25,07,06,080,*73
$GPGSV,4,2,15,09,12,039,20,12,20,251,15,13,34,184,36,15,10,210,25*76
$GPGSV,4,3,15,17,08,150,17,19,30,151,35,20,38,280,28,25,09,285,14*73
$GPGSV,4,4,15,29,06,323,,30,11,116,21,50,60,166,33*46
$GPGLL,2458.07135,N,12111.34662,E,092355.00,A,D*68
$GPRMC,092356.00,A,2458.07132,N,12111.34651,E,0.216,,090621,,,D*7C
$GPVTG,,T,,M,0.216,N,0.401,K,D*26
$GPGGA,092356.00,2458.07132,N,12111.34651,E,2,12,0.99,161.1,M,16.4,M,,0000*58
$GPGSA,A,3,02,06,05,19,20,12,13,09,17,25,15,30,1.85,0.99,1.56*09
$GPGSV,4,1,15,02,59,013,33,05,45,280,28,06,44,073,25,07,06,080,*7C
$GPGSV,4,2,15,09,12,039,20,12,20,251,16,13,34,184,36,15,10,210,25*75
$GPGSV,4,3,15,17,08,150,16,19,30,151,35,20,38,280,28,25,09,285,12*74
$GPGSV,4,4,15,29,06,323,,30,11,116,19,50,60,166,33*4D
$GPGLL,2458.07132,N,12111.34651,E,092356.00,A,D*6C
$GPRMC,092357.00,A,2458.07130,N,12111.34643,E,0.128,,090621,,,D*72
$GPVTG,,T,,M,0.128,N,0.238,K,D*24
$GPGGA,092357.00,2458.07130,N,12111.34643,E,2,12,0.99,161.1,M,16.4,M,,0000*58
$GPGSA,A,3,02,06,05,19,20,12,13,09,17,25,15,30,1.85,0.99,1.56*09
$GPGSV,4,1,15,02,59,013,33,05,45,280,28,06,44,073,25,07,06,080,*7C
$GPGSV,4,2,15,09,12,039,20,12,20,251,16,13,34,184,35,15,10,210,24*77
$GPGSV,4,3,15,17,08,150,17,19,30,151,34,20,38,280,28,25,09,285,12*74
$GPGSV,4,4,15,29,06,323,,30,11,116,18,50,60,166,33*4C
$GPGLL,2458.07130,N,12111.34643,E,092357.00,A,D*6C
$GPGSV,4,3,15,17,08,150,17,19,30,151,36,20,38,280,27,25,09,285,12*79
$GPGSV,4,4,15,29,06,323,,30,11,116,17,50,60,166,34*44
$GPGLL,2458.07126,N,12111.34627,E,092400.00,A,D*6C
$GPRMC,092401.00,A,2458.07124,N,12111.34618,E,0.151,,090621,,,D*73
$GPVTG,,T,,M,0.151,N,0.280,K,D*29
$GPGGA,092401.00,2458.07124,N,12111.34618,E,2,12,0.99,160.7,M,16.4,M,,0000*50
$GPGSA,A,3,02,06,05,19,20,12,13,09,17,25,15,30,1.85,0.99,1.56*09
$GPGSV,4,1,15,02,59,013,34,05,45,280,29,06,44,073,26,07,06,080,*79
$GPGSV,4,2,15,09,12,039,19,12,20,251,20,13,34,184,36,15,10,210,24*7B
$GPGSV,4,3,15,17,08,150,17,19,30,151,35,20,38,280,27,25,09,285,12*7A
$GPGSV,4,4,15,29,06,323,,30,11,116,17,50,60,166,34*44
$GPGLL,2458.07124,N,12111.34618,E,092401.00,A,D*63
$GPRMC,092402.00,A,2458.07120,N,12111.34610,E,0.050,,090621,,,D*7C
$GPVTG,,T,,M,0.050,N,0.093,K,D*29
$GPGGA,092402.00,2458.07120,N,12111.34610,E,2,12,0.99,160.6,M,16.4,M,,0000*5E
$GPGSA,A,3,02,06,05,19,20,12,13,09,17,25,15,30,1.85,0.99,1.56*09
$GPGSV,4,1,15,02,59,013,34,05,45,280,29,06,44,073,27,07,06,080,*78
$GPGSV,4,2,15,09,12,039,19,12,20,251,21,13,34,184,36,15,10,210,24*7A
$GPGSV,4,3,15,17,08,150,17,19,30,151,35,20,38,280,26,25,09,285,14*7D
$GPGSV,4,4,15,29,06,323,,30,11,116,17,50,60,166,34*44
$GPGLL,2458.07120,N,12111.34610,E,092402.00,A,D*6C
$GPRMC,092403.00,A,2458.07115,N,12111.34599,E,0.045,,090621,,,D*7D
$GPVTG,,T,,M,0.045,N,0.084,K,D*2B
$GPGGA,092403.00,2458.07115,N,12111.34599,E,2,12,0.99,160.4,M,16.4,M,,0000*59
$GPGSA,A,3,02,06,05,19,20,12,13,09,17,25,15,30,1.85,0.99,1.56*09
$GPGSV,4,1,15,02,59,013,35,05,45,280,29,06,44,073,27,07,06,080,*79
$GPGSV,4,2,15,09,12,039,18,12,20,251,21,13,34,184,37,15,10,210,24*7A
$GPGSV,4,3,15,17,08,150,17,19,30,151,35,20,38,280,25,25,09,285,14*7E
$GPGSV,4,4,15,29,06,323,,30,11,116,17,50,60,166,34*44
$GPGLL,2458.07115,N,12111.34599,E,092403.00,A,D*69
$GPRMC,092404.00,A,2458.07105,N,12111.34584,E,0.167,,090621,,,D*76
$GPVTG,,T,,M,0.167,N,0.309,K,D*2C
$GPGGA,092404.00,2458.07105,N,12111.34584,E,2,12,0.99,160.6,M,16.4,M,,0000*51
$GPGSA,A,3,02,06,05,19,20,12,13,09,17,25,15,30,1.85,0.99,1.56*09
$GPGSV,4,1,15,02,59,013,36,05,45,280,30,06,44,073,28,07,06,080,*7D
$GPGSV,4,2,15,09,12,039,18,12,20,251,22,13,34,184,37,15,10,210,25*78
$GPGSV,4,3,15,17,08,150,17,19,30,151,35,20,38,280,24,25,09,285,14*7F
$GPGSV,4,4,15,29,06,323,,30,11,116,19,50,60,166,34*4A
$GPGLL,2458.07105,N,12111.34584,E,092404.00,A,D*63
$GPRMC,092405.00,A,2458.07099,N,12111.34577,E,0.109,,090621,,,D*77
$GPVTG,,T,,M,0.109,N,0.202,K,D*2E
$GPGGA,092405.00,2458.07099,N,12111.34577,E,2,12,0.99,160.6,M,16.4,M,,0000*58
$GPGSA,A,3,02,06,05,19,20,12,13,09,17,25,15,30,1.85,0.99,1.56*09
$GPGSV,4,1,15,02,59,013,34,05,45,280,29,06,44,073,29,07,06,080,*76
$GPGSV,4,2,15,09,12,039,17,12,20,251,22,13,34,184,37,15,10,210,25*77
$GPGSV,4,3,15,17,08,150,18,19,30,151,35,20,38,280,22,25,09,285,14*76
$GPGSV,4,4,15,29,06,323,,30,11,116,19,50,60,166,34*4A
$GPGLL,2458.07099,N,12111.34577,E,092405.00,A,D*6A
$GPRMC,092406.00,A,2458.07094,N,12111.34562,E,0.163,,090621,,,D*71
$GPVTG,,T,,M,0.163,N,0.302,K,D*23
$GPGGA,092406.00,2458.07094,N,12111.34562,E,2,12,0.99,160.5,M,16.4,M,,0000*51
$GPGSA,A,3,02,06,05,19,20,12,13,09,17,25,15,30,1.85,0.99,1.56*09
$GPGSV,4,1,15,02,59,013,34,05,45,280,29,06,44,073,29,07,06,080,*76
$GPGSV,4,2,15,09,12,039,17,12,20,251,22,13,34,184,37,15,10,210,25*77
$GPGSV,4,3,15,17,08,150,17,19,30,151,35,20,38,280,20,25,09,285,14*7B
$GPGSV,4,4,15,29,06,323,,30,11,116,19,50,60,166,35*4B
$GPGLL,2458.07094,N,12111.34562,E,092406.00,A,D*60
$GPRMC,092407.00,A,2458.07089,N,12111.34549,E,0.047,,090621,,,D*72
$GPVTG,,T,,M,0.047,N,0.087,K,D*2A
$GPGGA,092407.00,2458.07089,N,12111.34549,E,2,12,0.99,160.3,M,16.4,M,,0000*53
$GPGSA,A,3,02,06,05,19,20,12,13,09,17,25,15,30,1.85,0.99,1.56*09
$GPGSV,4,1,15,02,59,014,34,05,45,280,29,06,44,073,30,07,06,080,*79
$GPGSV,4,2,15,09,12,039,18,12,20,251,22,13,34,184,37,15,10,210,24*79
$GPGSV,4,3,15,17,08,150,17,19,30,151,36,20,38,280,19,25,09,285,14*72
$GPGSV,4,4,15,29,06,323,,30,11,116,18,50,60,166,35*4A
$GPGLL,2458.07089,N,12111.34549,E,092407.00,A,D*64
$GPRMC,092408.00,A,2458.07081,N,12111.34536,E,0.133,,090621,,,D*7F
$GPVTG,,T,,M,0.133,N,0.246,K,D*27
$GPGGA,092408.00,2458.07081,N,12111.34536,E,2,12,0.99,160.5,M,16.4,M,,0000*5A
$GPGSA,A,3,02,06,05,19,20,12,13,09,17,25,15,30,1.85,0.99,1.56*09
$GPGSV,4,1,15,02,59,014,34,05,45,280,29,06,44,073,31,07,06,080,*78
$GPGSV,4,2,15,09,12,039,17,12,20,251,23,13,34,184,37,15,10,210,24*77
$GPGSV,4,3,15,17,08,150,17,19,30,151,36,20,38,280,18,25,09,285,09*7F
$GPGSV,4,4,15,29,06,323,,30,11,116,17,50,60,166,35*45
$GPGLL,2458.07081,N,12111.34536,E,092408.00,A,D*6B
$GPRMC,092409.00,A,2458.07064,N,12111.34520,E,0.019,,090621,,,D*7B
$GPGSV,4,2,15,09,12,039,15,12,20,251,25,13,34,184,38,15,10,210,24*7C
$GPGSV,4,3,15,17,08,150,18,19,30,151,35,20,38,280,18,25,09,28
$GPGSV,4,4,15,29,06,323,,30,11,116,16,50,60,166,34*45
$GPGLL,2458.07017,N,12111.34474,E,092413.00,A,D*69
$GPRMC,092414.00,A,2458.07008,N,12111.34473,E,0.040,,090621,,,D*76
$GPVTG,,T,,M,0.040,N,0.074,K,D*21
$GPGGA,092414.00,2458.07008,N,12111.34473,E,2,12,0.76,163.1,M,16.4,M,,0000*50
$GPGSA,A,3,02,06,05,19,20,12,13,07,09,17,15,30,1.42,0.76,1.20*02
$GPGSV,4,1,15,02,59,014,35,05,45,281,32,06,44,074,31,07,06,079,21*70
$GPGSV,4,2,15,09,11,039,16,12,20,251,25,13,34,184,38,15,10,210,24*7C
$GPGSV,4,3,15,17,08,150,18,19,30,151,35,20,38,280,18,25,09,285,*7A
$GPGSV,4,4,15,29,06,323,,30,11,116,16,50,60,166,33*42
$GPGLL,2458.07008,N,12111.34473,E,092414.00,A,D*67
$GPRMC,092415.00,A,2458.06998,N,12111.34471,E,0.049,,090621,,,D*7D
$GPVTG,,T,,M,0.049,N,0.091,K,D*23
$GPGGA,092415.00,2458.06998,N,12111.34471,E,2,12,0.78,163.5,M,16.4,M,,0000*58
$GPGSA,A,3,02,06,05,19,20,12,13,07,09,17,15,30,1.37,0.78,1.13*0E
$GPGSV,4,1,15,02,59,014,35,05,45,281,31,06,44,074,30,07,06,079,20*73
$GPGSV,4,2,15,09,11,039,16,12,20,251,25,13,34,184,37,15,10,210,24*73
$GPGSV,4,3,15,17,08,150,17,19,30,151,34,20,38,280,26,25,09,285,*79
$GPGSV,4,4,15,29,06,323,,30,11,116,16,50,60,166,33*42
$GPGLL,2458.06998,N,12111.34471,E,092415.00,A,D*65
$GPRMC,092416.00,A,2458.06991,N,12111.34479,E,0.210,,090621,,,D*71
$GPVTG,,T,,M,0.210,N,0.389,K,D*27
$GPGGA,092416.00,2458.06991,N,12111.34479,E,2,12,0.78,163.8,M,16.4,M,,0000*57
$GPGSA,A,3,02,06,05,19,20,12,13,07,09,17,15,30,1.37,0.78,1.13*0E
$GPGSV,4,1,15,02,59,014,34,05,45,281,31,06,44,074,30,07,06,079,18*79
$GPGSV,4,2,15,09,11,039,17,12,20,251,25,13,34,184,37,15,10,210,24*72
$GPGSV,4,3,15,17,08,150,15,19,30,151,34,20,38,280,25,25,09,285,*78
$GPGSV,4,4,15,29,06,323,,30,11,116,15,50,60,166,33*41
$GPGLL,2458.06991,N,12111.34479,E,092416.00,A,D*67
$GPRMC,092417.00,A,2458.06987,N,12111.34488,E,0.222,,090621,,,D*78
$GPVTG,,T,,M,0.222,N,0.412,K,D*23
$GPGGA,092417.00,2458.06987,N,12111.34488,E,2,12,0.78,163.7,M,16.4,M,,0000*50
$GPGSA,A,3,02,06,05,19,20,12,13,07,09,17,15,30,1.37,0.78,1.13*0E
$GPGSV,4,1,15,02,59,014,34,05,45,281,30,06,44,074,30,07,06,079,16*76
$GPGSV,4,2,15,09,11,039,17,12,20,251,24,13,34,184,36,15,10,210,23*75
$GPGSV,4,3,15,17,08,150,11,19,30,151,33,20,38,280,21,25,09,285,*7F
$GPGSV,4,4,15,29,06,323,,30,11,116,12,50,60,166,33*46
$GPGLL,2458.06987,N,12111.34488,E,092417.00,A,D*6F
$GPRMC,092418.00,A,2458.06981,N,12111.34488,E,0.098,,090621,,,D*72
$GPVTG,,T,,M,0.098,N,0.182,K,D*2C
$GPGGA,092418.00,2458.06981,N,12111.34488,E,2,12,0.75,164.0,M,16.4,M,,0000*54
$GPGSA,A,3,02,06,05,19,20,12,13,07,09,17,15,50,1.37,0.75,1.14*02
$GPGSV,4,1,15,02,59,014,33,05,45,281,31,06,44,074,31,07,06,079,16*71
$GPGSV,4,2,15,09,11,039,17,12,20,251,25,13,35,184,36,15,10,210,23*75
$GPGSV,4,3,15,17,08,150,12,19,30,151,33,20,38,280,21,25,09,285,*7C
$GPGSV,4,4,15,29,06,323,,30,11,116,09,50,60,166,33*4C
$GPGLL,2458.06981,N,12111.34488,E,092418.00,A,D*66
$GPRMC,092419.00,A,2458.06975,N,12111.34488,E,0.039,,090621,,,D*73
$GPVTG,,T,,M,0.039,N,0.072,K,D*29
$GPGGA,092419.00,2458.06975,N,12111.34488,E,2,12,0.75,164.3,M,16.4,M,,0000*5D
$GPGSA,A,3,02,06,05,19,20,12,13,07,09,17,15,50,1.37,0.75,1.14*02
$GPGSV,4,1,15,02,59,014,33,05,45,281,30,06,44,074,31,07,06,079,17*71
$GPGSV,4,2,15,09,11,039,16,12,20,251,25,13,35,184,36,15,10,210,23*74
$GPGSV,4,3,15,17,08,150,13,19,30,151,33,20,38,280,21,25,09,285,*7D
$GPGSV,4,4,15,29,06,323,,30,11,116,09,50,60,166,33*4C
$GPRMC,092420.00,A,2458.06965,N,12111.34487,E,0.130,,090621,,,D*7F
$GPVTG,,T,,M,0.130,N,0.241,K,D*23
$GPGGA,092420.00,2458.06965,N,12111.34487,E,2,12,0.73,164.7,M,16.4,M,,0000*5B
$GPGSA,A,3,02,06,05,19,20,12,13,07,09,17,15,30,1.34,0.73,1.13*06
$GPGSV,4,1,15,02,59,014,33,05,45,281,29,06,44,074,32,07,06,079,17*7A
$GPRMC,092422.00,A,2458.06957,N,12111.34486,E,0.146,,090621,,,D*7C
$GPVTG,,T,,M,0.146,N,0.270,K,D*20
$GPGGA,092422.00,2458.06957,N,12111.34486,E,2,12,0.73,165.0,M,16.4,M,,0000*5F
$GPRMC,092423.00,A,2458.06960,N,12111.34485,E,0.337,,090621,,,D*7E
$GPVTG,,T,,M,0.337,N,0.624,K,D*21
$GPGGA,092423.00,2458.06960,N,12111.34485,E,2,12,0.73,164.9,M,16.4,M,,0000*51
$GPGSA,A,3,02,06,05,19,20,12,13,07,09,17,15,30,1.34,0.73,1.13*06
$GPGSV,4,1,15,02,59,014,33,05,45,281,29,06,44,074,31,07,06,079,12*7C
$GPGSV,4,2,15,09,11,039,10,12,20,251,26,13,35,184,36,15,11,210,24*77
$GPRMC,092424.00,A,2458.06959,N,12111.34481,E,0.203,,090621,,,D*71
$GPVTG,,T,,M,0.203,N,0.375,K,D*26
$GPGGA,092424.00,2458.06959,N,12111.34481,E,2,12,0.76,164.9,M,16.4,M,,0000*5D
$GPGSA,A,3,02,06,05,19,20,12,13,07,09,17,15,30,1.39,0.76,1.16*0B
$GPGSV,4,1,15,02,59,014,33,05,45,281,28,06,44,074,32,07,06,079,10*7C
$GPGSV,4,2,15,09,11,039,12,12,20,251,25,13,35,184,36,15,11,210,24*76
$GPGSV,4,3,15,17,08,150,15,19,29,152,34,20,38,280,22,25,09,285,*74
$GPGSV,4,4,15,29,06,323,,30,11,116,15,50,60,166,32*40
$GPRMC,092426.00,A,2458.06953,N,12111.34491,E,0.301,,090621,,,D*7B
$GPVTG,,T,,M,0.301,N,0.557,K,D*23
$GPGGA,092426.00,2458.06953,N,12111.34491,E,2,12,0.73,164.9,M,16.4,M,,0000*51
$GPGSA,A,3,02,06,05,19,20,12,13,07,09,17,15,30,1.34,0.73,1.13*06
$GPRMC,092427.00,A,2458.06952,N,12111.34495,E,0.167,,090621,,,D*7D
$GPVTG,,T,,M,0.167,N,0.310,K,D*24
$GPGGA,092427.00,2458.06952,N,12111.34495,E,2,12,0.73,164.8,M,16.4,M,,0000*54
$GPGSA,A,3,02,06,05,19,20,12,13,07,09,17,15,30,1.34,0.73,1.13*06
$GPGSV,4,1,15,02,59,014,33,05,45,281,28,06,44,074,32,07,06,079,11*7D
$GPRMC,092428.00,A,2458.06951,N,12111.34496,E,0.032,,090621,,,D*73
$GPVTG,,T,,M,0.032,N,0.059,K,D*2B
$GPGGA,092428.00,2458.06951,N,12111.34496,E,2,12,0.76,164.8,M,16.4,M,,0000*5E
$GPGSA,A,3,02,06,05,19,20,12,13,07,09,17,25,15,1.42,0.76,1.20*06
$GPGSV,4,1,15,02,59,014,33,05,45,281,28,06,44,074,31,07,06,079,11*7E
$GPGSV,4,2,15,09,11,039,15,12,20,251,25,13,35,184,36,15,11,210,24*71
$GPGSV,4,3,15,17,08,150,14,19,29,152,35,20,39,281,25,25,09,285,15*77
$GPGSV,4,4,15,29,06,323,,30,11,116,17,50,60,166,33*43
$GPRMC,092429.00,A,2458.06949,N,12111.34491,E,0.110,,090621,,,D*7D
$GPVTG,,T,,M,0.110,N,0.203,K,D*27
$GPGGA,092429.00,2458.06949,N,12111.34491,E,2,12,0.76,165.1,M,16.4,M,,0000*59
$GPRMC,092430.00,A,2458.06950,N,12111.34484,E,0.077,,090621,,,D*79
$GPVTG,,T,,M,0.077,N,0.142,K,D*21
$GPGGA,092430.00,2458.06950,N,12111.34484,E,2,12,0.76,165.0,M,16.4,M,,0000*5C
$GPGSA,A,3,02,06,05,19,20,12,13,07,09,17,25,15,1.42,0.76,1.20*06
$GPRMC,092432.00,A,2458.06950,N,12111.34469,E,0.095,,090621,,,D*74
$GPVTG,,T,,M,0.095,N,0.176,K,D*2A
$GPGGA,092432.00,2458.06950,N,12111.34469,E,2,12,0.69,164.8,M,16.4,M,,0000*5A
$GPGSA,A,3,02,06,05,19,20,12,13,09,17,25,15,30,1.28,0.69,1.07*05
$GPGSV,4,1,15,02,59,014,33,05,45,281,27,06,44,074,30,07,06,079,*70
$GPGSV,4,2,15,09,11,039,10,12,20,251,23,13,35,184,35,15,11,210,25*70
$GPGSV,4,3,15,17,08,150,13,19,29,152,35,20,39,281,25,25,09,284,13*77
$GPGSV,4,4,15,29,06,323,,30,11,116,17,50,60,166,33*43
$GPGLL,2458.06950,N,12111.34469,E,092432.00,A,D*6D
$GPRMC,092434.00,A,2458.06958,N,12111.34451,E,0.084,,090621,,,D*71
$GPVTG,,T,,M,0.084,N,0.156,K,D*28
$GPGGA,092434.00,2458.06958,N,12111.34451,E,2,12,0.99,164.4,M,16.4,M,,0000*5C
$GPGSA,A,3,02,06,05,19,20,12,13,09,17,25,15,30,1.84,0.99,1.55*0B
$GPGSV,4,1,15,02,59,014,34,05,45,281,27,06,44,074,29,07,06,079,*7F
$GPGSV,4,2,15,09,11,039,10,12,20,251,23,13,35,184,36,15,11,210,24*72
$GPRMC,092435.00,A,2458.06961,N,12111.34448,E,0.296,,090621,,,D*73
$GPVTG,,T,,M,0.296,N,0.548,K,D*22
$GPGGA,092435.00,2458.06961,N,12111.34448,E,2,11,0.99,164.3,M,16.4,M,,0000*5B
$GPRMC,092436.00,A,2458.06961,N,12111.34440,E,0.335,,090621,,,D*70
$GPVTG,,T,,M,0.335,N,0.620,K,D*27
$GPGGA,092436.00,2458.06961,N,12111.34440,E,2,12,0.99,164.6,M,16.4,M,,0000*56
$GPGSA,A,3,02,06,05,19,20,12,13,09,17,15,30,50,1.84,0.99,1.55*09
$GPGSV,4,1,15,02,59,014,34,05,45,281,25,06,44,074,25,07,06,079,06*77
$GPGSV,4,2,15,09,11,039,11,12,20,251,22,13,35,184,35,15,11,210,24*71
$GPGSV,4,3,15,17,08,150,15,19,29,152,36,20,39,281,23,25,09,284,08*7E
$GPRMC,092438.00,A,2458.06966,N,12111.34425,E,0.307,,090621,,,D*7B
$GPRMC,092439.00,A,2458.06966,N,12111.34426,E,0.107,,090621,,,D*7B
$GPVTG,,T,,M,0.107,N,0.198,K,D*20
$GPGGA,092439.00,2458.06966,N,12111.34426,E,2,12,1.00,165.1,M,16.4,M,,0000*59
$GPRMC,092440.00,A,2458.06969,N,12111.34431,E,0.386,,090621,,,D*77
$GPVTG,,T,,M,0.386,N,0.714,K,D*29
$GPGGA,092440.00,2458.06969,N,12111.34431,E,2,12,1.00,164.9,M,16.4,M,,0000*57
$GPGSA,A,3,02,06,05,19,20,12,13,07,09,15,30,50,1.94,1.00,1.66*08
$GPRMC,092441.00,A,2458.06964,N,12111.34437,E,0.425,,090621,,,D*73
$GPVTG,,T,,M,0.425,N,0.788,K,D*22
$GPGGA,092441.00,2458.06964,N,12111.34437,E,2,12,0.86,165.0,M,16.4,M,,0000*5A
$GPGSA,A,3,02,06,05,19,20,12,13,07,09,17,15,30,1.55,0.86,1.29*02
$GPGSV,4,1,15,02,59,014,31,05,45,281,21,06,44,074,25,07,06,079,11*70
$GPRMC,092442.00,A,2458.06973,N,12111.34433,E,0.176,,090621,,,D*71
$GPVTG,,T,,M,0.176,N,0.325,K,D*22
$GPGGA,092442.00,2458.06973,N,12111.34433,E,2,12,0.86,164.8,M,16.4,M,,0000*52
$GPRMC,092443.00,A,2458.06973,N,12111.34427,E,0.293,,090621,,,D*7D
$GPRMC,092444.00,A,2458.06978,N,12111.34425,E,0.389,,090621,,,D*79
$GPVTG,,T,,M,0.389,N,0.720,K,D*21
$GPGGA,092444.00,2458.06978,N,12111.34425,E,2,12,0.86,164.9,M,16.4,M,,0000*59
$GPRMC,092445.00,A,2458.06985,N,12111.34427,E,0.301,,090621,,,D*78
$GPVTG,,T,,M,0.301,N,0.558,K,D*2C
$GPGGA,092445.00,2458.06985,N,12111.34427,E,2,12,0.84,165.0,M,16.4,M,,0000*52
$GPGSA,A,3,02,06,05,19,20,12,13,07,09,17,15,30,1.51,0.84,1.25*08
$GPRMC,092446.00,A,2458.06993,N,12111.34432,E,0.328,,090621,,,D*73
$GPVTG,,T,,M,0.328,N,0.608,K,D*21
$GPGGA,092446.00,2458.06993,N,12111.34432,E,2,12,0.86,164.5,M,16.4,M,,0000*54
$GPGSA,A,3,02,06,05,19,20,12,13,07,09,17,15,30,1.55,0.86,1.29*02
$GPGSV,4,1,15,02,59,014,32,05,45,281,19,06,44,074,24,07,06,079,12*7A
$GPGSV,4,2,15,09,11,039,14,12,20,251,25,13,35,184,35,15,11,210,26*71
$GPGSV,4,3,15,17,08,150,14,19,29,152,37,20,39,281,22,25,09,284,*77
$GPRMC,092447.00,A,2458.06997,N,12111.34418,E,0.574,,090621,,,D*71
$GPVTG,,T,,M,0.574,N,1.063,K,D*24
$GPGGA,092447.00,2458.06997,N,12111.34418,E,2,12,0.86,164.4,M,16.4,M,,0000*58
$GPGSA,A,3,02,06,05,19,20,12,13,07,09,17,15,30,1.55,0.86,1.29*02
$GPGSV,4,1,15,02,59,014,32,05,45,281,21,06,44,074,23,07,06,079,13*77
$GPGSV,4,2,15,09,11,039,11,12,20,251,25,13,35,184,36,15,11,210,26*77
$GPRMC,092448.00,A,2458.06997,N,12111.34396,E,0.671,,090621,,,D*79
$GPVTG,,T,,M,0.671,N,1.243,K,D*22
$GPGGA,092448.00,2458.06997,N,12111.34396,E,2,12,0.86,164.6,M,16.4,M,,0000*54
$GPGSA,A,3,02,06,05,19,20,12,13,07,09,17,15,30,1.55,0.86,1.29*02
$GPRMC,092449.00,A,2458.06985,N,12111.34386,E,0.568,,090621,,,D*71
$GPRMC,092450.00,A,2458.06978,N,12111.34371,E,0.372,,090621,,,D*7E
$GPVTG,,T,,M,0.372,N,0.690,K,D*2F
$GPGGA,092450.00,2458.06978,N,12111.34371,E,2,12,0.84,165.7,M,16.4,M,,0000*57
$GPGSA,A,3,02,06,05,19,20,12,13,07,09,17,15,30,1.51,0.84,1.25*08
$GPGSV,4,1,15,02,59,014,33,05,45,281,22,06,44,074,21,07,06,079,10*74
$GPRMC,092451.00,A,2458.06976,N,12111.34364,E,0.166,,090621,,,D*72
$GPVTG,,T,,M,0.166,N,0.308,K,D*2C
$GPGGA,092451.00,2458.06976,N,12111.34364,E,2,12,0.99,166.0,M,16.4,M,,0000*54
$GPGSA,A,3,02,06,05,19,20,12,13,09,17,15,30,50,1.84,0.99,1.55*09
$GPGSV,4,1,15,02,59,014,32,05,45,281,21,06,44,074,20,07,06,079,09*7F
$GPGSV,4,2,15,09,11,039,11,12,20,251,26,13,35,184,35,15,11,210,26*77
$GPGSV,4,3,15,17,08,150,17,19,29,152,35,20,39,281,14,25,09,284,*73
$GPGSV,4,4,15,29,06,323,,30,11,116,25,50,60,166,34*45
$GPGLL,2458.06976,N,12111.34364,E,092451.00,A,D*66
$GPRMC,092452.00,A,2458.06973,N,12111.34363,E,0.268,,090621,,,D*7E
$GPVTG,,T,,M,0.268,N,0.496,K,D*21
$GPGGA,092452.00,2458.06973,N,12111.34363,E,2,12,0.99,166.1,M,16.4,M,,0000*54
$GPGSA,A,3,02,06,05,19,20,12,13,09,17,15,30,50,1.84,0.99,1.55*09
$GPGSV,4,1,15,02,59,014,33,05,45,281,22,06,44,074,17,07,06,079,09*79
$GPGSV,4,2,15,09,11,039,10,12,20,251,27,13,35,184,35,15,11,210,27*76
$GPGSV,4,3,15,17,08,150,17,19,29,152,35,20,39,281,14,25,09,284,*73
$GPGSV,4,4,15,29,06,323,,30,11,116,25,50,60,166,34*45
$GPRMC,092453.00,A,2458.06973,N,12111.34359,E,0.299,,090621,,,D*78
$GPVTG,,T,,M,0.299,N,0.554,K,D*20
$GPRMC,092454.00,A,2458.06967,N,12111.34354,E,0.477,,090621,,,D*71
$GPRMC,092455.00,A,2458.06967,N,12111.34348,E,0.143,,090621,,,D*7F
$GPVTG,,T,,M,0.143,N,0.265,K,D*21
$GPGGA,092455.00,2458.06967,N,12111.34348,E,2,11,1.05,166.5,M,16.4,M,,0000*5C
$GPGSA,A,3,02,06,05,19,12,13,17,25,15,30,50,,1.88,1.05,1.56*0E
$GPRMC,092456.00,A,2458.06967,N,12111.34345,E,0.100,,090621,,,D*76
$GPVTG,,T,,M,0.100,N,0.185,K,D*2B
$GPGGA,092456.00,2458.06967,N,12111.34345,E,2,12,1.05,166.7,M,16.4,M,,0000*53
$GPGSA,A,3,02,06,05,19,12,13,09,17,25,15,30,50,1.88,1.05,1.56*07
$GPRMC,092457.00,A,2458.06964,N,12111.34339,E,0.356,,090621,,,D*7E
$GPVTG,,T,,M,0.356,N,0.659,K,D*2C
$GPGGA,092457.00,2458.06964,N,12111.34339,E,2,12,0.89,167.1,M,16.4,M,,0000*58
$GPGSA,A,3,02,06,05,19,12,13,09,17,25,15,30,50,1.54,0.89,1.26*04
$GPGSV,4,1,15,02,59,014,33,05,45,281,25,06,44,074,20,07,06,079,06*75
$GPGSV,4,2,15,09,11,039,13,12,20,251,26,13,35,184,34,15,11,210,26*74
$GPGSV,4,3,15,17,08,150,18,19,29,152,35,20,39,281,,25,09,284,18*70
$GPRMC,092458.00,A,2458.06960,N,12111.34335,E,0.400,,090621,,,D*7D
$GPVTG,,T,,M,0.400,N,0.741,K,D*20
$GPGGA,092458.00,2458.06960,N,12111.34335,E,2,12,0.89,167.4,M,16.4,M,,0000*5A
$GPGSA,A,3,02,06,05,19,12,13,09,17,25,15,30,50,1.54,0.89,1.26*04
$GPGSV,4,1,15,02,59,014,33,05,45,281,25,06,44,074,22,07,06,079,06*77
$GPGSV,4,2,15,09,11,039,13,12,20,251,26,13,35,184,34,15,11,210,26*74
$GPGSV,4,3,15,17,08,150,18,19,29,152,35,20,39,281,,25,09,284,18*70
$GPRMC,092459.00,A,2458.06952,N,12111.34333,E,0.187,,090621,,,D*71
$GPVTG,,T,,M,0.187,N,0.347,K,D*28
$GPRMC,092501.00,A,2458.06934,N,12111.34324,E,0.424,,090621,,,D*77
$GPVTG,,T,,M,0.424,N,0.784,K,D*2F
$GPGGA,092501.00,2458.06934,N,12111.34324,E,2,12,0.71,168.3,M,16.4,M,,0000*59
$GPGSA,A,3,02,06,05,19,12,13,09,17,25,15,30,50,1.30,0.71,1.08*0D
$GPGSV,4,1,15,02,59,014,33,05,45,281,26,06,44,074,26,07,06,079,06*70
$GPRMC,092503.00,A,2458.06919,N,12111.34312,E,0.344,,090621,,,D*7E
$GPVTG,,T,,M,0.344,N,0.637,K,D*27
$GPGGA,092503.00,2458.06919,N,12111.34312,E,2,12,0.71,168.8,M,16.4,M,,0000*5A
$GPGSA,A,3,02,06,05,19,12,13,07,09,17,25,15,30,1.30,0.71,1.08*0F
$GPGSV,4,1,15,02,59,014,33,05,45,281,27,06,44,074,26,07,06,079,14*72
$GPGSV,4,2,15,09,11,039,11,12,20,251,25,13,35,184,35,15,11,210,27*75
$GPGSV,4,3,15,17,08,150,19,19,29,152,35,20,39,281,,25,09,284,16*7F
$GPGSV,4,4,15,29,06,323,,30,11,116,23,50,60,166,34*43
$GPGLL,2458.06919,N,12111.34312,E,092503.00,A,D*68
$GPRMC,092504.00,A,2458.06904,N,12111.34320,E,0.634,,090621,,,D*76
$GPVTG,,T,,M,0.634,N,1.174,K,D*24
$GPGGA,092504.00,2458.06904,N,12111.34320,E,2,12,0.71,169.0,M,16.4,M,,0000*59
$GPGSA,A,3,02,06,05,19,12,13,07,09,17,25,15,30,1.30,0.71,1.08*0F
$GPGSV,4,1,15,02,59,014,33,05,45,281,27,06,44,074,27,07,06,079,14*73
$GPGSV,4,2,15,09,11,039,11,12,20,251,25,13,35,184,34,15,11,210,27*74
$GPGSV,4,3,15,17,08,150,19,19,29,152,35,20,39,281,,25,09,284,15*7C
$GPRMC,092505.00,A,2458.06889,N,12111.34318,E,0.310,,090621,,,D*7B
$GPVTG,,T,,M,0.310,N,0.574,K,D*22
$GPGGA,092505.00,2458.06889,N,12111.34318,E,2,12,0.71,169.5,M,16.4,M,,0000*52
$GPRMC,092507.00,A,2458.06880,N,12111.34299,E,0.218,,090621,,,D*71
$GPVTG,,T,,M,0.218,N,0.403,K,D*2A
$GPGGA,092507.00,2458.06880,N,12111.34299,E,2,12,0.71,169.8,M,16.4,M,,0000*5C
$GPGSA,A,3,02,06,05,19,20,12,13,07,09,17,25,15,1.30,0.71,1.08*0E
$GPGSV,4,1,15,02,59,014,32,05,45,281,27,06,44,074,27,07,06,079,14*72
$GPGSV,4,2,15,09,11,039,11,12,20,251,25,13,35,184,34,15,11,210,26*75
$GPGGA,092512.00,2458.06887,N,12111.34302,E,2,12,0.77,168.5,M,16.4,M,,0000*56
$GPGSA,A,3,02,06,05,19,12,13,07,09,17,25
$GPGSV,4,1,15,02,59,014,33,05,45,281,29,06,44,074,27,07,06,079,12*7B
$GPGSV,4,2,15,09,11,039,14,12,20,251,25,13,35,184,35,15,11,210,27*70
$GPGSV,4,3,15,17,08,150,19,19,29,152,34,20,39,281,,25,09,284,10*78
$GPGSV,4,4,15,29,06,323,,30,11,116,15,50,60,166,34*46
$GPGLL,2458.06887,N,12111.34302,E,092512.00,A,D*6F
$GPRMC,092513.00,A,2458.06886,N,12111.34300,E,0.153,,090621,,,D*7F
$GPVTG,,T,,M,0.153,N,0.284,K,D*2F
$GPGGA,092513.00,2458.06886,N,12111.34300,E,2,12,0.90,168.5,M,16.4,M,,0000*5D
$GPGSA,A,3,02,06,05,19,12,13,07,09,17,15,30,50,1.54,0.90,1.26*0C
$GPGSV,4,1,15,02,59,014,34,05,45,281,29,06,44,074,27,07,06,079,11*7F
$GPGSV,4,2,15,09,11,039,14,12,20,251,24,13,35,184,35,15,11,210,27*71
$GPGSV,4,3,15,17,08,150,19,19,29,152,34,20,39,281,,25,09,284,09*70
$GPGSV,4,4,15,29,06,323,,30,11,116,14,50,60,166,34*47
$GPGLL,2458.06886,N,12111.34300,E,092513.00,A,D*6D
$GPRMC,092514.00,A,2458.06885,N,12111.34298,E,0.159,,090621,,,D*71
$GPVTG,,T,,M,0.159,N,0.294,K,D*24
$GPGGA,092514.00,2458.06885,N,12111.34298,E,2,12,0.90,168.6,M,16.4,M,,0000*5A
$GPGSA,A,3,02,06,05,19,12,13,07,09,17,15,30,50,1.54,0.90,1.26*0C
$GPGSV,4,1,15,02,59,014,34,05,45,281,29,06,44,074,27,07,06,079,10*7E
$GPGSV,4,2,15,09,11,039,15,12,20,251,24,13,35,184,34,15,11,210,26*70
$GPGSV,4,3,15,17,08,150,19,19,29,152,34,20,39,281,,25,09,284,*79
$GPGSV,4,4,15,29,06,323,,30,11,116,12,50,60,166,34*41
$GPGLL,2458.06885,N,12111.34298,E,092514.00,A,D*69
$GPRMC,092515.00,A,2458.06887,N,12111.34297,E,0.115,,090621,,,D*75
$GPVTG,,T,,M,0.115,N,0.213,K,D*23
$GPGGA,092515.00,2458.06887,N,12111.34297,E,2,12,0.90,168.6,M,16.4,M,,0000*56
$GPRMC,092517.00,A,2458.06892,N,12111.34302,E,0.186,,090621,,,D*74
$GPVTG,,T,,M,0.186,N,0.344,K,D*2A
$GPGGA,092517.00,2458.06892,N,12111.34302,E,2,12,0.90,168.1,M,16.4,M,,0000*5A
$GPGSA,A,3,02,06,05,19,20,12,13,07,09,17,15,30,1.54,0.90,1.26*0B
$GPGSV,4,1,15,02,59,014,34,05,45,281,30,06,44,074,26,07,06,079,11*76
$GPGSV,4,2,15,09,11,039,15,12,20,251,23,13,35,184,34,15,11,210,26*77
$GPRMC,092518.00,A,2458.06889,N,12111.34322,E,0.559,,090621,,,D*75
$GPVTG,,T,,M,0.559,N,1.035,K,D*28
$GPGGA,092518.00,2458.06889,N,12111.34322,E,2,12,0.90,168.0,M,16.4,M,,0000*5C
$GPRMC,092519.00,A,2458.06890,N,12111.34321,E,0.063,,090621,,,D*73
$GPVTG,,T,,M,0.063,N,0.116,K,D*25
$GPGGA,092519.00,2458.06890,N,12111.34321,E,2,12,0.90,168.0,M,16.4,M,,0000*56
$GPGSA,A,3,02,06,05,19,20,12,13,07,09,17,15,30,1.54,0.90,1.26*0B
$GPGSV,4,1,15,02,60,015,34,05,45,281,31,06,44,074,26,07,06,079,11*7C
$GPGSV,4,2,15,09,11,039,15,12,20,251,23,13,35,184,35,15,11,210,26*76
$GPGSV,4,3,15,17,08,150,19,19,29,152,34,20,39,281,15,25,09,284,*7D
$GPRMC,092520.00,A,2458.06892,N,12111.34318,E,0.047,,090621,,,D*77
$GPVTG,,T,,M,0.047,N,0.087,K,D*2A
$GPRMC,092521.00,A,2458.06892,N,12111.34322,E,0.177,,090621,,,D*7D
$GPVTG,,T,,M,0.177,N,0.328,K,D*2E
$GPGGA,092521.00,2458.06892,N,12111.34322,E,2,12,0.90,167.6,M,16.4,M,,0000*55
$GPGSA,A,3,02,06,05,19,20,12,13,07,09,17,25,15,1.54,0.90,1.26*0F
$GPRMC,092523.00,A,2458.06904,N,12111.34341,E,0.209,,090621,,,D*7E
$GPVTG,,T,,M,0.209,N,0.387,K,D*21
$GPGGA,092523.00,2458.06904,N,12111.34341,E,2,12,1.05,167.1,M,16.4,M,,0000*56
$GPGSA,A,3,02,06,05,19,20,12,13,07,09,17,25,15,1.88,1.05,1.56*04
$GPGSV,4,1,15,02,60,015,35,05,45,281,31,06,43,074,22,07,06,079,08*76
$GPGSV,4,2,15,09,11,039,11,12,20,251,21,13,35,184,34,15,11,210,26*71
$GPGSV,4,3,15,17,08,150,20,19,29,152,33,20,39,281,19,25,09,284,15*78
$GPGSV,4,4,15,29,06,323,,30,11,116,20,50,60,166,34*40
$GPGLL,2458.06904,N,12111.34341,E,092523.00,A,D*60
$GPRMC,092524.00,A,2458.06900,N,12111.34347,E,0.251,,090621,,,D*76
$GPVTG,,T,,M,0.251,N,0.464,K,D*26
$GPRMC,092525.00,A,2458.06898,N,12111.34358,E,0.084,,090621,,,D*73
$GPVTG,,T,,M,0.084,N,0.155,K,D*2B
$GPGGA,092525.00,2458.06898,N,12111.34358,E,2,12,1.05,167.0,M,16.4,M,,0000*5D
$GPGSA,A,3,02,06,05,19,20,12,13,07,09,17,25,15,1.88,1.05,1.56*04
$GPRMC,092527.00,A,2458.06895,N,12111.34366,E,0.115,,090621,,,D*78
$GPVTG,,T,,M,0.115,N,0.213,K,D*23
$GPGGA,092527.00,2458.06895,N,12111.34366,E,2,12,1.00,167.1,M,16.4,M,,0000*5B
$GPGSA,A,3,02,06,05,19,20,12,13,07,09,17,25,15,1.84,1.00,1.55*0E
$GPGSV,4,1,15,02,60,015,35,05,45,281,32,06,43,074,20,07,06,079,08*77
$GPGSV,4,2,15,09,11,039,12,12,20,251,22,13,35,184,33,15,11,210,26*76
$GPGSV,4,3,15,17,08,150,19,19,29,152,34,20,39,281,19,25,09,284,15*75
$GPGSV,4,4,15,29,06,323,,30,11,116,23,50,60,166,34*43
$GPGLL,2458.06895,N,12111.34366,E,092527.00,A,D*68
$GPRMC,092528.00,A,2458.06893,N,12111.34367,E,0.068,,090621,,,D*7B
$GPRMC,092529.00,A,2458.06896,N,12111.34368,E,0.196,,090621,,,D*70
$GPVTG,,T,,M,0.196,N,0.363,K,D*2E
$GPGGA,092529.00,2458.06896,N,12111.34368,E,2,12,0.87,167.0,M,16.4,M,,0000*57
$GPGSA,A,3,02,06,05,19,20,12,13,07,09,17,25,15,1.53,0.87,1.25*0D
$GPGSV,4,1,15,02,60,015,34,05,45,281,32,06,43,074,19,07,06,079,07*73
$GPGSV,4,2,15,09,11,039,11,12,19,250,21,13,35,184,32,15,11,210,26*7C
$GPGSV,4,3,15,17,08,150,20,19,29,152,32,20,39,281,17,25,09,284,14*76
$GPGSV,4,4,15,29,06,323,,30,11,116,22,50,60,166,33*45
$GPRMC,092530.00,A,2458.06892,N,12111.34367,E,0.109,,090621,,,D*75
$GPRMC,092531.00,A,2458.06889,N,12111.34369,E,0.072,,090621,,,D*7D
$GPVTG,,T,,M,0.072,N,0.134,K,D*25
$GPGGA,092531.00,2458.06889,N,12111.34369,E,2,12,0.87,167.0,M,16.4,M,,0000*51
$GPGSA,A,3,02,06,05,19,20,12,13,07,09,17,25,15,1.53,0.87,1.25*0D
$GPGSV,4,1,15,02,60,015,33,05,45,281,31,06,43,074,19,07,06,079,07*77
$GPGSV,4,2,15,09,11,039,11,12,19,250,21,13,35,184,32,15,11,210,25*7F
$GPGSV,4,3,15,17,08,150,20,19,29,152,30,20,39,281,18,25,09,284,14*7B
$GPRMC,092532.00,A,2458.06888,N,12111.34365,E,0.261,,090621,,,D*73
$GPRMC,092533.00,A,2458.06882,N,12111.34371,E,0.224,,090621,,,D*7C
$GPVTG,,T,,M,0.224,N,0.415,K,D*22
$GPGGA,092533.00,2458.06882,N,12111.34371,E,2,12,0.87,167.1,M,16.4,M,,0000*50
$GPGSA,A,3,02,06,05,19,20,12,13,07,17,25,15,30,1.53,0.87,1.25*07
$GPGSV,4,1,15,02,60,015,33,05,45,281,32,06,43,074,18,07,06,079,15*76
$GPGSV,4,2,15,09,11,039,06,12,19,250,19,13,35,184,32,15,11,210,26*71
$GPGSV,4,3,15,17,07,150,21,19,29,152,31,20,39,281,19,25,09,284,15*74
$GPGSV,4,4,15,29,06,323,,30,11,116,23,50,60,166,33*44
$GPRMC,092534.00,A,2458.06875,N,12111.34377,E,0.388,,090621,,,D*72
$GPVTG,,T,,M,0.388,N,0.718,K,D*2B
$GPRMC,092535.00,A,2458.06848,N,12111.34355,E,1.153,,090621,,,D*78
$GPVTG,,T,,M,1.153,N,2.136,K,D*26
$GPGGA,092535.00,2458.06848,N,12111.34355,E,2,12,0.75,168.5,M,16.4,M,,0000*50
$GPRMC,092536.00,A,2458.06842,N,12111.34364,E,0.439,,090621,,,D*7B
$GPVTG,,T,,M,0.439,N,0.812,K,D*23
$GPGGA,092536.00,2458.06842,N,12111.34364,E,2,12,0.75,169.2,M,16.4,M,,0000*5D
$GPGSA,A,3,02,06,05,19,20,12,13,07,17,25,15,30,1.31,0.75,1.07*0E
$GPRMC,092537.00,A,2458.06843,N,12111.34369,E,0.380,,090621,,,D*73
$GPVTG,,T,,M,0.380,N,0.704,K,D*2E
$GPGGA,092537.00,2458.06843,N,12111.34369,E,2,12,0.75,169.0,M,16.4,M,,0000*52
$GPGSA,A,3,02,06,05,19,20,12,13,07,17,25,15,30,1.31,0.75,1.07*0E
$GPRMC,092538.00,A,2458.06842,N,12111.34381,E,0.493,,090621,,,D*7E
$GPVTG,,T,,M,0.493,N,0.913,K,D*23
$GPGGA,092538.00,2458.06842,N,12111.34381,E,2,12,0.75,168.9,M,16.4,M,,0000*52
$GPGSA,A,3,02,06,05,19,20,12,13,07,17,25,15,30,1.31,0.75,1.07*0E
$GPGSV,4,1,15,02,60,015,32,05,45,281,30,06,43,074,13,07,06,079,18*73
$GPRMC,092539.00,A,2458.06834,N,12111.34386,E,0.335,,090621,,,D*72
$GPVTG,,T,,M,0.335,N,0.620,K,D*27
$GPGGA,092539.00,2458.06834,N,12111.34386,E,2,12,0.75,169.3,M,16.4,M,,0000*5E
$GPGSA,A,3,02,06,05,19,20,12,13,07,17,25,15,30,1.31,0.75,1.07*0E
$GPGSV,4,1,15,02,60,015,31,05,45,281,29,06,43,074,11,07,06,079,20*71
$GPRMC,092541.00,A,2458.06839,N,12111.34385,E,0.105,,090621,,,D*72
$GPVTG,,T,,M,0.105,N,0.195,K,D*2F
$GPGGA,092541.00,2458.06839,N,12111.34385,E,2,12,0.75,169.3,M,16.4,M,,0000*5F
$GPGSA,A,3,02,06,05,19,20,12,13,07,09,17,25,15,1.31,0.75,1.07*04
$GPGSV,4,1,15,02,60,015,34,05,45,281,31,06,43,074,10,07,06,079,21*7D
$GPGSV,4,2,15,09,11,039,07,12,19,250,18,13,35,184,34,15,11,210,25*74
$GPGSV,4,3,15,17,07,150,19,19,29,152,31,20,39,282,17,25,09,284,15*72
$GPRMC,092542.00,A,2458.06839,N,12111.34384,E,0.263,,090621,,,D*73
$GPVTG,,T,,M,0.263,N,0.487,K,D*2A
$GPRMC,092543.00,A,2458.06843,N,12111.34384,E,0.237,,090621,,,D*7E
$GPVTG,,T,,M,0.237,N,0.438,K,D*2F
$GPGGA,092543.00,2458.06843,N,12111.34384,E,2,12,0.66,169.3,M,16.4,M,,0000*53
$GPGSA,A,3,02,06,05,19,20,12,13,07,09,17,25,15,1.20,0.66,1.01*00
