$GPRMC,093750.00,A,2458.10648,N,12111.35152,E,1.233,,280521,,,A75
$GPVTG,,T,,M,1.233,N,2.283,K,A2B
$GPGGA,093750.00,2458.10648,N,12111.35152,E,1,09,0.88,136.0,M,16.4,M,,58
$GPGSA,A,3,02,06,19,05,12,17,09,20,13,,,,2.34,0.88,2.1706
$GPGSV,3,1,12,02,52,350,31,05,38,260,28,06,47,050,26,07,02,093,72
$GPGSV,3,2,12,09,23,046,25,12,26,268,28,13,19,187,24,17,23,145,3071
$GPGSV,3,3,12,19,45,143,32,20,21,257,25,25,09,300,21,30,05,129,1978
$GPGLL,2458.10648,N,12111.35152,E,093750.00,A,A63
$GPRMC,093751.00,A,2458.10696,N,12111.35177,E,0.711,,280521,,,A74
$GPVTG,,T,,M,0.711,N,1.318,K,A2F
$GPGGA,093751.00,2458.10696,N,12111.35177,E,1,09,0.88,134.9,M,16.4,M,,56
$GPGSA,A,3,02,06,19,05,12,17,09,20,13,,,,2.34,0.88,2.1706
$GPGSV,3,1,12,02,52,350,37,05,38,260,26,06,47,050,26,07,02,093,7A
$GPGSV,3,2,12,09,23,046,23,12,26,268,27,13,19,187,22,17,23,145,317F
$GPGSV,3,3,12,19,45,143,27,20,21,257,26,25,09,300,20,30,05,129,76
$GPGLL,2458.10696,N,12111.35177,E,093751.00,A,A66
$GPRMC,093752.00,A,2458.10741,N,12111.35188,E,1.145,,280521,,,A7A
$GPVTG,,T,,M,1.145,N,2.120,K,A23
$GPGGA,093752.00,2458.10741,N,12111.35188,E,1,09,0.88,135.2,M,16.4,M,,54
$GPGSA,A,3,02,06,19,05,12,17,09,20,13,,,,2.34,0.88,2.1706
$GPGSV,3,1,12,02,52,350,28,05,38,260,33,06,47,050,26,07,02,093,70
$GPGSV,3,2,12,09,23,046,23,12,26,268,37,13,19,187,28,17,23,145,3570
$GPGSV,3,3,12,19,45,143,35,20,21,257,31,25,09,300,17,30,05,129,77
$GPGLL,2458.10741,N,12111.35188,E,093752.00,A,A6E
$GPRMC,093753.00,A,2458.10820,N,12111.35228,E,1.573,31.29,280521,,,A5C
$GPVTG,31.29,T,,M,1.573,N,2.913,K,A0D
$GPGGA,093753.00,2458.10820,N,12111.35228,E,1,08,0.94,134.0,M,16.4,M,,5B
$GPGSA,A,3,02,06,19,05,12,17,09,20,,,,,2.43,0.94,2.2409
$GPGSV,3,1,12,02,52,350,40,05,38,260,38,06,47,050,35,07,02,093,77
$GPGSV,3,2,12,09,23,046,24,12,26,268,35,13,19,187,,17,23,145,407D
$GPGSV,3,3,12,19,45,143,31,20,21,257,31,25,09,300,11,30,05,129,2275
$GPGLL,2458.10820,N,12111.35228,E,093753.00,A,A6E
$GPRMC,093754.00,A,2458.10884,N,12111.35288,E,1.632,21.82,280521,,,A59
$GPVTG,21.82,T,,M,1.632,N,3.023,K,A00
$GPGGA,093754.00,2458.10884,N,12111.35288,E,1,08,0.94,132.8,M,16.4,M,,56
$GPGSA,A,3,02,06,19,05,12,17,09,20,,,,,2.43,0.94,2.2409
$GPGSV,3,1,12,02,52,350,38,05,38,260,37,06,47,050,37,07,02,093,75
$GPGSV,3,2,12,09,23,046,35,12,26,268,26,13,19,187,,17,23,145,407F
$GPGSV,3,3,12,19,45,143,35,20,21,257,31,25,09,300,08,30,05,129,2378
$GPGLL,2458.10884,N,12111.35288,E,093754.00,A,A6D
$GPRMC,093755.00,A,2458.10875,N,12111.35341,E,0.883,,280521,,,A70
$GPVTG,,T,,M,0.883,N,1.636,K,A22
$GPGGA,093755.00,2458.10875,N,12111.35341,E,1,08,0.94,133.1,M,16.4,M,,55
$GPGSA,A,3,02,06,19,05,12,17,09,20,,,,,2.43,0.94,2.2409
$GPGSV,3,1,12,02,52,350,39,05,38,260,34,06,47,050,30,07,02,093,70
$GPGSV,3,2,12,09,23,046,31,12,26,268,31,13,19,187,,17,23,145,3278
$GPGSV,3,3,12,19,45,143,35,20,21,257,31,25,09,300,08,30,05,129,2279
$GPGLL,2458.10875,N,12111.35341,E,093755.00,A,A66
$GPRMC,093756.00,A,2458.10842,N,12111.35406,E,0.895,,280521,,,A74
$GPVTG,,T,,M,0.895,N,1.657,K,A22
$GPGGA,093756.00,2458.10842,N,12111.35406,E,1,09,0.90,133.5,M,16.4,M,,57
$GPGSA,A,3,02,06,19,05,12,17,09,20,13,,,,2.44,0.90,2.270B
$GPGSV,3,1,12,02,52,350,35,05,38,260,37,06,47,050,34,07,02,093,7B
$GPGSV,3,2,12,09,23,046,37,12,26,268,32,13,19,187,30,17,23,145,3874
$GPGSV,3,3,12,19,45,143,37,20,21,257,31,25,09,300,,30,05,129,2273
$GPGLL,2458.10842,N,12111.35406,E,093756.00,A,A65
$GPRMC,093757.00,A,2458.10864,N,12111.35455,E,1.034,,280521,,,A75
$GPVTG,,T,,M,1.034,N,1.914,K,A28
$GPGGA,093757.00,2458.10864,N,12111.35455,E,1,09,0.88,132.7,M,16.4,M,,5E
$GPGSA,A,3,02,06,19,05,12,17,09,20,13,,,,2.34,0.88,2.1706
$GPGSV,3,1,12,02,52,350,35,05,38,260,34,06,47,050,37,07,02,093,7B
$GPGSV,3,2,12,09,23,046,33,12,26,268,30,13,19,187,31,17,23,145,3279
$GPGSV,3,3,12,19,45,143,31,20,21,257,30,25,09,300,,30,05,129,2177
$GPGLL,2458.10864,N,12111.35455,E,093757.00,A,A66
$GPRMC,093758.00,A,2458.10848,N,12111.35487,E,0.709,,280521,,,A73
$GPVTG,,T,,M,0.709,N,1.312,K,A2C
$GPGGA,093758.00,2458.10848,N,12111.35487,E,1,09,0.88,133.2,M,16.4,M,,54
$GPGSA,A,3,02,06,19,05,12,17,09,20,13,,,,2.34,0.88,2.1706
$GPGSV,3,1,12,02,52,350,24,05,38,260,23,06,47,050,37,07,02,093,7D
$GPGSV,3,2,12,09,23,046,28,12,26,268,24,13,19,187,30,17,23,145,3570
$GPGSV,3,3,12,19,45,143,33,20,21,257,28,25,09,300,,30,05,129,1977
$GPGLL,2458.10848,N,12111.35487,E,093758.00,A,A68
$GPRMC,093759.00,A,2458.10859,N,12111.35551,E,1.416,52.03,280521,,,A5E
$GPVTG,52.03,T,,M,1.416,N,2.623,K,A0E
$GPGGA,093759.00,2458.10859,N,12111.35551,E,1,08,1.01,132.5,M,16.4,M,,58
$GPGSA,A,3,02,06,05,12,17,09,20,13,,,,,2.85,1.01,2.6602
$GPGSV,3,1,12,02,52,350,30,05,38,260,30,06,47,050,30,07,02,093,7D
$GPGSV,3,2,12,09,23,046,33,12,26,268,25,13,19,187,31,17,23,145,2876
$GPGSV,3,3,12,19,45,143,29,20,21,257,27,25,09,300,,30,05,129,2178
$GPGLL,2458.10859,N,12111.35551,E,093759.00,A,A63
$GPRMC,093800.00,A,2458.10858,N,12111.35623,E,1.556,75.08,280521,,,A51
$GPVTG,75.08,T,,M,1.556,N,2.881,K,A03
$GPGGA,093800.00,2458.10858,N,12111.35623,E,1,09,0.88,132.6,M,16.4,M,,5E
$GPGSA,A,3,02,06,19,05,12,17,09,20,13,,,,2.34,0.88,2.1706
$GPGSV,3,1,12,02,52,350,31,05,38,260,25,06,47,050,35,07,02,093,7D
$GPGSV,3,2,12,09,23,046,32,12,26,268,25,13,19,187,24,17,23,145,2873
$GPGSV,3,3,12,19,45,143,30,20,21,257,25,25,09,300,,30,05,129,2172
$GPGLL,2458.10858,N,12111.35623,E,093800.00,A,A67
$GPRMC,093801.00,A,2458.10857,N,12111.35690,E,1.711,86.84,280521,,,A5E
$GPVTG,86.84,T,,M,1.711,N,3.169,K,A04
$GPGGA,093801.00,2458.10857,N,12111.35690,E,1,09,0.88,132.4,M,16.4,M,,5A
$GPGSA,A,3,02,06,19,05,12,17,09,20,13,,,,2.34,0.88,2.1706
$GPGSV,3,1,12,02,52,350,27,05,38,260,23,06,47,050,32,07,02,093,7B
$GPGSV,3,2,12,09,23,046,29,12,26,268,23,13,19,187,25,17,23,145,2771
$GPGSV,3,3,12,19,45,143,24,20,21,257,24,25,09,300,,30,05,129,197D
$GPGLL,2458.10857,N,12111.35690,E,093801.00,A,A61
$GPRMC,093802.00,A,2458.10840,N,12111.35759,E,1.662,95.34,280521,,,A53
$GPVTG,95.34,T,,M,1.662,N,3.078,K,A09
$GPGGA,093802.00,2458.10840,N,12111.35759,E,1,09,0.88,132.0,M,16.4,M,,5F
$GPGSA,A,3,02,06,19,05,12,17,09,20,13,,,,2.34,0.88,2.1706
$GPGSV,3,1,12,02,52,350,40,05,38,260,30,06,47,050,33,07,02,093,79
$GPGSV,3,2,12,09,23,046,30,12,26,268,31,13,19,187,35,17,23,145,3578
$GPGSV,3,3,12,19,45,143,35,20,21,257,31,25,09,300,27,30,05,129,2177
$GPGLL,2458.10840,N,12111.35759,E,093802.00,A,A60
$GPRMC,093803.00,A,2458.10827,N,12111.35808,E,1.269,,280521,,,A72
$GPVTG,,T,,M,1.269,N,2.351,K,A2A
$GPGGA,093803.00,2458.10827,N,12111.35808,E,1,09,0.88,131.6,M,16.4,M,,51
$GPGSA,A,3,02,06,19,05,12,17,09,20,13,,,,2.34,0.88,2.1706
$GPGSV,3,1,12,02,52,350,32,05,38,260,29,06,47,050,27,07,02,093,71
$GPGSV,3,2,12,09,23,046,28,12,26,268,22,13,19,187,32,17,23,145,3574
$GPGSV,3,3,12,19,45,143,35,20,21,257,25,25,09,300,24,30,05,129,2070
$GPGLL,2458.10827,N,12111.35808,E,093803.00,A,A6B
$GPRMC,093804.00,A,2458.10813,N,12111.35860,E,1.425,100.29,280521,,,A66
$GPVTG,100.29,T,,M,1.425,N,2.639,K,A3B
$GPGGA,093804.00,2458.10813,N,12111.35860,E,1,09,0.87,131.9,M,16.4,M,,5F
$GPGSA,A,3,02,06,19,05,12,17,09,20,13,,,,2.34,0.87,2.1709
$GPGSV,3,1,12,02,52,350,36,05,38,260,28,06,47,050,38,07,02,093,7A
$GPGSV,3,2,12,09,23,046,36,12,26,268,24,13,19,187,33,17,23,145,3178
$GPGSV,3,3,12,19,45,143,34,20,21,257,27,25,09,300,21,30,05,129,2076
$GPGLL,2458.10813,N,12111.35860,E,093804.00,A,A65
$GPRMC,093805.00,A,2458.10794,N,12111.35919,E,1.624,105.84,280521,,,A69
$GPVTG,105.84,T,,M,1.624,N,3.007,K,A30
$GPGGA,093805.00,2458.10794,N,12111.35919,E,1,09,0.87,131.9,M,16.4,M,,51
$GPGSA,A,3,02,06,19,05,12,17,09,20,13,,,,2.34,0.87,2.1709
$GPGSV,3,1,12,02,52,350,34,05,38,260,26,06,47,050,34,07,02,093,7A
$GPGSV,3,2,12,09,23,046,31,12,26,268,26,13,19,187,31,17,23,145,307E
$GPGSV,3,3,12,19,45,143,33,20,21,257,25,25,09,300,19,30,05,129,1972
$GPGLL,2458.10794,N,12111.35919,E,093805.00,A,A6B
$GPRMC,093806.00,A,2458.10775,N,12111.35960,E,1.353,,280521,,,A78
$GPVTG,,T,,M,1.353,N,2.506,K,A26
$GPGGA,093806.00,2458.10775,N,12111.35960,E,1,09,0.87,132.0,M,16.4,M,,59
$GPGSA,A,3,02,06,19,05,12,17,09,20,13,,,,2.34,0.87,2.1709
$GPGSV,3,1,12,02,52,350,29,05,38,260,26,06,47,050,33,07,02,093,71
$GPGSV,3,2,12,09,23,046,31,12,26,268,25,13,19,187,22,17,23,145,247A
$GPGSV,3,3,12,19,45,143,29,20,21,257,25,25,09,300,19,30,05,129,1979
$GPGLL,2458.10775,N,12111.35960,E,093806.00,A,A69
$GPRMC,093807.00,A,2458.10746,N,12111.36035,E,1.691,126.19,280521,,,A6B
$GPVTG,126.19,T,,M,1.691,N,3.132,K,A3C
$GPGGA,093807.00,2458.10746,N,12111.36035,E,1,09,0.87,131.6,M,16.4,M,,57
$GPGSA,A,3,02,06,19,05,12,17,09,20,13,,,,2.34,0.87,2.1709
$GPGSV,3,1,12,02,52,350,30,05,38,260,35,06,47,050,39,07,02,093,71
$GPGSV,3,2,12,09,23,046,35,12,26,268,35,13,19,187,21,17,23,145,237B
$GPGSV,3,3,12,19,45,143,29,20,21,257,34,25,09,300,18,30,05,129,70
$GPGLL,2458.10746,N,12111.36035,E,093807.00,A,A62
$GPRMC,093808.00,A,2458.10716,N,12111.36089,E,1.576,154.66,280521,,,A61
$GPVTG,154.66,T,,M,1.576,N,2.919,K,A3B
$GPGGA,093808.00,2458.10716,N,12111.36089,E,1,09,0.87,131.9,M,16.4,M,,55
$GPGSA,A,3,02,06,19,05,12,17,09,20,13,,,,2.34,0.87,2.1709
$GPGSV,3,1,12,02,52,350,34,05,38,260,35,06,47,050,40,07,02,093,7B
$GPGSV,3,2,12,09,23,046,38,12,26,268,39,13,19,187,19,17,23,145,297B
$GPGSV,3,3,12,19,45,143,36,20,21,257,40,25,09,300,17,30,05,129,72
$GPGLL,2458.10716,N,12111.36089,E,093808.00,A,A6F
$GPRMC,093809.00,A,2458.10690,N,12111.36136,E,1.789,165.77,280521,,,A6A
$GPVTG,165.77,T,,M,1.789,N,3.313,K,A3A
$GPGGA,093809.00,2458.10690,N,12111.36136,E,1,08,0.94,130.9,M,16.4,M,,5C
$GPGSA,A,3,02,06,19,05,12,17,09,20,,,,,2.43,0.94,2.2409
$GPGSV,3,1,12,02,52,350,33,05,38,260,40,06,47,050,42,07,02,093,7C
$GPGSV,3,2,12,09,23,046,39,12,26,268,39,13,19,187,,17,23,145,2972
$GPGSV,3,3,12,19,45,143,33,20,21,257,37,25,09,300,19,30,05,129,79
$GPGLL,2458.10690,N,12111.36136,E,093809.00,A,A64
$GPRMC,093810.00,A,2458.10641,N,12111.36192,E,2.163,155.31,280521,,,A60
$GPVTG,155.31,T,,M,2.163,N,4.007,K,A3B
$GPGGA,093810.00,2458.10641,N,12111.36192,E,1,08,0.94,130.7,M,16.4,M,,58
$GPGSA,A,3,02,06,19,05,12,17,09,20,,,,,2.43,0.94,2.2409
$GPGSV,3,1,12,02,52,350,39,05,38,260,35,06,47,050,38,07,02,093,79
$GPGSV,3,2,12,09,23,046,32,12,26,268,33,13,19,187,,17,23,145,267C
$GPGSV,3,3,12,19,45,143,29,20,21,257,34,25,09,300,22,30,05,129,2378
$GPGLL,2458.10641,N,12111.36192,E,093810.00,A,A6E
$GPRMC,093811.00,A,2458.10624,N,12111.36232,E,1.791,150.17,280521,,,A62
$GPVTG,150.17,T,,M,1.791,N,3.316,K,A36
$GPGGA,093811.00,2458.10624,N,12111.36232,E,1,08,0.94,130.4,M,16.4,M,,50
$GPGSA,A,3,02,06,19,05,12,17,09,20,,,,,2.43,0.94,2.2409
$GPGSV,3,1,12,02,52,350,42,05,38,260,35,06,47,050,40,07,02,093,7A
$GPGSV,3,2,12,09,23,046,29,12,26,268,28,13,19,187,,17,23,145,2872
$GPGSV,3,3,12,19,45,143,35,20,21,257,28,25,09,300,21,30,05,129,2078
$GPGLL,2458.10624,N,12111.36232,E,093811.00,A,A65
$GPRMC,093812.00,A,2458.10596,N,12111.36297,E,2.013,131.46,280521,,,A69
$GPVTG,131.46,T,,M,2.013,N,3.728,K,A32
$GPGGA,093812.00,2458.10596,N,12111.36297,E,1,08,0.94,130.8,M,16.4,M,,5A
$GPGSA,A,3,02,06,19,05,12,17,09,20,,,,,2.43,0.94,2.2409
$GPGSV,4,1,13,02,52,350,44,05,38,260,37,06,47,050,39,07,02,093,76
$GPGSV,4,2,13,09,23,046,32,12,26,268,32,13,19,187,,17,23,145,2875
$GPGSV,4,3,13,19,45,143,33,20,21,257,32,25,09,300,20,30,05,129,70
$GPGSV,4,4,13,50,51,133,364E
$GPGLL,2458.10596,N,12111.36297,E,093812.00,A,A63
$GPRMC,093813.00,A,2458.10579,N,12111.36369,E,2.185,121.22,280521,,,A64
$GPVTG,121.22,T,,M,2.185,N,4.046,K,A37
$GPGGA,093813.00,2458.10579,N,12111.36369,E,1,08,0.94,130.7,M,16.4,M,,55
$GPGSA,A,3,02,06,19,05,12,17,09,20,,,,,2.43,0.94,2.2409
$GPGSV,4,1,13,02,52,350,42,05,38,260,33,06,47,050,38,07,02,093,75
$GPGSV,4,2,13,09,23,046,31,12,26,268,32,13,19,187,,17,23,145,2977
$GPGSV,4,3,13,19,45,143,32,20,21,257,27,25,09,300,20,30,05,129,75
$GPGSV,4,4,13,50,51,133,364E
$GPGLL,2458.10579,N,12111.36369,E,093813.00,A,A63
$GPRMC,093814.00,A,2458.10568,N,12111.36444,E,2.228,106.02,280521,,,A68
$GPVTG,106.02,T,,M,2.228,N,4.126,K,A33
$GPGGA,093814.00,2458.10568,N,12111.36444,E,1,09,0.87,130.5,M,16.4,M,,5B
$GPGSA,A,3,02,06,19,05,12,17,09,20,13,,,,2.34,0.87,2.1709
$GPGSV,4,1,13,02,52,350,41,05,38,260,28,06,47,050,36,07,02,093,72
$GPGSV,4,2,13,09,23,046,31,12,26,268,27,13,19,187,37,17,23,145,337C
$GPGSV,4,3,13,19,45,143,32,20,21,257,26,25,09,300,19,30,05,129,7E
$GPGSV,4,4,13,50,51,133,364E
$GPGLL,2458.10568,N,12111.36444,E,093814.00,A,A6C
$GPRMC,093815.00,A,2458.10556,N,12111.36516,E,2.219,104.04,280521,,,A64
$GPVTG,104.04,T,,M,2.219,N,4.110,K,A30
$GPGGA,093815.00,2458.10556,N,12111.36516,E,1,09,0.87,130.2,M,16.4,M,,56
$GPGSA,A,3,02,06,19,05,12,17,09,20,13,,,,2.34,0.87,2.1709
$GPGSV,4,1,13,02,52,350,42,05,38,260,33,06,47,050,38,07,02,093,75
$GPGSV,4,2,13,09,23,046,30,12,26,268,27,13,19,187,28,17,23,145,3070
$GPGSV,4,3,13,19,45,143,35,20,21,257,27,25,09,300,16,30,05,129,77
$GPGSV,4,4,13,50,51,133,374F
$GPGLL,2458.10556,N,12111.36516,E,093815.00,A,A66
$GPRMC,093816.00,A,2458.10545,N,12111.36595,E,2.283,96.98,280521,,,A52
$GPVTG,96.98,T,,M,2.283,N,4.228,K,A04
$GPGGA,093816.00,2458.10545,N,12111.36595,E,1,09,0.87,129.8,M,16.4,M,,5E
$GPGSA,A,3,02,06,19,05,12,17,09,20,13,,,,2.34,0.87,2.1709
$GPGSV,4,1,13,02,52,350,41,05,38,260,28,06,47,050,36,07,02,093,72
$GPGSV,4,2,13,09,23,046,30,12,26,268,27,13,19,187,36,17,23,145,347B
$GPGSV,4,3,13,19,45,143,33,20,21,257,26,25,09,300,14,30,05,129,72
$GPGSV,4,4,13,50,51,133,364E
$GPGLL,2458.10545,N,12111.36595,E,093816.00,A,A6C
$GPRMC,093817.00,A,2458.10524,N,12111.36674,E,2.314,94.25,280521,,,A53
$GPVTG,94.25,T,,M,2.314,N,4.285,K,A08
$GPGGA,093817.00,2458.10524,N,12111.36674,E,1,09,0.87,129.3,M,16.4,M,,5F
$GPGSA,A,3,02,06,19,05,12,17,09,20,13,,,,2.34,0.87,2.1709
$GPGSV,4,1,13,02,52,350,42,05,38,260,32,06,47,050,36,07,02,093,7A
$GPGSV,4,2,13,09,23,046,29,12,26,268,32,13,19,187,38,17,23,145,3479
$GPGSV,4,3,13,19,45,143,32,20,21,257,27,25,09,300,12,30,05,129,74
$GPGSV,4,4,13,50,51,133,344C
$GPGLL,2458.10524,N,12111.36674,E,093817.00,A,A66
$GPRMC,093818.00,A,2458.10516,N,12111.36758,E,2.524,90.49,280521,,,A59
$GPVTG,90.49,T,,M,2.524,N,4.674,K,A09
$GPGGA,093818.00,2458.10516,N,12111.36758,E,1,09,0.87,129.0,M,16.4,M,,5D
$GPGSA,A,3,02,06,19,05,12,17,09,20,13,,,,2.34,0.87,2.1709
$GPGSV,4,1,13,02,52,350,42,05,38,260,20,06,47,050,36,07,02,093,79
$GPGSV,4,2,13,09,23,046,29,12,26,268,29,13,19,187,41,17,23,145,347D
$GPGSV,4,3,13,19,45,143,28,20,21,257,27,25,09,300,14,30,05,129,79
$GPGSV,4,4,13,50,51,133,364E
$GPGLL,2458.10516,N,12111.36758,E,093818.00,A,A67
$GPRMC,093819.00,A,2458.10501,N,12111.36840,E,2.530,94.98,280521,,,A55
$GPVTG,94.98,T,,M,2.530,N,4.685,K,A0A
$GPGGA,093819.00,2458.10501,N,12111.36840,E,1,09,0.87,128.8,M,16.4,M,,55
$GPGSA,A,3,02,06,19,05,12,17,09,20,13,,,,2.34,0.87,2.1709
$GPGSV,4,1,13,02,52,350,41,05,38,260,30,06,47,050,36,07,02,093,7B
$GPGSV,4,2,13,09,23,046,30,12,26,268,29,13,19,187,40,17,23,145,3474
$GPGSV,4,3,13,19,45,143,28,20,21,257,26,25,09,300,20,30,05,129,7F
$GPGSV,4,4,13,50,51,133,324A
$GPGLL,2458.10501,N,12111.36840,E,093819.00,A,A66
$GPRMC,093820.00,A,2458.10484,N,12111.36918,E,2.523,97.53,280521,,,A59
$GPVTG,97.53,T,,M,2.523,N,4.673,K,A05
$GPGGA,093820.00,2458.10484,N,12111.36918,E,1,09,0.87,128.8,M,16.4,M,,5F
$GPGSA,A,3,02,06,19,05,12,17,09,20,13,,,,2.34,0.87,2.1709
$GPGSV,4,1,13,02,52,350,40,05,38,260,36,06,47,050,37,07,02,093,7D
$GPGSV,4,2,13,09,23,046,30,12,26,268,29,13,19,187,31,17,23,145,3472
$GPGSV,4,3,13,19,45,143,33,20,21,257,28,25,09,300,21,30,05,129,7A
$GPGSV,4,4,13,50,51,133,354D
$GPGLL,2458.10484,N,12111.36918,E,093820.00,A,A6C
$GPRMC,093821.00,A,2458.10460,N,12111.36998,E,2.573,104.66,280521,,,A62
$GPVTG,104.66,T,,M,2.573,N,4.766,K,A38
$GPGGA,093821.00,2458.10460,N,12111.36998,E,1,09,0.87,128.7,M,16.4,M,,53
$GPGSA,A,3,02,06,19,05,12,17,09,20,13,,,,2.34,0.87,2.1709
$GPGSV,4,1,13,02,52,351,39,05,38,260,35,06,47,050,36,07,02,093,70
$GPGSV,4,2,13,09,23,046,29,12,26,268,29,13,19,187,25,17,23,145,3279
$GPGSV,4,3,13,19,45,143,34,20,21,257,28,25,09,300,21,30,05,129,7D
$GPGSV,4,4,13,50,51,133,344C
$GPGLL,2458.10460,N,12111.36998,E,093821.00,A,A6F
$GPRMC,093822.00,A,2458.10432,N,12111.37075,E,2.498,108.40,280521,,,A61
$GPVTG,108.40,T,,M,2.498,N,4.626,K,A31
$GPGGA,093822.00,2458.10432,N,12111.37075,E,1,09,0.87,128.7,M,16.4,M,,5C
$GPGSA,A,3,02,06,19,05,12,17,09,20,13,,,,2.34,0.87,2.1709
$GPGSV,4,1,13,02,52,351,43,05,38,260,38,06,47,050,39,07,02,093,7F
$GPGSV,4,2,13,09,23,046,29,12,26,268,33,13,19,187,24,17,23,145,3372
$GPGSV,4,3,13,19,45,143,34,20,21,257,29,25,09,300,20,30,05,129,7D
$GPGSV,4,4,13,50,51,133,374F
$GPGLL,2458.10432,N,12111.37075,E,093822.00,A,A60
$GPRMC,093823.00,A,2458.10397,N,12111.37148,E,2.441,115.12,280521,,,A68
$GPVTG,115.12,T,,M,2.441,N,4.521,K,A3A
$GPGGA,093823.00,2458.10397,N,12111.37148,E,1,09,0.87,128.8,M,16.4,M,,55
$GPGSA,A,3,02,06,19,05,12,17,09,20,13,,,,2.34,0.87,2.1709
$GPGSV,4,1,13,02,52,351,42,05,38,260,37,06,47,050,38,07,02,093,70
$GPGSV,4,2,13,09,23,046,29,12,26,268,31,13,19,187,23,17,23,145,3571
$GPGSV,4,3,13,19,45,143,34,20,21,257,28,25,09,300,19,30,05,129,76
$GPGSV,4,4,13,50,51,133,3840
$GPGLL,2458.10397,N,12111.37148,E,093823.00,A,A66
$GPRMC,093824.00,A,2458.10363,N,12111.37218,E,2.337,118.62,280521,,,A6E
$GPVTG,118.62,T,,M,2.337,N,4.329,K,A38
$GPGGA,093824.00,2458.10363,N,12111.37218,E,1,09,0.87,128.9,M,16.4,M,,5E
$GPGSA,A,3,02,06,19,05,12,17,09,20,13,,,,2.34,0.87,2.1709
$GPGSV,4,1,13,02,52,351,42,05,39,261,38,06,47,050,39,07,02,093,7E
$GPGSV,4,2,13,09,23,046,29,12,26,268,35,13,19,187,25,17,23,145,3573
$GPGSV,4,3,13,19,45,143,34,20,21,257,29,25,09,300,20,30,05,129,7D
$GPGSV,4,4,13,50,51,133,374F
$GPGLL,2458.10363,N,12111.37218,E,093824.00,A,A6C
$GPRMC,093825.00,A,2458.10332,N,12111.37282,E,2.233,119.06,280521,,,A6E
$GPVTG,119.06,T,,M,2.233,N,4.136,K,A32
$GPGGA,093825.00,2458.10332,N,12111.37282,E,1,09,0.87,129.1,M,16.4,M,,51
$GPGSA,A,3,02,06,19,05,12,17,09,20,13,,,,2.34,0.87,2.1709
$GPGSV,4,1,13,02,52,351,42,05,39,261,37,06,47,051,38,07,02,093,71
$GPGSV,4,2,13,09,23,046,30,12,26,268,27,13,19,187,29,17,23,145,3574
$GPGSV,4,3,13,19,45,143,35,20,21,257,28,25,09,300,19,30,05,129,77
$GPGSV,4,4,13,50,51,133,374F
$GPGLL,2458.10332,N,12111.37282,E,093825.00,A,A6A
$GPRMC,093826.00,A,2458.10294,N,12111.37344,E,2.482,122.72,280521,,,A6C
$GPVTG,122.72,T,,M,2.482,N,4.596,K,A3B
$GPGGA,093826.00,2458.10294,N,12111.37344,E,1,09,0.87,128.8,M,16.4,M,,5C
$GPGSA,A,3,02,06,19,05,12,17,09,20,13,,,,2.34,0.87,2.1709
$GPGSV,4,1,13,02,52,351,40,05,39,261,26,06,47,051,34,07,02,093,7F
$GPGSV,4,2,13,09,23,046,29,12,26,268,27,13,19,187,35,17,23,145,2772
$GPGSV,4,3,13,19,45,143,31,20,21,257,27,25,09,300,20,30,05,129,76
$GPGSV,4,4,13,50,51,133,354D
$GPGLL,2458.10294,N,12111.37344,E,093826.00,A,A6F
$GPRMC,093827.00,A,2458.10272,N,12111.37399,E,2.039,122.17,280521,,,A62
$GPVTG,122.17,T,,M,2.039,N,3.777,K,A36
$GPGGA,093827.00,2458.10272,N,12111.37399,E,1,09,0.87,128.5,M,16.4,M,,58
$GPGSA,A,3,02,06,19,05,12,17,09,20,13,,,,2.34,0.87,2.1709
$GPGSV,4,1,13,02,52,351,41,05,39,261,25,06,47,051,33,07,02,093,7A
$GPGSV,4,2,13,09,23,046,29,12,26,268,27,13,19,187,36,17,23,145,297F
$GPGSV,4,3,13,19,45,143,29,20,21,257,26,25,09,300,19,30,05,129,74
$GPGSV,4,4,13,50,51,133,3048
$GPGLL,2458.10272,N,12111.37399,E,093827.00,A,A66
$GPRMC,093828.00,A,2458.10258,N,12111.37460,E,2.093,119.26,280521,,,A6E
$GPVTG,119.26,T,,M,2.093,N,3.875,K,A31
$GPGGA,093828.00,2458.10258,N,12111.37460,E,1,09,0.87,127.7,M,16.4,M,,53
$GPGSA,A,3,02,06,19,05,12,17,09,20,13,,,,2.34,0.87,2.1709
$GPGSV,4,1,13,02,52,351,40,05,39,261,25,06,47,051,33,07,02,093,7B
$GPGSV,4,2,13,09,22,046,29,12,26,268,25,13,19,187,36,17,23,145,3377
$GPGSV,4,3,13,19,45,143,29,20,21,257,27,25,09,300,18,30,05,129,74
$GPGSV,4,4,13,50,51,133,3149
$GPGLL,2458.10258,N,12111.37460,E,093828.00,A,A60
$GPRMC,093829.00,A,2458.10231,N,12111.37510,E,1.930,121.12,280521,,,A69
$GPVTG,121.12,T,,M,1.930,N,3.575,K,A33
$GPGGA,093829.00,2458.10231,N,12111.37510,E,1,09,0.87,127.3,M,16.4,M,,5F
$GPGSA,A,3,02,06,19,05,12,17,09,20,13,,,,2.34,0.87,2.1709
$GPGSV,4,1,13,02,52,351,40,05,39,261,22,06,47,051,34,07,02,093,7B
$GPGSV,4,2,13,09,22,046,28,12,26,268,27,13,19,187,36,17,23,145,3275
$GPGSV,4,3,13,19,45,143,29,20,21,257,25,25,09,300,16,30,05,129,78
$GPGSV,4,4,13,50,51,133,324A
$GPGLL,2458.10231,N,12111.37510,E,093829.00,A,A68
$GPRMC,093830.00,A,2458.10200,N,12111.37552,E,1.759,124.90,280521,,,A6B
$GPVTG,124.90,T,,M,1.759,N,3.258,K,A35
$GPGGA,093830.00,2458.10200,N,12111.37552,E,1,08,0.92,127.1,M,16.4,M,,54
$GPGSA,A,3,02,06,19,12,17,09,20,13,,,,,2.46,0.92,2.2900
$GPGSV,4,1,13,02,52,351,40,05,39,261,,06,47,051,34,07,02,093,7B
$GPGSV,4,2,13,09,22,046,29,12,26,268,26,13,19,187,36,17,23,145,2771
$GPGSV,4,3,13,19,45,143,29,20,21,257,25,25,09,300,16,30,05,129,78
$GPGSV,4,4,13,50,51,133,354D
$GPGLL,2458.10200,N,12111.37552,E,093830.00,A,A64
$GPRMC,093831.00,A,2458.10157,N,12111.37581,E,1.756,135.89,280521,,,A62
$GPVTG,135.89,T,,M,1.756,N,3.253,K,A39
$GPGGA,093831.00,2458.10157,N,12111.37581,E,1,08,0.92,126.8,M,16.4,M,,52
$GPGSA,A,3,02,06,19,12,17,09,20,13,,,,,2.46,0.92,2.2900
$GPGSV,4,1,13,02,52,351,40,05,39,261,,06,47,051,33,07,02,093,7C
$GPGSV,4,2,13,09,22,046,29,12,26,267,27,13,19,187,37,17,23,145,327A
$GPGSV,4,3,13,19,45,143,21,20,21,257,23,25,09,300,16,30,05,129,76
$GPGSV,4,4,13,50,51,133,2940
$GPGLL,2458.10157,N,12111.37581,E,093831.00,A,A6A
$GPRMC,093832.00,A,2458.10137,N,12111.37611,E,1.188,,280521,,,A70
$GPVTG,,T,,M,1.188,N,2.200,K,A23
$GPGGA,093832.00,2458.10137,N,12111.37611,E,1,09,0.92,126.8,M,16.4,M,,5C
$GPGSA,A,3,02,06,19,05,12,17,09,20,13,,,,2.46,0.92,2.2905
$GPGSV,4,1,13,02,52,351,41,05,39,261,15,06,47,051,33,07,02,093,79
$GPGSV,4,2,13,09,22,046,28,12,26,267,26,13,19,187,35,17,23,145,3278
$GPGSV,4,3,13,19,45,143,20,20,21,257,21,25,09,300,17,30,05,129,74
$GPGSV,4,4,13,50,51,133,334B
$GPGLL,2458.10137,N,12111.37611,E,093832.00,A,A65
$GPRMC,093833.00,A,2458.10108,N,12111.37661,E,1.756,131.33,280521,,,A62
$GPVTG,131.33,T,,M,1.756,N,3.252,K,A3D
$GPGGA,093833.00,2458.10108,N,12111.37661,E,1,09,0.92,126.6,M,16.4,M,,58
$GPGSA,A,3,02,06,19,05,12,17,09,20,13,,,,2.46,0.92,2.2905
$GPGSV,4,1,13,02,52,351,39,05,39,261,15,06,47,051,34,07,02,093,71
$GPGSV,4,2,13,09,22,046,28,12,26,267,26,13,19,187,37,17,23,145,3179
$GPGSV,4,3,13,19,45,143,30,20,21,257,22,25,09,300,21,30,05,129,73
$GPGSV,4,4,13,50,51,133,344C
$GPGLL,2458.10108,N,12111.37661,E,093833.00,A,A6F
$GPRMC,093834.00,A,2458.10078,N,12111.37708,E,1.758,129.90,280521,,,A63
$GPVTG,129.90,T,,M,1.758,N,3.255,K,A34
$GPGGA,093834.00,2458.10078,N,12111.37708,E,1,09,0.87,126.6,M,16.4,M,,53
$GPGSA,A,3,02,06,19,05,12,17,09,20,13,,,,2.34,0.87,2.1709
$GPGSV,4,1,13,02,52,351,42,05,39,261,31,06,47,051,36,07,02,093,79
$GPGSV,4,2,13,09,22,046,30,12,26,267,27,13,19,187,30,17,23,145,3077
$GPGSV,4,3,13,19,45,143,34,20,21,257,31,25,09,300,22,30,05,129,76
$GPGSV,4,4,13,50,51,133,374F
$GPGLL,2458.10078,N,12111.37708,E,093834.00,A,A60
$GPRMC,093835.00,A,2458.10051,N,12111.37756,E,1.721,127.57,280521,,,A69
$GPVTG,127.57,T,,M,1.721,N,3.188,K,A3C
$GPGGA,093835.00,2458.10051,N,12111.37756,E,1,09,0.87,126.6,M,16.4,M,,52
$GPGSA,A,3,02,06,19,05,12,17,09,20,13,,,,2.34,0.87,2.1709
$GPGSV,4,1,13,02,52,351,41,05,39,261,31,06,47,051,36,07,02,093,7A
$GPGSV,4,2,13,09,22,046,31,12,26,267,26,13,19,187,37,17,23,145,3070
$GPGSV,4,3,13,19,45,143,31,20,21,257,30,25,09,300,20,30,05,129,70
$GPGSV,4,4,13,50,51,133,354D
$GPGLL,2458.10051,N,12111.37756,E,093835.00,A,A61
$GPRMC,093836.00,A,2458.10026,N,12111.37808,E,1.834,124.53,280521,,,A62
$GPVTG,124.53,T,,M,1.834,N,3.396,K,A3D
$GPGGA,093836.00,2458.10026,N,12111.37808,E,1,09,0.87,126.6,M,16.4,M,,55
$GPGSA,A,3,02,06,19,05,12,17,09,20,13,,,,2.34,0.87,2.1709
$GPGSV,4,1,13,02,52,351,41,05,39,261,27,06,47,051,34,07,02,093,7F
$GPGSV,4,2,13,09,22,046,30,12,26,267,26,13,19,187,37,17,22,145,2978
$GPGSV,4,3,13,19,45,143,30,20,21,257,28,25,09,300,19,30,05,129,72
$GPGSV,4,4,13,50,51,133,324A
$GPGLL,2458.10026,N,12111.37808,E,093836.00,A,A66
$GPRMC,093837.00,A,2458.10011,N,12111.37866,E,1.911,116.20,280521,,,A6C
$GPVTG,116.20,T,,M,1.911,N,3.540,K,A*33
$GPGGA,093837.00,2458.10011,N,12111.37866,E,1,09,0.87,126.6,M,16.4,M,,58
$GPGSA,A,3,02,06,19,05,12,17,09,20,13,,,,2.34,0.87,2.1709
$GPGSV,4,1,13,02,52,351,40,05,39,261,24,06,47,051,36,07,02,093,7F
$GPGSV,4,2,13,09,22,046,29,12,26,267,26,13,19,187,39,17,22,145,297E
$GPGSV,4,3,13,19,45,143,25,20,21,257,26,25,09,300,19,30,05,129,78
$GPGSV,4,4,13,50,51,133,334B
$GPGLL,2458.10011,N,121
