$GPRMC,094344.00,A,2458.04540,N,12111.39535,E,1.558,,280521,,,A7E
$GPVTG,,T,,M,1.558,N,2.886,K,A2E
$GPGGA,094344.00,2458.04540,N,12111.39535,E,1,09,0.86,122.7,M,16.4,M,,55
$GPGSA,A,3,02,06,19,05,12,20,13,17,09,,,,2.28,0.86,2.1200
$GPGSV,3,1,12,02,53,354,31,05,40,263,22,06,47,055,26,07,03,091,77
$GPGSV,3,2,12,09,21,045,27,12,25,265,18,13,21,186,22,17,20,146,2270
$GPGSV,3,3,12,19,43,145,22,20,23,259,17,25,09,298,,30,06,127,72
$GPGLL,2458.04540,N,12111.39535,E,094344.00,A,A62
$GPRMC,094345.00,A,2458.04530,N,12111.39569,E,1.045,,280521,,,A78
$GPVTG,,T,,M,1.045,N,1.935,K,A2D
$GPGGA,094345.00,2458.04530,N,12111.39569,E,1,09,0.86,122.3,M,16.4,M,,5E
$GPGSA,A,3,02,06,19,05,12,20,13,17,09,,,,2.28,0.86,2.1103
$GPGSV,3,1,12,02,53,354,36,05,40,263,21,06,47,055,24,07,03,091,71
$GPGSV,3,2,12,09,21,045,17,12,25,265,18,13,21,186,24,17,20,146,2176
$GPGSV,3,3,12,19,43,145,23,20,23,259,17,25,09,298,,30,06,127,73
$GPGLL,2458.04530,N,12111.39569,E,094345.00,A,A6D
$GPRMC,094346.00,A,2458.04520,N,12111.39616,E,1.078,,280521,,,A7F
$GPVTG,,T,,M,1.078,N,1.997,K,A2B
$GPGGA,094346.00,2458.04520,N,12111.39616,E,1,09,0.86,122.2,M,16.4,M,,56
$GPGSA,A,3,02,06,19,05,12,20,13,17,09,,,,2.28,0.86,2.1103
$GPGSV,3,1,12,02,53,354,36,05,40,263,21,06,47,055,23,07,03,091,76
$GPGSV,3,2,12,09,21,045,19,12,25,265,16,13,21,186,22,17,20,146,2170
$GPGSV,3,3,12,19,43,145,22,20,23,259,16,25,09,298,,30,06,127,73
$GPGLL,2458.04520,N,12111.39616,E,094346.00,A,A64
$GPRMC,094347.00,A,2458.04516,N,12111.39703,E,1.657,,280521,,,A75
$GPVTG,,T,,M,1.657,N,3.068,K,A2B
$GPGGA,094347.00,2458.04516,N,12111.39703,E,1,09,0.86,122.2,M,16.4,M,,57
$GPGSA,A,3,02,06,19,05,12,20,13,17,09,,,,2.28,0.86,2.1103
$GPGSV,3,1,12,02,53,354,36,05,40,263,20,06,47,055,22,07,03,091,76
$GPGSV,3,2,12,09,21,045,20,12,25,265,19,13,21,186,20,17,20,146,2177
$GPGSV,3,3,12,19,43,145,21,20,23,259,18,25,09,298,,30,06,127,7E
$GPGLL,2458.04516,N,12111.39703,E,094347.00,A,A65
$GPRMC,094348.00,A,2458.04497,N,12111.39753,E,1.471,,280521,,,A71
$GPVTG,,T,,M,1.471,N,2.724,K,A23
$GPGGA,094348.00,2458.04497,N,12111.39753,E,1,09,0.86,122.4,M,16.4,M,,53
$GPGSA,A,3,02,06,19,05,12,20,13,17,09,,,,2.28,0.86,2.1103
$GPGSV,3,1,12,02,53,354,32,05,40,263,20,06,47,055,22,07,03,091,72
$GPGSV,3,2,12,09,21,045,21,12,25,265,19,13,21,186,21,17,20,146,2274
$GPGSV,3,3,12,19,43,145,21,20,23,259,15,25,09,298,,30,06,127,73
$GPGLL,2458.04497,N,12111.39753,E,094348.00,A,A67
$GPRMC,094349.00,A,2458.04467,N,12111.39804,E,1.445,,280521,,,A75
$GPVTG,,T,,M,1.445,N,2.677,K,A23
$GPGGA,094349.00,2458.04467,N,12111.39804,E,1,09,0.86,122.5,M,16.4,M,,51
$GPGSA,A,3,02,06,19,05,12,20,13,17,09,,,,2.28,0.86,2.1103
$GPGSV,3,1,12,02,53,354,35,05,40,263,22,06,47,055,27,07,03,091,72
$GPGSV,3,2,12,09,21,045,21,12,25,265,20,13,21,186,21,17,20,146,227E
$GPGSV,3,3,12,19,43,145,23,20,23,259,15,25,09,298,,30,06,127,71
$GPGLL,2458.04467,N,12111.39804,E,094349.00,A,A64
$GPRMC,094350.00,A,2458.04442,N,12111.39858,E,1.418,,280521,,,A7B
$GPVTG,,T,,M,1.418,N,2.626,K,A2F
$GPGGA,094350.00,2458.04442,N,12111.39858,E,1,09,0.86,122.4,M,16.4,M,,56
$GPGSA,A,3,02,06,19,05,12,20,13,17,09,,,,2.28,0.86,2.1103
$GPGSV,3,1,12,02,53,354,34,05,40,263,23,06,47,055,26,07,03,091,73
$GPGSV,3,2,12,09,21,045,24,12,25,265,19,13,21,186,21,17,20,146,2073
$GPGSV,3,3,12,19,43,145,23,20,23,259,16,25,09,298,,30,06,127,72
$GPGLL,2458.04442,N,12111.39858,E,094350.00,A,A62
$GPRMC,094351.00,A,2458.04415,N,12111.39913,E,1.431,,280521,,,A7D
$GPVTG,,T,,M,1.431,N,2.651,K,A24
$GPGGA,094351.00,2458.04415,N,12111.39913,E,1,09,0.86,122.2,M,16.4,M,,5D
$GPGSA,A,3,02,06,19,05,12,20,13,17,09,,,,2.28,0.86,2.1103
$GPGSV,3,1,12,02,53,354,29,05,40,263,24,06,47,055,26,07,03,091,78
$GPGSV,3,2,12,09,21,045,27,12,25,265,20,13,21,186,20,17,20,146,1971
$GPGSV,3,3,12,19,43,145,23,20,23,259,16,25,09,298,,30,06,127,72
$GPGLL,2458.04415,N,12111.39913,E,094351.00,A,A6F
$GPRMC,094352.00,A,2458.04396,N,12111.39963,E,1.249,,280521,,,A7C
$GPVTG,,T,,M,1.249,N,2.313,K,A2E
$GPGGA,094352.00,2458.04396,N,12111.39963,E,1,09,0.86,122.1,M,16.4,M,,56
$GPGSA,A,3,02,06,19,05,12,20,13,17,09,,,,2.28,0.86,2.1103
$GPGSV,3,1,12,02,53,354,39,05,40,263,23,06,47,055,30,07,03,091,79
$GPGSV,3,2,12,09,21,045,26,12,25,265,20,13,21,186,20,17,20,146,207A
$GPGSV,3,3,12,19,43,145,23,20,23,259,18,25,09,298,,30,06,127,7C
$GPGLL,2458.04396,N,12111.39963,E,094352.00,A,A67
$GPRMC,094353.00,A,2458.04394,N,12111.40026,E,1.195,,280521,,,A7B
$GPVTG,,T,,M,1.195,N,2.212,K,A2C
$GPGGA,094353.00,2458.04394,N,12111.40026,E,1,09,0.86,122.1,M,16.4,M,,53
$GPGSA,A,3,02,06,19,05,12,20,13,17,09,,,,2.28,0.86,2.1103
$GPGSV,3,1,12,02,53,354,27,05,40,263,21,06,47,055,30,07,03,091,74
$GPGSV,3,2,12,09,21,045,25,12,25,265,20,13,21,186,18,17,20,146,2173
$GPGSV,3,3,12,19,43,145,23,20,23,259,17,25,09,298,16,30,06,127,74
$GPGLL,2458.04394,N,12111.40026,E,094353.00,A,A62
$GPRMC,094354.00,A,2458.04390,N,12111.40072,E,0.917,,280521,,,A7A
$GPVTG,,T,,M,0.917,N,1.698,K,A2A
$GPGGA,094354.00,2458.04390,N,12111.40072,E,1,09,0.86,122.2,M,16.4,M,,52
$GPGSA,A,3,02,06,19,05,12,20,13,17,09,,,,2.28,0.86,2.1103
$GPGSV,3,1,12,02,53,354,26,05,40,263,21,06,47,055,24,07,03,091,70
$GPGSV,3,2,12,09,21,045,25,12,25,265,19,13,21,186,18,17,20,146,1972
$GPGSV,3,3,12,19,43,145,24,20,23,259,17,25,09,298,16,30,06,127,73
$GPGLL,2458.04390,N,12111.40072,E,094354.00,A,A60
$GPRMC,094355.00,A,2458.04394,N,12111.40116,E,0.755,,280521,,,A74
$GPVTG,,T,,M,0.755,N,1.399,K,A26
$GPGGA,094355.00,2458.04394,N,12111.40116,E,1,09,0.86,122.4,M,16.4,M,,52
$GPGSA,A,3,02,06,19,05,12,20,13,17,09,,,,2.28,0.86,2.1103
$GPGSV,3,1,12,02,53,354,26,05,40,263,21,06,47,055,23,07,03,091,77
$GPGSV,3,2,12,09,21,045,25,12,25,265,20,13,21,186,21,17,20,146,1972
$GPGSV,3,3,12,19,43,145,23,20,23,259,17,25,09,298,16,30,06,127,74
$GPGLL,2458.04394,N,12111.40116,E,094355.00,A,A66
$GPRMC,094356.00,A,2458.04404,N,12111.40150,E,0.613,,280521,,,A78
$GPVTG,,T,,M,0.613,N,1.135,K,A21
$GPGGA,094356.00,2458.04404,N,12111.40150,E,1,09,0.86,122.5,M,16.4,M,,5C
$GPGSA,A,3,02,06,19,05,12,20,13,17,09,,,,2.28,0.86,2.1103
$GPGSV,3,1,12,02,53,354,26,05,40,263,21,06,47,055,24,07,03,091,70
$GPGSV,3,2,12,09,21,045,31,12,25,265,19,13,21,186,23,17,20,146,197F
$GPGSV,3,3,12,19,43,145,22,20,23,259,17,25,09,298,16,30,06,127,75
$GPGLL,2458.04404,N,12111.40150,E,094356.00,A,A69
$GPRMC,094357.00,A,2458.04375,N,12111.40191,E,0.651,,280521,,,A73
$GPVTG,,T,,M,0.651,N,1.206,K,A24
$GPGGA,094357.00,2458.04375,N,12111.40191,E,1,09,0.86,122.2,M,16.4,M,,56
$GPGSA,A,3,02,06,19,05,12,20,13,17,09,,,,2.28,0.86,2.1103
$GPGSV,3,1,12,02,53,354,25,05,40,263,20,06,47,055,24,07,03,091,72
$GPGSV,3,2,12,09,21,045,24,12,25,265,19,13,21,186,22,17,20,146,187B
$GPGSV,3,3,12,19,43,145,28,20,23,259,16,25,09,298,16,30,06,127,7E
$GPGLL,2458.04375,N,12111.40191,E,094357.00,A,A64
$GPRMC,094358.00,A,2458.04369,N,12111.40201,E,0.295,,280521,,,A77
$GPVTG,,T,,M,0.295,N,0.546,K,A2A
$GPGGA,094358.00,2458.04369,N,12111.40201,E,1,09,0.86,122.1,M,16.4,M,,5D
$GPGSA,A,3,02,06,19,05,12,20,13,17,09,,,,2.28,0.86,2.1103
$GPGSV,3,1,12,02,53,354,25,05,40,263,18,06,47,055,24,07,03,091,79
$GPGSV,3,2,12,09,21,045,20,12,25,265,18,13,21,186,20,17,20,146,1773
$GPGSV,3,3,12,19,43,145,24,20,23,259,15,25,09,298,15,30,06,127,72
$GPGLL,2458.04369,N,12111.40201,E,094358.00,A,A6C
$GPRMC,094359.00,A,2458.04336,N,12111.40202,E,0.810,,280521,,,A78
$GPVTG,,T,,M,0.810,N,1.501,K,A2F
$GPGGA,094359.00,2458.04336,N,12111.40202,E,1,09,0.86,121.8,M,16.4,M,,5F
$GPGSA,A,3,02,06,19,05,12,20,13,17,09,,,,2.28,0.86,2.1103
$GPGSV,3,1,12,02,53,354,26,05,40,263,19,06,47,055,22,07,03,091,7D
$GPGSV,3,2,12,09,21,045,18,12,25,265,18,13,21,186,17,17,20,146,177C
$GPGSV,3,3,12,19,43,145,26,20,23,259,17,25,09,298,17,30,06,127,70
$GPGLL,2458.04336,N,12111.40202,E,094359.00,A,A64
$GPRMC,094400.00,A,2458.04346,N,12111.40242,E,0.154,,280521,,,A79
$GPVTG,,T,,M,0.154,N,0.284,K,A2D
$GPGGA,094400.00,2458.04346,N,12111.40242,E,1,09,0.86,121.8,M,16.4,M,,57
$GPGSA,A,3,02,06,19,05,12,20,13,17,09,,,,2.28,0.86,2.1103
$GPGSV,3,1,12,02,53,354,32,05,40,263,19,06,47,055,21,07,03,091,7B
$GPGSV,3,2,12,09,21,045,17,12,25,265,18,13,21,186,17,17,20,146,187C
$GPGSV,3,3,12,19,43,145,26,20,23,259,16,25,09,298,19,30,06,127,7F
$GPGLL,2458.04346,N,12111.40242,E,094400.00,A,A6C
$GPRMC,094401.00,A,2458.04327,N,12111.40315,E,0.776,,280521,,,A7A
$GPVTG,,T,,M,0.776,N,1.437,K,A24
$GPGGA,094401.00,2458.04327,N,12111.40315,E,1,09,0.86,122.0,M,16.4,M,,59
$GPGSA,A,3,02,06,19,05,12,20,13,17,09,,,,2.28,0.86,2.1103
$GPGSV,3,1,12,02,53,354,28,05,40,263,19,06,47,055,23,07,03,091,72
$GPGSV,3,2,12,09,21,045,16,12,25,265,16,13,21,186,17,17,20,146,1873
$GPGSV,3,3,12,19,43,145,26,20,23,259,15,25,09,298,19,30,06,127,7C
$GPGLL,2458.04327,N,12111.40315,E,094401.00,A,A69
$GPRMC,094402.00,A,2458.04311,N,12111.40384,E,1.000,,280521,,,A73
$GPVTG,,T,,M,1.000,N,1.852,K,A2C
$GPGGA,094402.00,2458.04311,N,12111.40384,E,1,09,0.86,122.3,M,16.4,M,,54
$GPGSA,A,3,02,06,19,05,12,20,13,17,09,,,,2.28,0.86,2.1103
$GPGSV,3,1,12,02,53,354,28,05,40,263,19,06,47,055,24,07,03,091,75
$GPGSV,3,2,12,09,21,045,18,12,25,265,16,13,21,186,18,17,20,146,1872
$GPGSV,3,3,12,19,43,145,28,20,23,259,15,25,09,298,21,30,06,127,79
$GPGLL,2458.04311,N,12111.40384,E,094402.00,A,A67
$GPRMC,094403.00,A,2458.04303,N,12111.40439,E,0.986,,280521,,,A76
$GPVTG,,T,,M,0.986,N,1.826,K,A29
$GPGGA,094403.00,2458.04303,N,12111.40439,E,1,09,0.86,122.2,M,16.4,M,,56
$GPGSA,A,3,02,06,19,05,12,20,13,17,09,,,,2.28,0.86,2.1103
$GPGSV,3,1,12,02,53,354,19,05,40,263,19,06,47,055,24,07,03,091,77
$GPGSV,3,2,12,09,21,045,18,12,25,265,15,13,21,186,18,17,20,146,1871
$GPGSV,3,3,12,19,43,145,27,20,23,259,16,25,09,298,21,30,06,127,75
$GPGLL,2458.04303,N,12111.40439,E,094403.00,A,A64
$GPRMC,094404.00,A,2458.04288,N,12111.40500,E,1.081,,280521,,,A77
$GPVTG,,T,,M,1.081,N,2.001,K,A28
$GPGGA,094404.00,2458.04288,N,12111.40500,E,1,09,0.86,122.4,M,16.4,M,,5E
$GPGSA,A,3,02,06,19,05,12,20,13,17,09,,,,2.28,0.86,2.1103
$GPGSV,3,1,12,02,53,354,28,05,40,263,20,06,47,055,30,07,03,091,7A
$GPGSV,3,2,12,09,21,045,18,12,25,265,15,13,21,186,18,17,20,146,1970
$GPGSV,3,3,12,19,43,145,25,20,23,259,14,25,09,298,21,30,06,127,75
$GPGLL,2458.04288,N,12111.40500,E,094404.00,A,A6A
$GPRMC,094405.00,A,2458.04318,N,12111.40593,E,1.416,,280521,,,A7E
$GPVTG,,T,,M,1.416,N,2.622,K,A25
$GPGGA,094405.00,2458.04318,N,12111.40593,E,1,09,0.86,122.7,M,16.4,M,,5E
$GPGSA,A,3,02,06,19,05,12,20,13,17,09,,,,2.28,0.86,2.1103
$GPGSV,3,1,12,02,53,354,28,05,40,263,19,06,47,055,26,07,03,091,77
$GPGSV,3,2,12,09,21,045,18,12,25,265,16,13,21,186,18,17,20,146,1872
$GPGSV,3,3,12,19,43,145,31,20,23,259,14,25,09,298,21,30,06,127,70
$GPGLL,2458.04318,N,12111.40593,E,094405.00,A,A69
$GPRMC,094406.00,A,2458.04317,N,12111.40669,E,1.457,,280521,,,A71
$GPVTG,,T,,M,1.457,N,2.698,K,A21
$GPGGA,094406.00,2458.04317,N,12111.40669,E,1,09,0.86,123.1,M,16.4,M,,53
$GPGSA,A,3,02,06,19,05,12,20,13,17,09,,,,2.28,0.86,2.1103
$GPGSV,3,1,12,02,53,354,29,05,40,263,19,06,47,055,25,07,03,091,75
$GPGSV,3,2,12,09,21,045,19,12,25,265,15,13,21,186,18,17,20,146,1971
$GPGSV,3,3,12,19,43,145,31,20,23,259,11,25,09,298,20,30,06,127,74
$GPGLL,2458.04317,N,12111.40669,E,094406.00,A,A63
$GPRMC,094407.00,A,2458.04316,N,12111.40724,E,1.238,,280521,,,A76
$GPVTG,,T,,M,1.238,N,2.292,K,A20
$GPGGA,094407.00,2458.04316,N,12111.40724,E,1,09,0.86,123.4,M,16.4,M,,5E
$GPGSA,A,3,02,06,19,05,12,20,13,17,09,,,,2.28,0.86,2.1103
$GPGSV,3,1,12,02,53,354,24,05,40,263,19,06,47,055,23,07,03,091,7E
$GPGSV,3,2,12,09,21,045,19,12,25,265,16,13,21,186,18,17,20,146,1873
$GPGSV,3,3,12,19,43,145,26,20,23,259,10,25,09,298,20,30,06,127,73
$GPGLL,2458.04316,N,12111.40724,E,094407.00,A,A6B
$GPRMC,094408.00,A,2458.04312,N,12111.40816,E,1.556,,280521,,,A7C
$GPVTG,,T,,M,1.556,N,2.882,K,A24
$GPGGA,094408.00,2458.04312,N,12111.40816,E,1,09,0.86,123.2,M,16.4,M,,5D
$GPGSA,A,3,02,06,19,05,12,20,13,17,09,,,,2.28,0.86,2.1103
$GPGSV,3,1,12,02,53,354,31,05,40,263,19,06,47,055,24,07,03,091,7D
$GPGSV,3,2,12,09,21,045,17,12,25,265,17,13,21,186,20,17,20,146,1877
$GPGSV,3,3,12,19,43,145,26,20,23,259,13,25,09,298,19,30,06,127,7A
$GPGLL,2458.04312,N,12111.40816,E,094408.00,A,A6E
$GPRMC,094409.00,A,2458.04290,N,12111.40883,E,1.529,,280521,,,A72
$GPVTG,,T,,M,1.529,N,2.831,K,A24
$GPGGA,094409.00,2458.04290,N,12111.40883,E,1,09,0.86,123.2,M,16.4,M,,5B
$GPGSA,A,3,02,06,19,05,12,20,13,17,09,,,,2.28,0.86,2.1103
$GPGSV,3,1,12,02,53,354,31,05,40,263,19,06,47,055,26,07,03,091,7F
$GPGSV,3,2,12,09,21,045,18,12,25,265,15,13,21,186,19,17,20,146,177F
$GPGSV,3,3,12,19,43,145,26,20,23,259,15,25,09,298,19,30,06,127,7C
$GPGLL,2458.04290,N,12111.40883,E,094409.00,A,A68
$GPRMC,094410.00,A,2458.04287,N,12111.40934,E,1.213,,280521,,,A7F
$GPVTG,,T,,M,1.213,N,2.246,K,A20
$GPGGA,094410.00,2458.04287,N,12111.40934,E,1,09,0.86,123.3,M,16.4,M,,59
$GPGSA,A,3,02,06,19,05,12,20,13,17,09,,,,2.28,0.86,2.1103
$GPGSV,3,1,12,02,53,354,24,05,40,263,19,06,47,055,31,07,03,091,7D
$GPGSV,3,2,12,09,21,045,18,12,25,265,16,13,21,186,18,17,20,146,177D
$GPGSV,3,3,12,19,43,145,25,20,23,259,16,25,09,298,19,30,06,127,7C
$GPGLL,2458.04287,N,12111.40934,E,094410.00,A,A6B
$GPRMC,094411.00,A,2458.04313,N,12111.41018,E,1.591,,280521,,,A79
$GPVTG,,T,,M,1.591,N,2.946,K,A26
$GPGGA,094411.00,2458.04313,N,12111.41018,E,1,09,0.92,123.4,M,16.4,M,,50
$GPGSA,A,3,02,06,19,05,12,20,13,17,09,,,,2.38,0.92,2.2005
$GPGSV,3,1,12,02,53,354,29,05,40,263,19,06,47,055,31,07,03,091,70
$GPGSV,3,2,12,09,21,045,19,12,25,265,16,13,21,186,18,17,20,146,177C
$GPGSV,3,3,12,19,43,145,27,20,23,259,15,25,09,298,18,30,06,127,7C
$GPGLL,2458.04313,N,12111.41018,E,094411.00,A,A60
$GPRMC,094412.00,A,2458.04294,N,12111.41044,E,0.880,,280521,,,A71
$GPVTG,,T,,M,0.880,N,1.629,K,A2F
$GPGGA,094412.00,2458.04294,N,12111.41044,E,1,09,0.86,123.5,M,16.4,M,,50
$GPGSA,A,3,02,06,19,05,12,20,13,17,09,,,,2.28,0.86,2.1103
$GPGSV,3,1,12,02,53,354,19,05,40,263,20,06,47,055,25,07,03,091,7C
$GPGSV,3,2,12,09,21,045,20,12,25,265,17,13,21,186,17,17,20,146,1877
$GPGSV,3,3,12,19,43,145,17,20,23,259,15,25,09,298,18,30,06,127,7F
$GPGLL,2458.04294,N,12111.41044,E,094412.00,A,A64
$GPRMC,094413.00,A,2458.04307,N,12111.41081,E,0.649,,280521,,,A79
$GPVTG,,T,,M,0.649,N,1.202,K,A29
$GPGGA,094413.00,2458.04307,N,12111.41081,E,1,09,0.86,123.8,M,16.4,M,,5E
$GPGSA,A,3,02,06,19,05,12,20,13,17,09,,,,2.28,0.86,2.1103
$GPGSV,3,1,12,02,53,354,29,05,40,263,21,06,47,055,31,07,03,091,7B
$GPGSV,3,2,12,09,21,045,19,12,25,265,19,13,21,186,17,17,20,146,1873
$GPGSV,3,3,12,19,43,145,20,20,23,259,15,25,09,298,17,30,06,127,74
$GPGLL,2458.04307,N,12111.41081,E,094413.00,A,A67
$GPRMC,094414.00,A,2458.04335,N,12111.41154,E,1.130,,280521,,,A7E
$GPVTG,,T,,M,1.130,N,2.093,K,A28
$GPGGA,094414.00,2458.04335,N,12111.41154,E,1,09,0.86,123.9,M,16.4,M,,50
$GPGSA,A,3,02,06,19,05,12,20,13,17,09,,,,2.28,0.86,2.1103
$GPGSV,3,1,12,02,53,354,28,05,40,263,21,06,47,055,26,07,03,091,7C
$GPGSV,3,2,12,09,21,045,19,12,25,265,19,13,21,186,18,17,20,146,197D
$GPGSV,3,3,12,19,43,145,23,20,23,259,15,25,09,298,18,30,06,127,78
$GPGLL,2458.04335,N,12111.41154,E,094414.00,A,A68
$GPRMC,094415.00,A,2458.04363,N,12111.41208,E,1.147,,280521,,,A76
$GPVTG,,T,,M,1.147,N,2.125,K,A24
$GPGGA,094415.00,2458.04363,N,12111.41208,E,1,09,0.86,123.9,M,16.4,M,,58
$GPGSA,A,3,02,06,19,05,12,20,13,17,09,,,,2.28,0.86,2.1103
$GPGSV,3,1,12,02,53,354,29,05,40,263,21,06,47,055,26,07,03,091,7D
$GPGSV,3,2,12,09,21,045,19,12,25,265,19,13,21,186,18,17,20,146,2077
$GPGSV,3,3,12,19,43,145,29,20,23,259,18,25,09,298,17,30,06,127,70
$GPGLL,2458.04363,N,12111.41208,E,094415.00,A,A60
$GPRMC,094416.00,A,2458.04383,N,12111.41279,E,1.287,,280521,,,A72
$GPVTG,,T,,M,1.287,N,2.383,K,A25
$GPGGA,094416.00,2458.04383,N,12111.41279,E,1,09,0.86,124.0,M,16.4,M,,5D
$GPGSA,A,3,02,06,19,05,12,20,13,17,09,,,,2.28,0.86,2.1103
$GPGSV,3,1,12,02,53,354,33,05,40,263,20,06,47,055,26,07,03,091,77
$GPGSV,3,2,12,09,21,045,19,12,25,265,20,13,21,186,18,17,20,146,217C
$GPGSV,3,3,12,19,43,145,23,20,23,259,18,25,09,298,17,30,06,127,7A
$GPGLL,2458.04383,N,12111.41279,E,094416.00,A,A6B
$GPRMC,094417.00,A,2458.04394,N,12111.41348,E,1.268,,280521,,,A77
$GPVTG,,T,,M,1.268,N,2.349,K,A22
$GPGGA,094417.00,2458.04394,N,12111.41348,E,1,09,0.86,124.3,M,16.4,M,,5A
$GPGSA,A,3,02,06,19,05,12,20,13,17,09,,,,2.28,0.86,2.1103
$GPGSV,3,1,12,02,53,354,33,05,40,263,21,06,47,055,25,07,03,091,75
$GPGSV,3,2,12,09,21,045,20,12,25,265,19,13,21,186,16,17,20,146,2073
$GPGSV,3,3,12,19,43,145,24,20,23,259,17,25,09,298,19,30,06,127,7C
$GPGLL,2458.04394,N,12111.41348,E,094417.00,A,A6F
$GPRMC,094418.00,A,2458.04400,N,12111.41427,E,1.260,,280521,,,A74
$GPVTG,,T,,M,1.260,N,2.334,K,A20
$GPGGA,094418.00,2458.04400,N,12111.41427,E,1,09,0.86,124.5,M,16.4,M,,57
$GPGSA,A,3,02,06,19,05,12,20,13,17,09,,,,2.28,0.86,2.1103
$GPGSV,3,1,12,02,53,354,21,05,40,263,24,06,47,055,30,07,03,091,77
$GPGSV,3,2,12,09,21,045,20,12,25,265,20,13,21,186,16,17,20,146,2178
$GPGSV,3,3,12,19,43,145,25,20,23,259,17,25,09,298,19,30,06,127,7D
$GPGLL,2458.04400,N,12111.41427,E,094418.00,A,A64
$GPRMC,094419.00,A,2458.04400,N,12111.41484,E,0.943,,280521,,,A77
$GPVTG,,T,,M,0.943,N,1.746,K,A29
$GPGGA,094419.00,2458.04400,N,12111.41484,E,1,09,0.86,124.7,M,16.4,M,,5D
$GPGSA,A,3,02,06,19,05,12,20,13,17,09,,,,2.28,0.86,2.1103
$GPGSV,3,1,12,02,53,354,21,05,40,263,22,06,47,055,24,07,03,091,74
$GPGSV,3,2,12,09,21,045,22,12,25,265,19,13,21,186,16,17,20,146,2273
$GPGSV,3,3,12,19,43,145,25,20,23,259,18,25,09,298,19,30,06,127,72
$GPGLL,2458.04400,N,12111.41484,E,094419.00,A,A6C
$GPRMC,094420.00,A,2458.04413,N,12111.41553,E,0.981,,280521,,,A7A
$GPVTG,,T,,M,0.981,N,1.818,K,A23
$GPGGA,094420.00,2458.04413,N,12111.41553,E,1,09,0.86,124.6,M,16.4,M,,5F
$GPGSA,A,3,02,06,19,05,12,20,13,17,09,,,,2.28,0.86,2.1103
$GPGSV,3,1,12,02,53,354,29,05,40,263,23,06,47,055,25,07,03,091,7C
$GPGSV,3,2,12,09,21,045,23,12,25,265,19,13,21,186,18,17,20,146,217F
$GPGSV,3,3,12,19,43,145,24,20,23,259,19,25,09,298,20,30,06,127,78
$GPGLL,2458.04413,N,12111.41553,E,094420.00,A,A6F
$GPRMC,094421.00,A,2458.04392,N,12111.41598,E,0.514,,280521,,,A72
$GPVTG,,T,,M,0.514,N,0.953,K,A2C
$GPGGA,094421.00,2458.04392,N,12111.41598,E,1,09,0.86,124.8,M,16.4,M,,59
$GPGSA,A,3,02,06,19,05,12,20,13,17,09,,,,2.28,0.86,2.1103
$GPGSV,3,1,12,02,53,354,29,05,40,263,22,06,47,055,27,07,03,091,7F
$GPGSV,3,2,12,09,21,045,23,12,25,265,19,13,21,186,17,17,20,146,2273
$GPGSV,3,3,12,19,43,145,25,20,23,259,19,25,09,298,20,30,06,127,79
$GPGLL,2458.04392,N,12111.41598,E,094421.00,A,A67
$GPRMC,094422.00,A,2458.04386,N,12111.41672,E,0.758,,280521,,,A79
$GPVTG,,T,,M,0.758,N,1.404,K,A28
$GPGGA,094422.00,2458.04386,N,12111.41672,E,1,09,0.86,124.7,M,16.4,M,,57
$GPGSA,A,3,02,06,19,05,12,20,13,17,09,,,,2.28,0.86,2.1103
$GPGSV,3,1,12,02,53,354,28,05,40,263,23,06,47,055,28,07,03,091,70
$GPGSV,3,2,12,09,21,045,25,12,25,265,19,13,21,186,18,17,20,146,257D
$GPGSV,3,3,12,19,43,145,25,20,23,259,19,25,09,298,18,30,06,127,72
$GPGLL,2458.04386,N,12111.41672,E,094422.00,A,A66
$GPRMC,094423.00,A,2458.04364,N,12111.41764,E,1.188,,280521,,,A78
$GPVTG,,T,,M,1.188,N,2.200,K,A23
$GPGGA,094423.00,2458.04364,N,12111.41764,E,1,09,0.86,124.7,M,16.4,M,,5C
$GPGSA,A,3,02,06,19,05,12,20,13,17,09,,,,2.28,0.86,2.1103
$GPGSV,3,1,12,02,53,354,28,05,40,263,25,06,47,055,27,07,03,091,79
$GPGSV,3,2,12,09,21,045,24,12,25,265,20,13,21,186,18,17,20,146,2576
$GPGSV,3,3,12,19,43,145,25,20,23,259,19,25,09,298,19,30,06,127,73
$GPGLL,2458.04364,N,12111.41764,E,094423.00,A,A6D
$GPRMC,094424.00,A,2458.04340,N,12111.41852,E,1.469,,280521,,,A79
$GPVTG,,T,,M,1.469,N,2.720,K,A2E
$GPGGA,094424.00,2458.04340,N,12111.41852,E,1,09,0.86,124.6,M,16.4,M,,56
$GPGSA,A,3,02,06,19,05,12,20,13,17,09,,,,2.28,0.86,2.1103
$GPGSV,3,1,12,02,53,354,27,05,40,263,25,06,47,055,31,07,03,091,71
$GPGSV,3,2,12,09,21,045,30,12,25,265,20,13,21,186,19,17,20,146,2473
$GPGSV,3,3,12,19,43,145,25,20,23,259,21,25,09,298,20,30,06,127,72
$GPGLL,2458.04340,N,12111.41852,E,094424.00,A,A66
$GPRMC,094425.00,A,2458.04326,N,12111.41935,E,1.450,,280521,,,A72
$GPVTG,,T,,M,1.450,N,2.685,K,A2A
$GPGGA,094425.00,2458.04326,N,12111.41935,E,1,09,0.86,124.8,M,16.4,M,,59
$GPGSA,A,3,02,06,19,05,12,20,13,17,09,,,,2.27,0.86,2.110C
$GPGSV,3,1,12,02,53,354,33,05,40,263,25,06,47,055,25,07,03,091,71
$GPGSV,3,2,12,09,21,045,28,12,25,265,20,13,21,186,13,17,20,146,2276
$GPGSV,3,3,12,19,43,145,25,20,23,259,20,25,09,298,19,30,06,127,147C
$GPGLL,2458.04326,N,12111.41935,E,094425.00,A,A67
$GPRMC,094426.00,A,2458.04312,N,12111.41980,E,0.970,,280521,,,A76
$GPVTG,,T,,M,0.970,N,1.797,K,A25
$GPGGA,094426.00,2458.04312,N,12111.41980,E,1,09,0.86,124.8,M,16.4,M,,53
$GPGSA,A,3,02,06,19,05,12,20,13,17,09,,,,2.27,0.86,2.110C
$GPGSV,3,1,12,02,53,355,33,05,40,263,24,06,47,055,25,07,03,091,71
$GPGSV,3,2,12,09,21,045,20,12,25,265,20,13,21,186,18,17,20,146,2275
$GPGSV,3,3,12,19,43,145,26,20,23,259,20,25,09,298,17,30,06,127,1277
$GPGLL,2458.04312,N,12111.41980,E,094426.00,A,A6D
$GPRMC,094427.00,A,2458.04296,N,12111.42036,E,0.925,,280521,,,A7D
$GPVTG,,T,,M,0.925,N,1.714,K,A2E
$GPGGA,094427.00,2458.04296,N,12111.42036,E,1,09,0.86,125.3,M,16.4,M,,52
$GPGSA,A,3,02,06,19,05,12,20,13,17,09,,,,2.27,0.86,2.110C
$GPGSV,3,1,12,02,53,355,31,05,40,263,22,06,47,055,26,07,03,091,76
$GPGSV,3,2,12,09,21,045,21,12,25,265,20,13,21,186,21,17,20,146,237F
$GPGSV,3,3,12,19,43,145,27,20,23,259,19,25,09,298,18,30,06,127,0979
$GPGLL,2458.04296,N,12111.42036,E,094427.00,A,A66
$GPRMC,094428.00,A,2458.04292,N,12111.42100,E,0.940,,280521,,,A71
$GPVTG,,T,,M,0.940,N,1.740,K,A2C
$GPGGA,094428.00,2458.04292,N,12111.42100,E,1,09,0.86,125.6,M,16.4,M,,58
$GPGSA,A,3,02,06,19,05,12,20,13,17,09,,,,2.27,0.86,2.110C
$GPGSV,3,1,12,02,53,355,24,05,40,263,21,06,47,055,25,07,03,091,72
$GPGSV,3,2,12,09,21,045,24,12,25,265,20,13,21,186,21,17,20,146,227B
$GPGSV,3,3,12,19,43,145,28,20,23,259,19,25,09,298,19,30,06,127,0876
$GPGLL,2458.04292,N,12111.42100,E,094428.00,A,A69
$GPRMC,094429.00,A,2458.04289,N,12111.42167,E,1.058,,280521,,,A7A
$GPVTG,,T,,M,1.058,N,1.959,K,A2B
$GPGGA,094429.00,2458.04289,N,12111.42167,E,1,09,0.86,125.9,M,16.4,M,,5D
$GPGSA,A,3,02,06,19,05,12,20,13,17,09,,,,2.27,0.86,2.110C
$GPGSV,3,1,12,02,53,355,25,05,40,264,20,06,47,055,26,07,03,091,76
$GPGSV,3,2,12,09,21,045,22,12,25,265,21,13,21,186,21,17,20,146,227C
$GPGSV,3,3,12,19,43,145,27,20,23,259,21,25,09,298,20,30,06,127,0878
$GPGLL,2458.04289,N,12111.42167,E,094429.00,A,A63
$GPRMC,094430.00,A,2458.04315,N,12111.42226,E,1.145,,280521,,,A7D
$GPVTG,,T,,M,1.145,N,2.121,K,A22
$GPGGA,094430.00,2458.04315,N,12111.42226,E,1,09,0.86,126.3,M,16.4,M,,5E
$GPGSA,A,3,02,06,19,05,12,20,13,17,09,,,,2.27,0.86,2.110C
$GPGSV,3,1,12,02,53,355,25,05,40,264,22,06,46,055,27,07,03,091,74
$GPGSV,3,2,12,09,21,045,22,12,25,265,21,13,21,186,19,17,20,146,2174
$GPGSV,3,3,12,19,43,145,25,20,23,259,20,25,09,298,19,30,06,127,0871
$GPGLL,2458.04315,N,12111.42226,E,094430.00,A,A69
$GPRMC,094431.00,A,2458.04331,N,12111.42312,E,1.437,,280521,,,A7C
$GPVTG,,T,,M,1.437,N,2.662,K,A22
$GPGGA,094431.00,2458.04331,N,12111.42312,E,1,09,0.86,127.1,M,16.4,M,,5C
$GPGSA,A,3,02,06,19,05,12,20,13,17,09,,,,2.27,0.86,2.100D
$GPGSV,3,1,12,02,53,355,27,05,40,264,23,06,46,055,31,07,03,090,71
$GPGSV,3,2,12,09,21,045,23,12,25,265,21,13,21,186,17,17,20,146,207A
$GPGSV,3,3,12,19,43,145,30,20,23,259,19,25,09,298,18,30,06,127,76
$GPGLL,2458.04331,N,12111.42312,E,094431.00,A,A68
$GPRMC,094432.00,A,2458.04346,N,12111.42388,E,1.473,,280521,,,A7C
$GPVTG,,T,,M,1.473,N,2.729,K,A2C
$GPGGA,094432.00,2458.04346,N,12111.42388,E,1,09,0.86,126.9,M,16.4,M,,55
$GPGSA,A,3,02,06,19,05,12,20,13,17,09,,,,2.27,0.86,2.100D
$GPGSV,3,1,12,02,53,355,35,05,40,264,24,06,46,055,26,07,03,090,73
$GPGSV,3,2,12,09,21,045,24,12,25,265,21,13,21,186,18,17,20,146,2173
$GPGSV,3,3,12,19,43,145,23,20,23,259,19,25,09,298,18,30,06,127,74
$GPGLL,2458.04346,N,12111.42388,E,094432.00,A,A68
$GPRMC,094433.00,A,2458.04328,N,12111.42435,E,0.881,,280521,,,A74
$GPVTG,,T,,M,0.881,N,1.631,K,A27
$GPGGA,094433.00,2458.04328,N,12111.42435,E,1,09,0.86,126.9,M,16.4,M,,5D
$GPGSA,A,3,02,06,19,05,12,20,13,17,09,,,,2.27,0.86,2.100D
$GPGSV,3,1,12,02,53,355,35,05,40,264,23,06,46,055,27,07,03,090,75
$GPGSV,3,2,12,09,20,044,23,12,25,265,20,13,21,186,17,17,20,146,217A
$GPGSV,3,3,12,19,43,145,21,20,23,259,20,25,09,298,18,30,06,127,7C
$GPGLL,2458.04328,N,12111.42435,E,094433.00,A,A60
$GPRMC,094434.00,A,2458.04331,N,12111.42484,E,0.728,,280521,,,A7D
$GPVTG,,T,,M,0.728,N,1.349,K,A21
$GPGGA,094434.00,2458.04331,N,12111.42484,E,1,09,0.86,127.1,M,16.4,M,,*51
$GPGSA,A,3,02,06,19,05,12,2
