$GPGSV,4,3,15,17,13,149,38,19,34,149,39,20,36,275,20,25,09,290,07*77
$GPGSV,4,4,15,29,02,323,,30,09,120,17,50,51,133,37*4D
$GPGLL,2458.05447,N,12111.32103,E,091301.00,A,A*6B
$GPRMC,091302.00,A,2458.05372,N,12111.32131,E,0.666,,090621,,,A*7B
$GPVTG,,T,,M,0.666,N,1.234,K,A*21
$GPGGA,091302.00,2458.05372,N,12111.32131,E,1,11,1.28,144.8,M,16.4,M,,*5C
$GPGSA,A,3,02,05,19,20,12,13,07,09,17,25,30,,2.92,1.28,2.63*07
$GPGSV,4,1,15,02,57,005,15,05,43,273,28,06,45,066,,07,05,084,17*78
$GPGSV,4,2,15,09,15,041,18,12,22,256,15,13,29,185,41,15,06,209,29*7E
$GPGSV,4,3,15,17,13,149,37,19,34,149,39,20,36,275,21,25,09,290,08*76
$GPGSV,4,4,15,29,02,323,,30,09,120,16,50,51,133,37*4C
$GPGLL,2458.05372,N,12111.32131,E,091302.00,A,A*68
$GPRMC,091303.00,A,2458.05323,N,12111.32149,E,0.290,,090621,,,A*7C
$GPVTG,,T,,M,0.290,N,0.536,K,A*28
$GPGGA,091303.00,2458.05323,N,12111.32149,E,1,11,1.28,145.2,M,16.4,M,,*5D
$GPGSA,A,3,02,05,19,20,12,13,07,09,17,25,30,,2.92,1.28,2.63*07
$GPGSV,4,1,15,02,57,005,17,05,43,273,28,06,45,066,,07,05,084,18*75
$GPGSV,4,2,15,09,15,041,18,12,22,256,13,13,29,185,39,15,06,209,28*76
$GPGSV,4,3,15,17,13,149,36,19,34,149,36,20,36,275,21,25,09,290,08*78
$GPGSV,4,4,15,29,02,323,,30,09,120,16,50,51,133,35*4E
$GPGLL,2458.05323,N,12111.32149,E,091303.00,A,A*62
$GPRMC,091304.00,A,2458.05255,N,12111.32177,E,0.682,,090621,,,A*71
$GPVTG,,T,,M,0.682,N,1.262,K,A*28
$GPGGA,091304.00,2458.05255,N,12111.32177,E,1,11,1.00,146.2,M,16.4,M,,*5E
$GPGSA,A,3,02,05,19,20,12,13,07,09,17,25,30,,2.78,1.00,2.59*00
$GPGSV,4,1,15,02,57,005,17,05,43,273,28,06,45,066,,07,05,084,16*7B
$GPGSV,4,2,15,09,15,041,17,12,22,256,10,13,29,185,42,15,06,209,28*76
$GPGSV,4,3,15,17,13,149,37,19,34,149,37,20,36,275,20,25,09,290,08*79
$GPGSV,4,4,15,29,02,323,,30,09,120,16,50,51,133,34*4F
$GPGLL,2458.05255,N,12111.32177,E,091304.00,A,A*68
$GPRMC,091305.00,A,2458.05204,N,12111.32190,E,0.815,,090621,,,A*7D
$GPVTG,,T,,M,0.815,N,1.510,K,A*2A
$GPGGA,091305.00,2458.05204,N,12111.32190,E,1,11,
$GPGSA,A,3,02,05,19,20,12,13,07,09,17,25,30,,2.92,1.28,2.63*07
$GPGSV,4,1,15,02,57,005,17,05,43,273,26,06,45,066,,07,05,084,14*77
$GPGSV,4,2,15,09,15,041,18,12,22,256,10,13,29,185,41,15,06,209,28*7A
$GPGSV,4,3,15,17,13,149,37,19,34,149,33,20,36,275,19,25,09,290,08*77
$GPGSV,4,4,15,29,02,323,,30,09,120,15,50,51,133,35*4D
$GPGLL,2458.05204,N,12111.32190,E,091305.00,A,A*64
$GPRMC,091306.00,A,2458.05198,N,12111.32194,E,0.054,,090621,,,A*71
$GPVTG,,T,,M,0.054,N,0.101,K,A*22
$GPGGA,091306.00,2458.05198,N,12111.32194,E,1,10,0.94,146.9,M,16.4,M,,*55
$GPGSA,A,3,02,05,19,20,13,07,09,17,25,30,,,1.73,0.94,1.45*09
$GPGSV,4,1,15,02,57,005,18,05,43,273,26,06,45,066,,07,05,084,12*7E
$GPGSV,4,2,15,09,15,041,18,12,22,256,08,13,29,185,41,15,06,209,28*73
$GPGSV,4,3,15,17,13,149,34,19,34,149,34,20,36,275,18,25,09,290,08*72
$GPGSV,4,4,15,29,02,323,,30,09,120,14,50,51,133,34*4D
$GPGLL,2458.05198,N,12111.32194,E,091306.00,A,A*65
$GPRMC,091307.00,A,2458.05219,N,12111.32195,E,0.689,,090621,,,A*7D
$GPVTG,,T,,M,0.689,N,1.275,K,A*25
$GPGGA,091307.00,2458.05219,N,12111.32195,E,1,10,0.94,146.8,M,16.4,M,,*5E
$GPGSA,A,3,02,05,19,20,13,07,09,17,25,30,,,1.73,0.94,1.45*09
$GPGSV,4,1,15,02,57,005,18,05,43,273,25,06,45,066,,07,05,084,14*7B
$GPGSV,4,2,15,09,15,041,17,12,22,256,09,13,29,185,36,15,06,209,*77
$GPGSV,4,3,15,17,13,149,25,19,34,149,38,20,36,275,18,25,09,290,08*7E
$GPGSV,4,4,15,29,02,323,,30,09,120,12,50,51,133,34*4B
$GPGLL,2458.05219,N,12111.32195,E,091307.00,A,A*6F
$GPRMC,091308.00,A,2458.05282,N,12111.32167,E,2.286,345.70,090621,,,A*6F
$GPVTG,345.70,T,,M,2.286,N,4.234,K,A*37
$GPGGA,091308.00,2458.05282,N,12111.32167,E,1,11,0.76,147.4,M,16.4,M,,*5E
$GPGSA,A,3,02,05,19,20,12,13,07,09,17,25,30,,1.64,0.76,1.46*03
$GPGSV,4,1,15,02,57,005,16,05,43,273,25,06,45,066,,07,05,084,14*75
$GPGSV,4,2,15,09,15,041,18,12,22,256,10,13,29,185,35,15,06,209,26*77
$GPGSV,4,3,15,17,13,149,32,19,34,149,38,20,36,275,15,25,09,290,07*7A
$GPGSV,4,4,15,29,02,323,,30,09,120,10,50,51,133,32*4F
$GPGLL,2458.05282,N,12111.32167,E,091308.00,A,A*6F
$GPRMC,091309.00,A,2458.05388,N,12111.32122,E,3.430,342.67,090621,,,A*6F
$GPVTG,342.67,T,,M,3.430,N,6.352,K,A*3F
$GPGGA,091309.00,2458.05388,N,12111.32122,E,1,12,0.76,147.3,M,16.4,M,,*51
$GPGSA,A,3,02,06,05,19,20,12,13,07,09,17,25,30,1.64,0.76,1.46*05
$GPGSV,4,1,15,02,57,005,17,05,43,273,24,06,45,066,15,07,05,084,14*71
$GPGSV,4,2,15,09,15,041,19,12,22,256,11,13,29,185,38,15,06,209,32*7F
$GPGSV,4,3,15,17,13,149,28,19,34,149,39,20,36,275,14,25,09,290,07*71
$GPGSV,4,4,15,29,02,323,,30,09,120,12,50,51,133,33*4C
$GPGLL,2458.05388,N,12111.32122,E,091309.00,A,A*64
$GPRMC,091310.00,A,2458.05372,N,12111.32116,E,1.248,,090621,,,A*74
$GPVTG,,T,,M,1.248,N,2.311,K,A*2D
$GPGSA,A,3,02,06,05,19,12,13,07,09,17,30,,,2.80,1.03,2.61*0C
$GPGSV,4,2,15,09,15,041,19,12,22,256,10,13,29,185,44,15,06,209,34*73
$GPGSV,4,3,15,17,13,149,26,19,34,149,38,20,36,275,,25,09,290,06*7A
$GPGSV,4,4,15,29,02,323,,30,09,120,10,50,51,133,30*4D
$GPGLL,2458.05372,N,12111.32116,E,091310.00,A,A*6E
$GPVTG,339.74,T,,M,2.103,N,3.894,K,A*31
$GPGGA,091311.00,2458.05412,N,12111.32096,E,1,09,0.93,148.8,M,16.4,M,,*57
$GPGSA,A,3,02,06,05,19,12,13,07,09,17,,,,2.02,0.93,1.79*07
$GPGSV,4,1,15,02,57,005,12,05,43,273,19,06,45,066,14,07,05,084,14*7B
$GPGSV,4,2,15,09,15,041,19,12,22,256,09,13,29,185,41,15,06,209,32*78
$GPGSV,4,3,15,17,13,149,23,19,34,149,34,20,36,275,,25,09,290,05*70
$GPGSV,4,4,15,29,02,323,,30,09,120,07,50,51,133,29*43
$GPGLL,2458.05412,N,12111.32096,E,091311.00,A,A*67
$GPRMC,091312.00,A,2458.05408,N,12111.32093,E,0.636,,090621,,,A*7C
$GPVTG,,T,,M,0.636,N,1.177,K,A*20
$GPGGA,091312.00,2458.05408,N,12111.32093,E,1,09,1.05,149.1,M,16.4,M,,*5C
$GPGSA,A,3,06,05,19,20,12,13,07,09,17,,,,2.87,1.05,2.67*08
$GPGSV,4,1,15,02,57,005,09,05,43,273,19,06,45,066,14,07,05,084,15*70
$GPGSV,4,2,15,09,15,041,18,12,22,256,08,13,29,185,41,15,06,209,32*78
$GPGSV,4,3,15,17,13,149,20,19,34,149,35,20,36,275,20,25,09,290,05*70
$GPGSV,4,4,15,29,02,323,,30,09,120,07,50,51,133,27*4D
$GPGLL,2458.05408,N,12111.32093,E,091312.00,A,A*6A
$GPRMC,091313.00,A,2458.05355,N,12111.32105,E,1.177,,090621,,,A*7F
$GPVTG,,T,,M,1.177,N,2.179,K,A*2E
$GPGGA,091313.00,2458.05355,N,12111.32105,E,1,08,1.00,149.7,M,16.4,M,,*5E
$GPGSA,A,3,06,05,19,20,12,13,07,09,,,,,2.21,1.00,1.97*0B
$GPGSV,4,1,14,02,57,005,09,05,43,273,19,06,45,066,16,07,05,084,17*71
$GPGSV,4,2,14,09,15,041,16,12,22,256,08,13,29,185,39,15,06,209,32*78
$GPGSV,4,3,14,17,13,149,,19,34,149,35,20,36,275,17,25,09,290,05*77
$GPGSV,4,4,14,29,02,323,,30,09,120,07*79
$GPGLL,2458.05355,N,12111.32105,E,091313.00,A,A*6A
$GPRMC,091314.00,A,2458.05293,N,12111.32127,E,1.793,,090621,,,A*7F
$GPVTG,,T,,M,1.793,N,3.321,K,A*2C
$GPGGA,091314.00,2458.05293,N,12111.32127,E,1,09,0.94,149.7,M,16.4,M,,*5F
$GPGSV,4,1,14,02,57,005,,05,43,273,18,06,45,066,16,07,05,084,17*79
$GPGSV,4,3,14,17,13,149,,19,34,149,35,20,36,275,14,25,09,290,06*77
$GPGSV,4,4,14,29,02,323,,30,09,120,10*7F
$GPGLL,2458.05293,N,12111.32127,E,091314.00,A,A*66
$GPVTG,226.97,T,,M,2.712,N,5.023,K,A*37
$GPGGA,091315.00,2458.05208,N,12111.32155,E,1,09,0.94,150.1,M,16.4,M,,*57
$GPGSA,A,3,06,05,19,20,12,13,07,09,30,,,,2.06,0.94,1.83*04
$GPGSV,4,1,14,02,57,005,,05,43,273,18,06,45,066,16,07,05,084,18*76
$GPGSV,4,2,14,09,15,041,16,12,22,256,07,13,29,185,42,15,06,209,33*7A
$GPGSV,4,3,14,17,13,149,,19,34,149,35,20,36,275,14,25,09,290,06*77
$GPGSV,4,4,14,29,02,323,,30,09,120,10*7F
$GPGLL,2458.05208,N,12111.32155,E,091315.00,A,A*60
$GPRMC,091316.00,A,2458.05172,N,12111.32156,E,1.262,,090621,,,A*7C
$GPVTG,,T,,M,1.262,N,2.338,K,A*2E
$GPGGA,091316.00,2458.05172,N,12111.32156,E,1,10,1.01,150.9,M,16.4,M,,*54
$GPGSA,A,3,02,06,05,19,20,12,13,07,09,30,,,2.35,1.01,2.12*00
$GPGSV,4,1,14,02,57,005,13,05,43,273,17,06,45,066,16,07,05,084,17*74
$GPGSV,4,2,14,09,15,041,17,12,22,256,07,13,29,185,41,15,06,209,32*79
$GPGSV,4,3,14,17,13,149,,19,34,149,35,20,36,275,16,25,09,290,06*75
$GPGSV,4,4,14,29,02,323,,30,09,120,09*77
$GPGLL,2458.05172,N,12111.32156,E,091316.00,A,A*6E
$GPRMC,091317.00,A,2458.05144,N,12111.32149,E,0.731,,090621,,,A*74
$GPVTG,,T,,M,0.731,N,1.355,K,A*24
$GPGGA,091317.00,2458.05144,N,12111.32149,E,1,10,1.01,151.9,M,16.4,M,,*5F
$GPGSA,A,3,02,06,05,19,20,13,07,09,17,30,,,2.35,1.01,2.12*05
$GPGSV,4,1,14,02,57,005,14,05,43,273,16,06,45,066,16,07,05,084,16*73
$GPGSV,4,2,14,09,15,041,17,12,22,256,06,13,29,185,40,15,06,209,31*7A
$GPGSV,4,3,14,17,13,149,23,19,34,149,35,20,36,275,16,25,09,290,05*77
$GPGSV,4,4,14,29,02,323,,30,09,120,08*76
$GPGLL,2458.05144,N,12111.32149,E,091317.00,A,A*64
$GPRMC,091318.00,A,2458.05107,N,12111.32158,E,1.094,,090621,,,A*75
$GPVTG,,T,,M,1.094,N,2.025,K,A*2A
$GPGGA,091318.00,2458.05107,N,12111.32158,E,1,10,1.01,152.0,M,16.4,M,,*5D
$GPGSA,A,3,02,06,05,19,20,13,07,09,17,30,,,2.35,1.01,2.12*05
$GPGSV,4,1,14,02,57,005,15,05,43,273,18,06,45,066,16,07,05,084,16*7C
$GPGSV,4,2,14,09,15,041,18,12,22,256,06,13,29,185,41,15,06,209,31*74
$GPGSV,4,3,14,17,13,149,23,19,34,149,37,20,36,275,15,25,09,290,*73
$GPGSV,4,4,14,29,02,323,,30,09,120,08*76
$GPVTG,203.74,T,,M,1.776,N,3.289,K,A*38
$GPGSV,4,1,14,02,57,005,17,05,43,273,19,06,45,066,17,07,05,084,16*7E
$GPGSV,4,2,14,09,15,041,18,12,22,256,07,13,29,185,42,15,06,209,31*76
$GPGSV,4,3,14,17,13,149,22,19,34,149,39,20,36,275,14,25,09,290,*7D
$GPGSV,4,4,14,29,02,323,,30,09,120,09*77
$GPGLL,2458.05046,N,12111.32175,E,091319.00,A,A*66
$GPRMC,091320.00,A,2458.04978,N,12111.32197,E,0.169,,090621,,,A*7E
$GPVTG,,T,,M,0.169,N,0.312,K,A*2D
$GPGGA,091320.00,2458.04978,N,12111.32197,E,1,11,0.99,152.2,M,16.4,M,,*57
$GPGSA,A,3,02,06,05,19,20,12,13,07,09,17,25,,2.09,0.99,1.85*00
$GPGSV,4,1,14,02,57,005,18,05,43,273,19,06,45,066,18,07,05,084,16*7E
$GPGSV,4,2,14,09,15,041,17,12,22,256,07,13,29,185,42,15,06,209,31*79
$GPGSV,4,3,14,17,13,149,24,19,34,149,37,20,36,275,13,25,09,290,15*76
$GPGSV,4,4,14,29,02,323,,30,09,120,06*78
$GPGLL,2458.04978,N,12111.32197,E,091320.00,A,A*65
$GPRMC,091321.00,A,2458.04913,N,12111.32224,E,0.207,,090621,,,A*72
$GPVTG,,T,,M,0.207,N,0.383,K,A*2E
$GPGGA,091321.00,2458.04913,N,12111.32224,E,1,10,0.94,150.9,M,16.4,M,,*55
$GPGSA,A,3,02,06,05,19,20,13,07,09,17,25,,,2.00,0.94,1.77*0A
$GPGSV,4,1,14,02,57,005,18,05,43,273,20,06,45,066,19,07,05,084,14*77
$GPGSV,4,2,14,09,15,041,15,12,22,256,01,13,29,185,42,15,06,209,32*7E
$GPGSV,4,3,14,17,13,149,25,19,34,149,35,20,36,275,11,25,09,290,15*77
$GPGSV,4,4,14,29,02,323,,30,09,120,06*78
$GPGLL,2458.04913,N,12111.32224,E,091321.00,A,A*62
$GPRMC,091322.00,A,2458.04846,N,12111.32250,E,0.240,,090621,,,A*70
$GPVTG,,T,,M,0.240,N,0.445,K,A*20
$GPGGA,091322.00,2458.04846,N,12111.32250,E,1,11,0.82,150.5,M,16.4,M,,*5E
$GPGSA,A,3,02,06,05,19,20,12,13,07,09,17,25,,1.77,0.82,1.56*0E
$GPGSV,4,1,14,02,57,005,17,05,43,273,21,06,45,066,19,07,05,084,14*79
$GPGSV,4,2,14,09,15,041,15,12,22,256,12,13,29,185,41,15,06,209,32*7F
$GPGSV,4,3,14,17,13,149,25,19,34,149,35,20,36,275,10,25,09,290,15*76
$GPGSV,4,4,14,29,02,323,,30,09,120,*7E
$GPGLL,2458.04846,N,12111.32250,E,091322.00,A,A*63
$GPRMC,091323.00,A,2458.04764,N,12111.32275,E,1.029,,090621,,,A*75
$GPGGA,091323.00,2458.04764,N,12111.32275,E,1,11,0.90,151.3,M,16.4,M,,*53
$GPGSV,4,1,14,02,57,005,17,05,43,273,21,06,45,066,20,07,05,084,12*75
$GPGSV,4,2,14,09,15,041,16,12,22,256,21,13,29,185,42,15,06,209,32*7F
$GPGSV,4,3,14,17,13,149,24,19,34,149,35,20,36,275,09,25,09,290,16*7C
$GPGSV,4,4,14,29,02,323,,30,09,120,18*77
$GPVTG,,T,,M,0.397,N,0.735,K,A*2F
$GPGGA,091324.00,2458.04667,N,12111.32313,E,1,11,0.75,149.9,M,16.4,M,,*5F
$GPGSA,A,3,02,06,05,19,12,13,07,09,17,25,30,,1.51,0.75,1.31*02
$GPGSV,4,1,14,02,57,005,18,05,43,273,21,06,45,066,21,07,05,084,13*7A
$GPGSV,4,2,14,09,15,041,15,12,22,256,22,13,29,185,42,15,06,209,32*7F
$GPGSV,4,3,14,17,13,149,23,19,34,149,36,20,36,275,09,25,09,290,15*7B
$GPGSV,4,4,14,29,02,323,,30,09,120,18*77
$GPGLL,2458.04667,N,12111.32313,E,091324.00,A,A*6E
$GPRMC,091325.00,A,2458.04619,N,12111.32346,E,1.901,286.83,090621,,,A*63
$GPVTG,286.83,T,,M,1.901,N,3.520,K,A*37
$GPGGA,091325.00,2458.04619,N,12111.32346,E,1,11,0.77,149.4,M,16.4,M,,*58
$GPGSA,A,3,02,06,05,19,12,13,07,09,25,15,30,,1.47,0.77,1.26*03
$GPGSV,4,1,14,02,57,005,16,05,43,273,21,06,45,066,22,07,05,084,12*76
$GPGSV,4,2,14,09,15,041,15,12,22,256,23,13,29,185,43,15,07,209,33*7F
$GPGSV,4,3,14,17,13,149,,19,34,149,38,20,36,275,09,25,09,290,15*74
$GPGSV,4,4,14,29,02,323,,30,09,120,18*77
$GPGLL,2458.04619,N,12111.32346,E,091325.00,A,A*66
$GPRMC,091326.00,A,2458.04627,N,12111.32347,E,2.921,327.93,090621,,,A*66
$GPVTG,327.93,T,,M,2.921,N,5.410,K,A*39
$GPGGA,091326.00,2458.04627,N,12111.32347,E,1,12,0.71,148.5,M,16.4,M,,*52
$GPGSA,A,3,02,06,05,19,20,12,13,07,09,25,15,30,1.40,0.71,1.20*06
$GPGSV,4,1,14,02,57,005,16,05,43,273,20,06,45,066,21,07,05,084,13*75
$GPGSV,4,2,14,09,15,041,16,12,22,256,24,13,29,185,43,15,07,209,34*7C
$GPGSV,4,3,14,17,13,149,,19,34,149,38,20,36,275,09,25,09,290,15*74
$GPGSV,4,4,14,29,02,323,,30,09,120,19*76
$GPGLL,2458.04627,N,12111.32347,E,091326.00,A,A*69
$GPRMC,091327.00,A,2458.04621,N,12111.32349,E,1.795,331.86,090621,,,A*6E
$GPVTG,331.86,T,,M,1.795,N,3.324,K,A*3E
$GPGGA,091327.00,2458.04621,N,12111.32349,E,1,12,0.71,147.4,M,16.4,M,,*55
$GPGSA,A,3,02,06,05,19,20,12,13,07,09,25,15,30,1.40,0.71,1.20*06
$GPGSV,4,1,14,02,57,005,16,05,43,273,19,06,45,066,20,07,05,084,14*79
$GPGSV,4,2,14,09,15,041,17,12,22,256,24,13,29,185,43,15,07,209,33*7A
$GPGSV,4,3,14,17,13,149,,19,34,149,39,20,36,275,09,25,09,290,16*76
$GPGSV,4,4,14,29,02,323,,30,09,120,20*7C
$GPGLL,2458.04621,N,12111.32349,E,091327.00,A,A*60
$GPRMC,091333.00,A,2458.04633,N,12111.32348,E,0.703,,090621,,,A*76
$GPVTG,,T,,M,0.703,N,1.303,K,A*26
$GPGGA,091333.00,2458.04633,N,12111.32348,E,1,12,0.68,144.4,M,16.4,M,,*59
$GPGSA,A,3,02,06,05,19,20,12,13,07,09,17,25,15,1.37,0.68,1.19*01
$GPGSV,4,1,14,02,57,006,15,05,43,274,13,06,45,067,17,07,05,084,10*75
$GPGSV,4,2,14,09,15,041,14,12,22,256,25,13,29,185,39,15,07,209,30*76
$GPGSV,4,3,14,17,13,149,23,19,34,149,37,20,36,275,08,25,09,290,14*7A
$GPGSV,4,4,14,29,02,323,,30,09,120,18*77
$GPGLL,2458.04633,N,12111.32348,E,091333.00,A,A*67
$GPRMC,091334.00,A,2458.04643,N,12111.32343,E,0.888,,090621,,,A*71
$GPVTG,,T,,M,0.888,N,1.644,K,A*2C
$GPGGA,091334.00,2458.04643,N,12111.32343,E,1,12,0.73,143.8,M,16.4,M,,*53
$GPGSA,A,3,02,06,05,19,20,12,13,09,17,25,15,30,1.51,0.73,1.32*06
$GPGSV,4,1,14,02,57,006,16,05,43,274,13,06,45,067,16,07,05,084,*76
$GPGSV,4,2,14,09,15,041,16,12,22,256,25,13,29,185,40,15,07,209,30*7A
$GPGSV,4,3,14,17,13,149,25,19,34,149,40,20,36,275,09,25,09,290,15*7C
$GPGSV,4,4,14,29,02,323,,30,09,120,18*77
$GPGLL,2458.04643,N,12111.32343,E,091334.00,A,A*6C
$GPRMC,091335.00,A,2458.04686,N,12111.32330,E,1.468,344.60,090621,,,A*65
$GPVTG,344.60,T,,M,1.468,N,2.719,K,A*3E
$GPGGA,091335.00,2458.04686,N,12111.32330,E,1,12,0.73,143.3,M,16.4,M,,*54
$GPGSA,A,3,02,06,05,19,20,12,13,09,17,25,15,30,1.51,0.73,1.32*06
$GPGSV,4,1,14,02,57,006,16,05,43,274,12,06,45,067,16,07,05,084,*77
$GPGSV,4,2,14,09,15,041,15,12,22,256,25,13,29,185,41,15,07,209,29*70
$GPGSV,4,3,14,17,13,149,24,19,34,149,39,20,36,275,09,25,09,290,16*70
$GPGSV,4,4,14,29,02,323,,30,09,120,18*77
$GPGLL,2458.04686,N,12111.32330,E,091335.00,A,A*60
$GPRMC,091336.00,A,2458.04674,N,12111.32319,E,0.801,,090621,,,A*79
$GPVTG,,T,,M,0.801,N,1.483,K,A*24
$GPGGA,091336.00,2458.04674,N,12111.32319,E,1,12,0.84,143.6,M,16.4,M,,*5C
$GPGSA,A,3,02,06,05,19,20,12,13,09,17,25,15,30,1.74,0.84,1.53*0E
$GPGSV,4,1,14,02,57,006,15,05,43,274,10,06,45,067,15,07,05,084,*75
$GPGSV,4,2,14,09,15,041,14,12,22,256,23,13,29,185,41,15,07,209,29*77
$GPGSV,4,3,14,17,13,149,24,19,34,149,39,20,36,275,09,25,09,290,16*70
$GPGSV,4,4,14,29,02,323,,30,09,120,19*76
$GPGLL,2458.04674,N,12111.32319,E,091336.00,A,A*65
$GPRMC,091337.00,A,2458.04691,N,12111.32309,E,1.098,,090621,,,A*7B
$GPVTG,,T,,M,1.098,N,2.034,K,A*26
$GPGGA,091337.00,2458.04691,N,12111.32309,E,1,12,0.84,143.7,M,16.4,M,,*56
$GPGSA,A,3,02,06,05,19,20,12,13,09,17,25,15,30,1.74,0.84,1.53*0E
$GPGSV,4,1,14,02,57,006,14,05,43,274,11,06,45,067,15,07,05,084,*75
$GPGSV,4,2,14,09,15,041,13,12,22,256,22,13,29,185,40,15,07,209,29*70
$GPGSV,4,3,14,17,13,149,26,19,34,149,39,20,36,275,09,25,09,290,17*73
$GPGSV,4,4,14,29,02,323,,30,09,120,20*7C
$GPGLL,2458.04691,N,12111.32309,E,091337.00,A,A*6E
$GPRMC,091338.00,A,2458.04747,N,12111.32278,E,1.608,344.70,090621,,,A*6C
$GPVTG,344.70,T,,M,1.608,N,2.977,K,A*3D
$GPGGA,091338.00,2458.04747,N,12111.32278,E,1,12,0.76,143.6,M,16.4,M,,*58
$GPGSA,A,3,02,06,05,19,20,12,13,09,17,25,15,30,1.61,0.76,1.42*07
$GPGSV,4,1,14,02,57,006,15,05,43,274,12,06,45,067,17,07,05,084,*75
$GPGSV,4,2,14,09,15,041,11,12,22,256,21,13,29,185,39,15,07,209,29*7F
$GPGSV,4,3,14,17,13,149,27,19,34,149,38,20,36,275,09,25,09,290,16*72
$GPGSV,4,4,14,29,02,323,,30,09,120,20*7C
$GPGLL,2458.04747,N,12111.32278,E,091338.00,A,A*6C
$GPRMC,091339.00,A,2458.04768,N,12111.32268,E,1.327,,090621,,,A*73
$GPVTG,,T,,M,1.327,N,2.459,K,A*2E
$GPGGA,091339.00,2458.04768,N,12111.32268,E,1,12,0.73,143.0,M,16.4,M,,*56
$GPRMC,091343.00,A,2458.04836,N,12111.32178,E,1.420,345.04,090621,,,A*60
$GPVTG,345.04,T,,M,1.420,N,2.630,K,A*3B
$GPGGA,091343.00,2458.04836,N,12111.32178,E,1,12,0.77,141.3,M,16.4,M,,*58
$GPGSA,A,3,02,06,05,19,20,12,13,07,17,25,15,30,1.48,0.77,1.26*01
$GPGSV,4,1,14,02,57,006,14,05,43,274,18,06,45,067,16,07,05,084,17*79
$GPGSV,4,2,14,09,15,041,,12,22,256,23,13,30,185,40,15,07,209,30*73
$GPGSV,4,3,14,17,12,149,29,19,34,149,40,20,36,275,09,25,09,290,14*70
$GPGSV,4,4,14,29,02,323,,30,09,120,23*7F
$GPGLL,2458.04836,N,12111.32178,E,091343.00,A,A*6A
$GPRMC,091344.00,A,2458.04875,N,12111.32150,E,1.787,345.11,090621,,,A*60
$GPVTG,345.11,T,,M,1.787,N,3.309,K,A*3F
$GPGGA,091344.00,2458.04875,N,12111.32150,E,1,12,0.77,140.9,M,16.4,M,,*59
$GPGSA,A,3,02,06,05,19,20,12,13,07,17,25,15,30,1.48,0.77,1.26*01
$GPGSV,4,1,14,02,57,006,14,05,43,274,20,06,45,067,17,07,05,084,17*73
$GPGSV,4,2,14,09,15,041,,12,22,256,22,13,30,185,41,15,07,209,30*73
$GPGSV,4,3,14,17,12,149,29,19,34,149,40,20,36,275,10,25,09,290,14*78
$GPGSV,4,4,14,29,02,323,,30,09,120,24*78
$GPGLL,2458.04875,N,12111.32150,E,091344.00,A,A*60
$GPRMC,091345.00,A,2458.04859,N,12111.32124,E,1.072,,090621,,,A*7D
$GPVTG,,T,,M,1.072,N,1.986,K,A*21
$GPGGA,091345.00,2458.04859,N,12111.32124,E,1,12,0.77,140.9,M,16.4,M,,*55
$GPGSA,A,3,02,06,05,19,20,12,13,07,17,25,15,30,1.48,0.77,1.26*01
$GPGSV,4,1,14,02,57,006,17,05,43,274,20,06,45,067,17,07,05,084,17*70
$GPGSV,4,2,14,09,15,041,,12,22,256,23,13,30,185,40,15,07,209,30*73
$GPGSV,4,3,14,17,12,149,29,19,34,150,38,20,36,275,10,25,09,290,15*7E
$GPGSV,4,4,14,29,02,323,,30,09,120,24*78
$GPGLL,2458.04859,N,12111.32124,E,091345.00,A,A*6C
$GPRMC,091346.00,A,2458.04884,N,12111.32099,E,1.115,,090621,,,A*79
$GPVTG,,T,,M,1.115,N,2.064,K,A*27
$GPGGA,091346.00,2458.04884,N,12111.32099,E,1,12,0.77,140.3,M,16.4,M,,*5B
$GPGSA,A,3,02,06,05,19,20,12,13,07,09,17,25,15,1.48,0.77,1.26*0B
$GPGSV,4,1,14,02,57,006,18,05,43,274,21,06,45,067,17,07,05,084,17*7E
$GPGSV,4,2,14,09,15,041,11,12,22,256,22,13,30,185,41,15,07,209,29*7B
$GPGSV,4,3,14,17,12,149,28,19,34,150,40,20,37,275,10,25,09,290,16*72
$GPGSV,4,4,14,29,02,323,,30,09,120,25*79
$GPGLL,2458.04884,N,12111.32099,E,091346.00,A,A*68
$GPRMC,091347.00,A,2458.04892,N,12111.32075,E,1.168,,090621,,,A*77
$GPVTG,,T,,M,1.168,N,2.162,K,A*2A
$GPGGA,091347.00,2458.04892,N,12111.32075,E,1,12,0.77,139.4,M,16.4,M,,*56
$GPGSA,A,3,02,06,05,19,20,12,13,07,09,17,25,15,1.48,0.77,1.26*0B
$GPGSV,4,1,14,02,57,006,18,05,43,274,22,06,45,067,17,07,05,084,17*7D
$GPGSV,4,2,14,09,15,041,11,12,22,256,21,13,30,185,40,15,07,209,29*79
$GPGSV,4,3,14,17,12,149,29,19,34,150,40,20,37,275,10,25,09,290,16*73
$GPGSV,4,4,14,29,02,323,,30,09,120,25*79
$GPGLL,2458.04892,N,12111.32075,E,091347.00,A,A*6C
$GPRMC,091348.00,A,2458.04938,N,12111.32045,E,1.349,342.95,090621,,,A*6C
$GPVTG,342.95,T,,M,1.349,N,2.497,K,A*33
$GPGGA,091348.00,2458.04938,N,12111.32045,E,1,12,0.81,138.7,M,16.4,M,,*50
$GPGSA,A,3,02,06,05,19,20,12,13,07,09,17,25,15,1.60,0.81,1.38*07
$GPGSV,4,1,14,02,57,006,23,05,43,274,22,06,45,067,18,07,05,084,17*7A
$GPGSV,4,2,14,09,15,041,11,12,22,256,21,13,30,185,40,15,07,209,29*79
$GPGSV,4,3,14,17,12,149,29,19,34,150,40,20,37,275,10,25,09,290,15*70
$GPGSV,4,4,14,29,02,323,,30,09,120,25*79
$GPGLL,2458.04938,N,12111.32045,E,091348.00,A,A*61
$GPRMC,091349.00,A,2458.04951,N,12111.32024,E,0.890,,090621,,,A*7C
$GPVTG,,T,,M,0.890,N,1.647,K,A*26
$GPGGA,091349.00,2458.04951,N,12111.32024,E,1,12,0.81,138.4,M,16.4,M,,*5A
$GPGSA,A,3,02,06,05,19,20,12,13,07,09,17,25,15,1.60,0.81,1.38*07
$GPGSV,4,1,14,02,57,006,22,05,43,274,22,06,45,067,18,07,05,084,17*7B
$GPGSV,4,2,14,09,15,041,11,12,22,256,21,13,30,185,40,15,07,209,30*71
$GPGSV,4,3,14,17,12,149,29,19,34,150,38,20,37,275,10,25,09,290,15*7F
$GPGSV,4,4,14,29,02,323,,30,09,120,24*78
$GPGLL,2458.04951,N,12111.32024,E,091349.00,A,A*68
$GPRMC,091350.00,A,2458.04974,N,12111.32001,E,1.052,,090621,,,A*73
$GPVTG,,T,,M,1.052,N,1.948,K,A*21
$GPGGA,091350.00,2458.04974,N,12111.32001,E,1,12,0.81,138.5,M,16.4,M,,*53
$GPGSA,A,3,02,06,05,19,20,12,13,07,09,17,25,15,1.60,0.81,1.38*07
$GPGSV,4,1,14,02,57,006,20,05,43,274,22,06,45,067,17,07,05,084,18*79
$GPGSV,4,2,14,09,15,041,08,12,22,256,21,13,30,185,40,15,07,209,31*78
$GPGSV,4,3,14,17,12,149,27,19,34,150,38,20,37,275,09,25,09,290,14*78
$GPGSV,4,4,14,29,02,323,,30,09,120,24*78
$GPGLL,2458.04974,N,12111.32001,E,091350.00,A,A*60
$GPRMC,091351.00,A,2458.04953,N,12111.31980,E,1.350,341.74,090621,,,A*6E
$GPVTG,341.74,T,,M,1.350,N,2.500,K,A*38
$GPGGA,091351.00,2458.04953,N,12111.31980,E,1,12,0.68,137.2,M,16.4,M,,*5B
$GPGSA,A,3,02,06,05,19,20,12,13,07,09,17,25,15,1.37,0.68,1.19*01
$GPGSV,4,1,14,02,57,006,20,05,43,274,21,06,45,067,17,07,05,084,18*7A
$GPGSV,4,2,14,09,15,041,08,12,22,256,21,13,30,185,40,15,07,209,30*79
$GPGSV,4,3,14,17,12,149,28,19,34,150,36,20,37,275,09,25,09,289,14*71
$GPGSV,4,4,14,29,02,323,,30,09,120,23*7F
$GPGLL,2458.04953,N,12111.31980,E,091351.00,A,A*67
$GPRMC,091352.00,A,2458.04901,N,12111.31968,E,0.811,,090621,,,A*78
$GPVTG,,T,,M,0.811,N,1.502,K,A*2D
$GPGGA,091352.00,2458.04901,N,12111.31968,E,1,12,0.68,135.9,M,16.4,M,,*50
$GPGSA,A,3,02,06,05,19,20,12,13,07,09,17,25,15,1.37,0.68,1.19*01
$GPGSV,4,1,14,02,57,006,21,05,43,274,20,06,45,067,17,07,05,084,18*7A
$GPGSV,4,2,14,09,15,041,08,12,22,256,21,13,30,185,42,15,07,209,29*73
$GPGSV,4,3,14,17,12,149,28,19,34,150,37,20,37,275,09,25,09,289,15*71
$GPGSV,4,4,14,29,02,323,,30,09,120,23*7F
$GPGLL,2458.04901,N,12111.31968,E,091352.00,A,A*65
$GPRMC,091353.00,A,2458.04912,N,12111.31929,E,1.272,,090621,,,A*70
$GPVTG,,T,,M,1.272,N,2.355,K,A*24
$GPGGA,091353.00,2458.04912,N,12111.31929,E,1,12,0.68,134.6,M,16.4,M,,*58
$GPGSA,A,3,02,06,05,19,20,12,13,07,09,17,25,15,1.37,0.68,1.19*01
$GPGSV,4,1,14,02,57,006,22,05,43,274,18,06,45,067,16,07,05,084,18*73
$GPGSV,4,2,14,09,15,041,08,12,22,256,22,13,30,185,41,15,07,209,29*73
$GPGSV,4,3,14,17,12,149,27,19,34,150,37,20,37,275,09,25,09,289,15*7E
$GPGSV,4,4,14,29,02,323,,30,09,120,22*7E
$GPGLL,2458.04912,N,12111.31929,E,091353.00,A,A*63
$GPRMC,091354.00,A,2458.04935,N,12111.31889,E,0.834,,090621,,,A*70
$GPVTG,,T,,M,0.834,N,1.545,K,A*29
$GPGGA,091354.00,2458.04935,N,12111.31889,E,1,12,0.71,134.5,M,16.4,M,,*5A
$GPGSA,A,3,02,06,05,19,20,12,13,07,09,17,25,15,1.63,0.71,1.47*03
$GPGSV,4,1,14,02,57,006,22,05,43,274,16,06,45,067,15,07,05,084,17*71
$GPGSV,4,2,14,09,15,041,08,12,22,256,22,13,30,185,41,15,07,209,30*7B
$GPGSV,4,3,14,17,12,149,28,19,34,150,38,20,37,275,09,25,09,289,13*78
$GPGSV,4,4,14,29,02,323,,30,09,120,22*7E
$GPGLL,2458.04935,N,12111.31889,E,091354.00,A,A*6A
$GPRMC,091355.00,A,2458.04928,N,12111.31870,E,0.721,,090621,,,A*70
$GPVTG,,T,,M,0.721,N,1.336,K,A*20
$GPGGA,091355.00,2458.04928,N,12111.31870,E,1,12,0.69,133.9,M,16.4,M,,*53
$GPGSA,A,3,02,06,05,19,20,12,13,07,09,17,25,15,1.42,0.69,1.24*0C
$GPGSV,4,1,14,02,57,006,22,05,43,274,12,06,45,067,16,07,05,084,16*77
$GPGSV,4,2,14,09,15,041,08,12,22,256,22,13,30,185,43,15,07,209,30*79
$GPGSV,4,3,14,17,12,149,28,19,34,150,38,20,37,275,09,25,09,289,13*78
$GPGSV,4,4,14,29,02,323,,30,09,120,22*7E
$GPGLL,2458.04928,N,12111.31870,E,091355.00,A,A*61
$GPRMC,091356.00,A,2458.04926,N,12111.31840,E,0.820,,090621,,,A*70
$GPVTG,,T,,M,0.820,N,1.518,K,A*24
$GPGGA,091356.00,2458.04926,N,12111.31840,E,1,12,0.68,133.1,M,16.4,M,,*54
$GPGSA,A,3,02,06,05,19,20,12,13,07,09,17,25,15,1.37,0.68,1.19*01
$GPGSV,4,1,14,02,57,006,22,05,43,274,10,06,45,067,16,07,05,084,15*76
$GPGSV,4,2,14,09,15,041,12,12,22,256,21,13,30,185,42,15,07,209,30*70
$GPGSV,4,3,14,17,12,149,26,19,34,150,38,20,37,275,14,25,09,289,15*7C
$GPRMC,091410.00,A,2458.05775,N,12111.31451,E,0.715,,090621,,,A*79
$GPVTG,,T,,M,0.715,N,1.325,K,A*25
$GPGGA,091410.00,2458.05775,N,12111.31451,E,1,11,0.93,124.2,M,16.4,M,,*56
$GPGSA,A,3,06,05,19,20,12,13,09,17,25,15,30,,2.07,0.93,1.85*06
$GPGSV,4,1,14,02,57,006,,05,43,274,07,06,45,067,23,07,05,084,09*7B
$GPGSV,4,2,14,09,15,041,14,12,22,256,22,13,30,185,40,15,07,209,27*71
$GPGSV,4,3,14,17,12,149,30,19,34,150,36,20,37,275,16,25,09,289,10*72
$GPGSV,4,4,14,29,02,323,,30,09,120,22*7E
$GPGLL,2458.05775,N,12111.31451,E,091410.00,A,A*6F
$GPRMC,091411.00,A,2458.05728,N,12111.31461,E,0.137,,090621,,,A*75
$GPVTG,,T,,M,0.137,N,0.254,K,A*25
$GPGGA,091411.00,2458.05728,N,12111.31461,E,1,12,0.93,124.7,M,16.4,M,,*5A
$GPGSA,A,3,06,05,19,20,12,13,07,09,17,25,15,30,2.07,0.93,1.85*01
$GPGSV,4,1,14,02,57,006,,05,43,274,07,06,45,067,22,07,05,084,10*72
$GPGSV,4,2,14,09,15,041,14,12,22,256,21,13,30,185,40,15,07,209,28*7D
$GPGSV,4,3,14,17,12,149,25,19,34,150,37,20,37,275,16,25,09,289,11*76
$GPGSV,4,4,14,29,02,323,,30,09,120,22*7E
$GPGLL,2458.05728,N,12111.31461,E,091411.00,A,A*65
$GPRMC,091412.00,A,2458.05609,N,12111.31495,E,1.011,,090621,,,A*7B
$GPVTG,,T,,M,1.011,N,1.872,K,A*2E
$GPGGA,091412.00,2458.05609,N,12111.31495,E,1,12,0.81,125.3,M,16.4,M,,*56
$GPGSA,A,3,06,05,19,20,12,13,07,09,17,25,15,30,1.80,0.81,1.61*04
$GPGSV,4,1,14,02,57,006,,05,43,274,07,06,45,067,22,07,05,084,10*72
$GPGSV,4,2,14,09,15,041,14,12,22,256,21,13,30,185,40,15,07,209,28*7D
$GPGSV,4,3,14,17,12,149,26,19,34,150,37,20,37,275,15,25,09,289,11*76
$GPGSV,4,4,14,29,02,323,,30,09,120,22*7E
$GPGLL,2458.05609,N,12111.31495,E,091412.00,A,A*6F
$GPRMC,091413.00,A,2458.05564,N,12111.31488,E,0.882,,090621,,,A*7D
$GPVTG,,T,,M,0.882,N,1.634,K,A*21
$GPGGA,091413.00,2458.05564,N,12111.31488,E,1,12,0.71,125.5,M,16.4,M,,*5A
$GPGSA,A,3,06,05,19,20,12,13,07,09,17,25,15,30,1.63,0.71,1.47*02
$GPGSV,4,1,14,02,57,006,,05,43,274,07,06,45,067,21,07,05,084,12*73
$GPGSV,4,2,14,09,15,041,14,12,22,256,20,13,30,185,40,15,07,209,28*7C
$GPGSV,4,3,14,17,12,149,26,19,34,150,38,20,37,275,13,25,09,289,11*7F
$GPGSV,4,4,14,29,02,323,,30,09,120,22*7E
$GPGLL,2458.05564,N,12111.31488,E,091413.00,A,A*6A
$GPRMC,091414.00,A,2458.05517,N,12111.31490,E,0.601,,090621,,,A*72
$GPVTG,,T,,M,0.601,N,1.114,K,A*21
$GPGGA,091414.00,2458.05517,N,12111.31490,E,1,11,0.71,125.6,M,16.4,M,,*50
$GPGSA,A,3,06,19,20,12,13,07,09,17,25,15,30,,1.63,0.71,1.47*07
$GPGSV,4,1,14,02,57,006,,05,43,274,06,06,45,067,21,07,05,084,13*73
$GPGSV,4,2,14,09,15,041,12,12,22,256,19,13,30,185,40,15,07,209,28*70
$GPGSV,4,3,14,17,12,149,26,19,34,150,39,20,37,275,14,25,09,289,11*79
$GPGSV,4,4,14,29,02,323,,30,09,120,23*7F
$GPGLL,2458.05517,N,12111.31490,E,091414.00,A,A*60
$GPRMC,091415.00,A,2458.05460,N,12111.31489,E,0.514,,090621,,,A*7D
$GPVTG,,T,,M,0.514,N,0.952,K,A*2D
$GPGGA,091415.00,2458.05460,N,12111.31489,E,1,12,0.71,126.2,M,16.4,M,,*5C
$GPGSA,A,3,02,06,19,20,12,13,07,09,17,25,15,30,1.63,0.71,1.47*05
$GPGSV,4,1,14,02,57,006,21,05,43,274,06,06,45,067,22,07,05,084,12*72
$GPGSV,4,2,14,09,15,041,12,12,22,256,18,13,30,185,41,15,07,209,29*71
$GPGSV,4,3,14,17,12,149,25,19,34,150,39,20,37,275,12,25,09,289,10*7D
$GPGSV,4,4,14,29,02,323,,30,09,120,23*7F
$GPGLL,2458.05460,N,12111.31489,E,091415.00,A,A*68
$GPRMC,091416.00,A,2458.05420,N,12111.31493,E,0.426,,090621,,,A*71
$GPVTG,,T,,M,0.426,N,0.790,K,A*2D
$GPGGA,091416.00,2458.05420,N,12111.31493,E,1,09,0.93,126.7,M,16.4,M,,*53
$GPGSA,A,3,02,06,19,12,13,09,17,15,30,,,,2.07,0.93,1.85*04
$GPGSV,4,1,14,02,57,006,21,05,43,274,,06,45,067,22,07,05,084,09*7E
$GPGSV,4,2,14,09,15,041,12,12,22,256,18,13,30,185,39,15,07,209,29*7E
$GPGSV,4,3,14,17,12,149,24,19,34,150,37,20,37,275,09,25,09,289,09*70
$GPGSV,4,4,14,29,02,323,,30,09,120,23*7F
$GPGLL,2458.05420,N,12111.31493,E,091416.00,A,A*64
$GPRMC,091417.00,A,2458.05431,N,12111.31471,E,1.022,,090621,,,A*7D
$GPVTG,,T,,M,1.022,N,1.892,K,A*20
$GPGGA,091417.00,2458.05431,N,12111.31471,E,1,11,0.76,126.1,M,16.4,M,,*5A
$GPGSA,A,3,02,06,05,19,12,13,09,17,25,15,30,,1.61,0.76,1.42*05
$GPGSV,4,1,14,02,57,006,21,05,43,274,19,06,45,067,22,07,05,084,08*77
$GPGSV,4,2,14,09,15,041,12,12,22,256,20,13,30,185,40,15,07,209,29*7B
$GPGSV,4,3,14,17,12,149,30,19,34,150,37,20,37,275,08,25,09,289,13*7F
$GPGSV,4,4,14,29,02,323,,30,09,120,23*7F
$GPGLL,2458.05431,N,12111.31471,E,091417.00,A,A*69
$GPRMC,091418.00,A,2458.05435,N,12111.31455,E,1.778,339.18,090621,,,A*66
$GPVTG,339.18,T,,M,1.778,N,3.293,K,A*3F
$GPGGA,091418.00,2458.05435,N,12111.31455,E,1,11,0.76,125.2,M,16.4,M,,*57
$GPGSA,A,3,02,06,05,19,12,13,09,17,25,15,30,,1.61,0.76,1.42*05
$GPGSV,4,1,14,02,57,006,21,05,43,274,18,06,45,067,21,07,05,084,08*75
$GPGSV,4,2,14,09,15,041,12,12,22,256,20,13,30,185,40,15,07,209,29*7B
$GPGSV,4,3,14,17,12,149,30,19,34,150,39,20,37,275,08,25,09,289,14*76
$GPGSV,4,4,14,29,02,323,,30,09,120,22*7E
$GPGLL,2458.05435,N,12111.31455,E,091418.00,A,A*64
$GPRMC,091419.00,A,2458.05377,N,12111.31465,E,1.305,,090621,,,A*75
$GPVTG,,T,,M,1.305,N,2.417,K,A*24
$GPGGA,091419.00,2458.05377,N,12111.31465,E,1,10,0.89,124.9,M,16.4,M,,*5F
$GPGSA,A,3,02,06,05,19,12,13,09,17,15,30,,,1.80,0.89,1.56*08
$GPGSV,4,1,14,02,57,006,22,05,43,274,19,06,45,067,22,07,05,084,*7C
$GPGSV,4,2,14,09,15,041,12,12,22,256,21,13,30,185,39,15,07,209,30*7C
$GPGSV,4,3,14,17,12,149,29,19,34,150,37,20,37,275,,25,09,289,*7D
$GPGSA,A,3,02,06,05,19,20,12,13,09,17,15,30,,1.74,0.84,1.52*08
$GPGSV,4,1,14,02,57,006,22,05,43,274,23,06,45,067,18,07,05,084,*7C
$GPGSV,4,2,14,09,15,041,16,12,22,256,19,13,30,185,41,15,07,209,30*7C
$GPGSV,4,3,14,17,12,149,27,19,34,150,38,20,37,275,17,25,09,289,*7A
$GPGSV,4,4,14,29,02,323,,30,09,120,23*7F
$GPGLL,2458.05056,N,12111.31533,E,091423.00,A,A*6C
$GPRMC,091424.00,A,2458.04980,N,12111.31550,E,0.771,,090621,,,A*79
$GPVTG,,T,,M,0.771,N,1.429,K,A*2C
$GPGGA,091424.00,2458.04980,N,12111.31550,E,1,11,0.84,124.4,M,16.4,M,,*54
$GPGSA,A,3,02,06,05,19,20,12,13,09,17,15,30,,1.74,0.84,1.52*08
$GPGSV,4,1,14,02,57,006,22,05,43,274,24,06,45,067,17,07,05,084,*74
$GPGSV,4,2,14,09,15,041,12,12,22,256,20,13,30,185,40,15,07,209,29*7B
$GPGSV,4,3,14,17,12,149,27,19,34,150,39,20,37,275,15,25,09,289,*79
$GPGSV,4,4,14,29,02,323,,30,09,120,24*78
$GPGLL,2458.04980,N,12111.31550,E,091424.00,A,A*6D
$GPRMC,091425.00,A,2458.04940,N,12111.31558,E,0.166,,090621,,,A*7C
$GPVTG,,T,,M,0.166,N,0.307,K,A*26
$GPGGA,091425.00,2458.04940,N,12111.31558,E,1,11,0.84,123.9,M,16.4,M,,*5B
$GPGSA,A,3,02,06,05,19,20,12,13,09,17,15,30,,1.74,0.84,1.52*08
$GPGSV,4,1,14,02,57,006,22,05,43,274,24,06,45,067,16,07,05,084,*75
$GPGSV,4,2,14,09,15,041,16,12,22,256,21,13,30,185,41,15,07,209,29*7F
$GPGSV,4,3,14,17,12,149,25,19,34,150,38,20,37,275,15,25,09,289,*7A
$GPGSV,4,4,14,29,02,323,,30,09,120,23*7F
$GPGLL,2458.04940,N,12111.31558,E,091425.00,A,A*68
$GPRMC,091426.00,A,2458.04890,N,12111.31569,E,0.383,,090621,,,A*78
$GPVTG,,T,,M,0.383,N,0.710,K,A*2D
$GPGGA,091426.00,2458.04890,N,12111.31569,E,1,11,0.82,123.9,M,16.4,M,,*50
$GPGSA,A,3,02,06,05,19,20,12,13,09,17,15,30,,1.86,0.82,1.67*05
$GPGSV,4,1,14,02,57,006,22,05,43,274,23,06,45,067,15,07,05,084,*71
$GPGSV,4,2,14,09,15,041,18,12,22,256,21,13,30,185,41,15,07,209,29*71
$GPGSV,4,3,14,17,12,149,24,19,34,150,39,20,37,275,15,25,09,289,*7A
$GPGSV,4,4,14,29,02,323,,30,09,120,23*7F
$GPGLL,2458.04890,N,12111.31569,E,091426.00,A,A*65
$GPRMC,091427.00,A,2458.04858,N,12111.31581,E,0.115,,090621,,,A*76
$GPVTG,,T,,M,0.115,N,0.212,K,A*27
$GPGGA,091427.00,2458.04858,N,12111.31581,E,1,11,0.82,124.1,M,16.4,M,,*5C
$GPGSA,A,3,02,06,05,19,20,12,13,09,17,15,30,,1.86,0.82,1.67*05
$GPGSV,4,1,14,02,57,006,22,05,43,274,24,06,45,067,14,07,05,084,*77
$GPGSV,4,2,14,09,15,041,18,12,22,256,21,13,30,185,41,15,07,209,29*71
$GPGSV,4,3,14,17,12,149,24,19,34,150,39,20,37,275,17,25,09,289,*78
$GPGSV,4,4,14,29,02,323,,30,09,120,22*7E
$GPGLL,2458.04858,N,12111.31581,E,091427.00,A,A*66
$GPRMC,091428.00,A,2458.04793,N,12111.31603,E,0.133,,090621,,,A*7C
$GPVTG,,T,,M,0.133,N,0.247,K,A*23
$GPGGA,091428.00,2458.04793,N,12111.31603,E,1,11,0.80,123.7,M,16.4,M,,*51
$GPGSA,A,3,02,06,05,19,20,12,13,09,17,15,30,,1.72,0.80,1.52*0A
$GPGSV,4,1,14,02,57,006,22,05,43,274,24,06,45,067,15,07,05,084,*76
$GPGSV,4,2,14,09,15,041,18,12,22,256,20,13,30,185,39,15,07,209,30*77
$GPGSV,4,3,14,17,12,149,25,19,34,150,39,20,37,275,18,25,09,289,*76
$GPGSV,4,4,14,29,02,323,,30,09,120,21*7D
$GPGLL,2458.04793,N,12111.31603,E,091428.00,A,A*68
$GPRMC,091429.00,A,2458.04699,N,12111.31616,E,0.700,,090621,,,A*74
$GPVTG,,T,,M,0.700,N,1.296,K,A*28
$GPGGA,091429.00,2458.04699,N,12111.31616,E,1,11,0.80,124.0,M,16.4,M,,*5F
$GPGSA,A,3,02,06,05,19,20,12,13,09,17,15,30,,1.72,0.80,1.52*0A
$GPGSV,4,1,14,02,57,006,22,05,43,274,24,06,45,067,15,07,05,084,*76
$GPGSV,4,2,14,09,15,041,19,12,22,256,20,13,30,185,39,15,07,209,29*7E
$GPGSV,4,3,14,17,12,149,27,19,34,150,39,20,37,275,15,25,09,289,*79
$GPGSV,4,4,14,29,02,323,,30,09,120,22*7E
$GPGLL,2458.04699,N,12111.31616,E,091429.00,A,A*66
$GPRMC,091430.00,A,2458.04633,N,12111.31631,E,0.480,,090621,,,A*72
$GPVTG,,T,,M,0.480,N,0.889,K,A*26
$GPGGA,091430.00,2458.04633,N,12111.31631,E,1,11,0.80,123.9,M,16.4,M,,*5C
$GPGSA,A,3,02,06,05,19,20,12,13,09,17,15,30,,1.72,0.80,1.52*0A
$GPGSV,4,1,14,02,57,006,22,05,43,274,23,06,45,067,16,07,05,084,*72
$GPGSV,4,2,14,09,15,041,19,12,22,256,20,13,30,185,38,15,07,209,28*7E
$GPGSV,4,3,14,17,12,149,27,19,34,150,39,20,37,275,14,25,09,289,*78
$GPGSV,4,4,14,29,02,323,,30,09,120,22*7E
$GPGLL,2458.04633,N,12111.31631,E,091430.00,A,A*6B
$GPRMC,091503.00,A,2458.03930,N,12111.31769,E,0.236,,090621,,,A*7F
$GPVTG,,T,,M,0.236,N,0.438,K,A*2B
$GPGGA,091503.00,2458.03930,N,12111.31769,E,1,11,0.82,131.0,M,16.4,M,,*52
$GPGSA,A,3,02,19,20,12,13,07,09,17,25,15,30,,1.61,0.82,1.39*04
$GPGSV,4,1,14,02,57,007,20,05,43,275,09,06,45,067,08,07,05,083,13*72
$GPGSV,4,2,14,09,14,041,14,12,22,255,23,13,30,185,40,15,07,209,29*7C
$GPGSV,4,3,14,17,12,149,25,19,33,150,39,20,37,276,15,25,09,289,08*77
$GPGSV,4,4,14,29,02,323,,30,09,120,20*7C
$GPGLL,2458.03930,N,12111.31769,E,091503.00,A,A*6D
$GPRMC,091504.00,A,2458.03999,N,12111.31769,E,1.424,,090621,,,A*7F
$GPVTG,,T,,M,1.424,N,2.637,K,A*20
$GPGGA,091504.00,2458.03999,N,12111.31769,E,1,12,0.77,131.4,M,16.4,M,,*5B
$GPGSA,A,3,02,06,05,19,20,12,13,07,09,17,25,15,1.48,0.77,1.26*0B
$GPGSV,4,1,14,02,57,007,21,05,43,275,13,06,45,067,16,07,05,083,13*77
$GPGSV,4,2,14,09,14,041,15,12,22,255,24,13,30,185,37,15,07,209,29*7A
$GPGSV,4,3,14,17,12,149,24,19,33,150,33,20,37,276,17,25,09,289,09*7F
$GPGSV,4,4,14,29,02,323,,30,09,120,21*7D
$GPGLL,2458.03999,N,12111.31769,E,091504.00,A,A*69
$GPRMC,091505.00,A,2458.04036,N,12111.31795,E,0.987,,090621,,,A*73
$GPVTG,,T,,M,0.987,N,1.828,K,A*26
$GPGGA,091505.00,2458.04036,N,12111.31795,E,1,12,0.68,130.4,M,16.4,M,,*5D
$GPGSA,A,3,02,06,05,19,20,12,13,07,09,17,25,15,1.37,0.68,1.19*01
$GPGSV,4,1,14,02,57,007,20,05,43,275,14,06,45,067,19,07,05,083,12*7F
$GPGSV,4,2,14,09,14,041,16,12,22,255,24,13,30,185,37,15,07,209,28*78
$GPGSV,4,3,14,17,12,149,23,19,33,150,35,20,37,276,18,25,09,289,10*79
$GPGSV,4,4,14,29,02,323,,30,09,120,20*7C
$GPGLL,2458.04036,N,12111.31795,E,091505.00,A,A*60
$GPRMC,091506.00,A,2458.04058,N,12111.31820,E,0.802,,090621,,,A*75
$GPVTG,,T,,M,0.802,N,1.485,K,A*21
$GPGGA,091506.00,2458.04058,N,12111.31820,E,1,12,0.70,129.7,M,16.4,M,,*55
$GPGSA,A,3,02,06,05,19,20,12,13,07,09,17,25,15,1.53,0.70,1.36*07
$GPGSV,4,1,14,02,57,007,21,05,43,275,13,06,45,067,20,07,05,083,13*72
$GPGSV,4,2,14,09,14,041,15,12,22,255,23,13,30,185,37,15,07,209,28*7C
$GPGSV,4,3,14,17,12,149,21,19,33,150,35,20,37,276,18,25,09,289,10*7B
$GPGSV,4,4,14,29,03,323,,30,09,120,18*76
$GPGLL,2458.04058,N,12111.31820,E,091506.00,A,A*6A
$GPRMC,091507.00,A,2458.04076,N,12111.31842,E,0.265,,090621,,,A*77
$GPVTG,,T,,M,0.265,N,0.491,K,A*2E
$GPGGA,091507.00,2458.04076,N,12111.31842,E,1,12,0.78,128.7,M,16.4,M,,*55
$GPGSA,A,3,02,06,05,19,20,12,13,07,09,17,15,30,1.73,0.78,1.54*0D
$GPGSV,4,1,14,02,57,007,18,05,43,275,13,06,45,067,20,07,05,083,13*78
$GPGSV,4,2,14,09,14,041,17,12,22,255,23,13,30,185,38,15,07,209,28*71
$GPGSV,4,3,14,17,12,149,21,19,33,150,35,20,37,276,18,25,09,289,*7A
$GPGSV,4,4,14,29,03,323,,30,10,119,18*74
$GPGLL,2458.04076,N,12111.31842,E,091507.00,A,A*63
$GPRMC,091508.00,A,2458.04082,N,12111.31860,E,0.233,,090621,,,A*70
$GPVTG,,T,,M,0.233,N,0.431,K,A*27
$GPGGA,091508.00,2458.04082,N,12111.31860,E,1,12,0.82,128.1,M,16.4,M,,*52
$GPGSA,A,3,02,06,05,19,20,12,13,07,09,17,15,30,1.86,0.82,1.67*02
$GPGSV,4,1,14,02,57,007,16,05,43,275,12,06,45,067,21,07,05,083,09*7D
$GPGSV,4,2,14,09,14,041,17,12,22,255,23,13,30,185,38,15,07,209,27*7E
$GPGSV,4,3,14,17,12,149,22,19,33,150,35,20,37,276,12,25,09,289,*73
$GPGSV,4,4,14,29,03,323,,30,10,119,18*74
$GPGLL,2458.04082,N,12111.31860,E,091508.00,A,A*67
$GPRMC,091509.00,A,2458.04097,N,12111.31887,E,0.535,,090621,,,A*7D
$GPVTG,,T,,M,0.535,N,0.991,K,A*21
$GPGGA,091509.00,2458.04097,N,12111.31887,E,1,12,0.82,127.3,M,16.4,M,,*53
$GPGSA,A,3,02,06,05,19,20,12,13,07,09,17,15,30,1.86,0.82,1.67*02
$GPGSV,4,1,14,02,57,007,15,05,43,275,12,06,45,067,21,07,05,083,09*7E
$GPGSV,4,2,14,09,14,041,18,12,22,255,23,13,30,185,38,15,07,209,27*71
$GPGSV,4,3,14,17,12,149,22,19,33,150,35,20,37,276,12,25,09,289,*73
$GPGSV,4,4,14,29,03,323,,30,10,119,18*74
$GPGLL,2458.04097,N,12111.31887,E,091509.00,A,A*6B
$GPRMC,091510.00,A,2458.04106,N,12111.31912,E,0.832,,090621,,,A*7B
$GPVTG,,T,,M,0.832,N,1.541,K,A*2B
$GPGGA,091510.00,2458.04106,N,12111.31912,E,1,12,0.80,126.7,M,16.4,M,,*58
$GPGSA,A,3,02,06,05,19,20,12,13,07,09,17,15,30,1.72,0.80,1.52*0D
$GPGSV,4,1,14,02,57,007,15,05,43,275,12,06,45,067,21,07,05,083,10*76
$GPGSV,4,2,14,09,14,041,19,12,22,255,24,13,30,185,39,15,07,209,28*79
$GPGSV,4,3,14,17,12,149,23,19,33,150,36,20,37,276,12,25,09,289,*71
$GPGSV,4,4,14,29,03,323,,30,10,119,18*74
$GPGLL,2458.04106,N,12111.31912,E,091510.00,A,A*67
$GPRMC,091511.00,A,2458.04098,N,12111.31937,E,1.117,,090621,,,A*74
$GPVTG,,T,,M,1.117,N,2.068,K,A*29
$GPGGA,091511.00,2458.04098,N,12111.31937,E,1,12,0.80,126.0,M,16.4,M,,*5F
$GPGSA,A,3,02,06,05,19,20,12,13,07,09,17,15,30,1.72,0.80,1.52*0D
$GPGSV,4,1,14,02,57,007,13,05,43,275,12,06,45,067,22,07,05,083,10*73
$GPGSV,4,2,14,09,14,041,20,12,22,255,23,13,30,185,38,15,07,209,28*75
$GPGSV,4,3,14,17,12,149,23,19,33,150,36,20,37,276,12,25,09,289,*71
$GPGSV,4,4,14,29,03,323,,30,10,119,19*75
$GPGLL,2458.04098,N,12111.31937,E,091511.00,A,A*67
$GPRMC,091512.00,A,2458.04124,N,12111.31953,E,0.207,,090621,,,A*70
$GPGSV,4,1,14,02,57,007,21,05,43,275,19,06,45,067,09,07,05,083,*71
$GPGSV,4,2,14,09,14,041,16,12,22,255,22,13,30,185,40,15,07,209,27*71
$GPGSV,4,3,14,17,12,149,26,19,34,150,40,20,37,275,07,25,09,289,16*72
$GPGSV,4,4,14,29,02,323,,30,09,120,18*77
$GPGLL,2458.04101,N,12111.31743,E,091453.00,A,A*6C
$GPRMC,091454.00,A,2458.04035,N,12111.31762,E,0.946,,090621,,,A*70
$GPVTG,,T,,M,0.946,N,1.752,K,A*29
$GPGGA,091454.00,2458.04035,N,12111.31762,E,1,12,0.75,128.3,M,16.4,M,,*51
$GPGSA,A,3,02,06,05,19,20,12,13,09,17,25,15,30,1.56,0.75,1.36*03
$GPGSV,4,1,14,02,57,007,20,05,43,275,19,06,45,067,09,07,05,083,*70
$GPGSV,4,2,14,09,14,041,13,12,22,255,21,13,30,185,40,15,07,209,27*77
$GPGSV,4,3,14,17,12,149,26,19,34,150,38,20,37,275,07,25,09,289,16*7D
$GPGSV,4,4,14,29,02,323,,30,09,120,19*76
$GPGLL,2458.04035,N,12111.31762,E,091454.00,A,A*6E
$GPRMC,091455.00,A,2458.04000,N,12111.31775,E,0.869,,090621,,,A*7D
$GPVTG,,T,,M,0.869,N,1.609,K,A*2A
$GPGGA,091455.00,2458.04000,N,12111.31775,E,1,12,0.83,128.1,M,16.4,M,,*5B
$GPGSA,A,3,02,06,05,19,20,12,13,09,17,25,15,30,1.79,0.83,1.58*0F
$GPGSV,4,1,14,02,57,007,21,05,43,275,19,06,45,067,08,07,05,083,*70
$GPGSV,4,2,14,09,14,041,13,12,22,255,21,13,30,185,39,15,07,209,27*79
$GPGSV,4,3,14,17,12,149,26,19,34,150,38,20,37,275,07,25,09,289,15*7E
$GPGSV,4,4,14,29,02,323,,30,09,120,20*7C
$GPGLL,2458.04000,N,12111.31775,E,091455.00,A,A*6F
$GPRMC,091456.00,A,2458.03967,N,12111.31783,E,0.904,,090621,,,A*72
$GPVTG,,T,,M,0.904,N,1.674,K,A*2A
$GPGGA,091456.00,2458.03967,N,12111.31783,E,1,11,1.34,128.1,M,16.4,M,,*50
$GPGSA,A,3,02,06,05,19,20,12,13,17,25,15,30,,3.04,1.34,2.72*08
$GPGSV,4,1,14,02,57,007,21,05,43,275,19,06,45,067,10,07,05,083,*79
$GPGSV,4,2,14,09,14,041,,12,22,255,22,13,30,185,39,15,07,209,27*78
$GPGSV,4,3,14,17,12,149,26,19,33,150,38,20,37,275,10,25,09,289,13*79
$GPGSV,4,4,14,29,02,323,,30,09,120,20*7C
$GPGLL,2458.03967,N,12111.31783,E,091456.00,A,A*6A
$GPRMC,091457.00,A,2458.03941,N,12111.31795,E,0.583,,090621,,,A*73
$GPVTG,,T,,M,0.583,N,1.079,K,A*22
$GPGGA,091457.00,2458.03941,N,12111.31795,E,1,11,0.92,128.4,M,16.4,M,,*5A
$GPGSA,A,3,02,06,05,19,20,12,13,17,25,15,30,,1.78,0.92,1.53*0C
$GPGSV,4,1,14,02,57,007,21,05,43,275,17,06,45,067,10,07,05,083,*77
$GPGSV,4,2,14,09,14,041,,12,22,255,22,13,30,185,39,15,07,209,27*78
$GPGSV,4,3,14,17,12,149,25,19,33,150,37,20,37,276,10,25,09,289,12*77
$GPGSV,4,4,14,29,02,323,,30,09,120,19*76
$GPGLL,2458.03941,N,12111.31795,E,091457.00,A,A*68
$GPRMC,091458.00,A,2458.03907,N,12111.31789,E,0.599,,090621,,,A*78
$GPVTG,,T,,M,0.599,N,1.109,K,A*2F
$GPGGA,091458.00,2458.03907,N,12111.31789,E,1,10,1.15,128.7,M,16.4,M,,*56
$GPGSA,A,3,02,06,05,19,20,12,13,17,15,30,,,2.42,1.15,2.13*08
$GPGSV,4,1,14,02,57,007,21,05,43,275,15,06,45,067,10,07,05,083,*75
$GPGSV,4,2,14,09,14,041,,12,22,255,23,13,30,185,38,15,07,209,28*77
$GPGSV,4,3,14,17,12,149,25,19,33,150,37,20,37,276,10,25,09,289,09*7D
$GPGSV,4,4,14,29,02,323,,30,09,120,19*76
$GPGLL,2458.03907,N,12111.31789,E,091458.00,A,A*68
$GPRMC,091459.00,A,2458.03935,N,12111.31773,E,0.641,,090621,,,A*7B
$GPVTG,,T,,M,0.641,N,1.186,K,A*2E
$GPGGA,091459.00,2458.03935,N,12111.31773,E,1,11,1.15,129.0,M,16.4,M,,*54
$GPGSA,A,3,02,06,05,19,20,12,13,07,17,15,30,,2.42,1.15,2.13*0F
$GPGSV,4,1,14,02,57,007,22,05,43,275,14,06,45,067,10,07,05,083,13*75
$GPGSV,4,2,14,09,14,041,,12,22,255,22,13,30,185,39,15,07,209,28*77
$GPGSV,4,3,14,17,12,149,25,19,33,150,37,20,37,276,10,25,09,289,08*7C
$GPGSV,4,4,14,29,02,323,,30,09,120,20*7C
$GPGLL,2458.03935,N,12111.31773,E,091459.00,A,A*6D
$GPRMC,091500.00,A,2458.03932,N,12111.31769,E,0.382,,090621,,,A*70
$GPVTG,,T,,M,0.382,N,0.708,K,A*25
$GPGGA,091500.00,2458.03932,N,12111.31769,E,1,11,1.15,129.4,M,16.4,M,,*51
$GPGSA,A,3,02,06,05,19,20,12,13,07,17,15,30,,2.42,1.15,2.13*0F
$GPGSV,4,1,14,02,57,007,21,05,43,275,10,06,45,067,10,07,05,083,14*75
$GPGSV,4,2,14,09,14,041,,12,22,255,22,13,30,185,38,15,07,209,28*76
$GPGSV,4,3,14,17,12,149,24,19,33,150,37,20,37,276,10,25,09,289,08*7D
$GPGSV,4,4,14,29,02,323,,30,09,120,21*7D
$GPGLL,2458.03932,N,12111.31769,E,091500.00,A,A*6C
$GPRMC,091515.00,A,2458.04145,N,12111.32014,E,0.188,,090621,,,A*7D
$GPVTG,,T,,M,0.188,N,0.348,K,A*2D
$GPGGA,091515.00,2458.04145,N,12111.32014,E,1,12,0.80,123.1,M,16.4,M,,*55
$GPGSA,A,3,06,05,19,20,12,13,07,09,17,25,15,30,1.76,0.80,1.56*08
$GPGSV,4,1,14,02,57,007,05,05,43,275,22,06,45,067,23,07,05,083,12*74
$GPGSV,4,2,14,09,14,041,22,12,22,255,21,13,30,185,38,15,07,209,29*74
$GPGSV,4,3,14,17,12,149,25,19,33,150,36,20,37,276,24,25,09,289,13*70
$GPGSV,4,4,14,29,03,323,,30,10,119,18*74
$GPGLL,2458.04145,N,12111.32014,E,091515.00,A,A*69
$GPRMC,091516.00,A,2458.04128,N,12111.32026,E,0.529,,090621,,,A*7B
$GPVTG,,T,,M,0.529,N,0.979,K,A*2A
$GPGGA,091516.00,2458.04128,N,12111.32026,E,1,11,0.80,122.5,M,16.4,M,,*5A
$GPGSA,A,3,06,05,19,20,12,13,07,09,17,15,30,,1.76,0.80,1.56*0F
$GPGSV,4,1,14,02,57,007,06,05,43,275,22,06,45,067,23,07,05,083,13*76
$GPGSV,4,2,14,09,14,041,22,12,22,255,19,13,30,185,39,15,07,209,27*70
$GPGSV,4,3,14,17,12,149,24,19,33,150,36,20,37,276,23,25,09,289,09*7D
$GPGSV,4,4,14,29,03,323,,30,10,119,16*7A
$GPGLL,2458.04128,N,12111.32026,E,091516.00,A,A*60
$GPRMC,091517.00,A,2458.04131,N,12111.32042,E,0.587,,090621,,,A*74
$GPVTG,,T,,M,0.587,N,1.086,K,A*26
$GPGGA,091517.00,2458.04131,N,12111.32042,E,1,12,0.79,121.7,M,16.4,M,,*55
$GPGSA,A,3,02,06,05,19,20,12,13,07,09,17,15,30,1.60,0.79,1.39*05
$GPGSV,4,1,14,02,57,007,07,05,43,275,22,06,45,067,23,07,05,083,14*70
$GPGSV,4,2,14,09,14,041,21,12,22,255,18,13,30,185,39,15,07,209,27*72
$GPGSV,4,3,14,17,12,149,23,19,33,150,37,20,37,276,23,25,09,289,09*7B
$GPGSV,4,4,14,29,03,323,,30,10,119,14*78
$GPGLL,2458.04131,N,12111.32042,E,091517.00,A,A*6B
$GPRMC,091518.00,A,2458.04138,N,12111.32047,E,0.653,,090621,,,A*7D
$GPVTG,,T,,M,0.653,N,1.209,K,A*29
$GPGGA,091518.00,2458.04138,N,12111.32047,E,1,12,0.79,121.2,M,16.4,M,,*53
$GPGSA,A,3,02,06,05,19,20,12,13,07,09,17,25,15,1.60,0.79,1.39*01
$GPGSV,4,1,14,02,57,007,07,05,43,275,22,06,45,067,22,07,05,083,14*71
$GPGSV,4,2,14,09,14,041,22,12,22,255,17,13,30,185,40,15,07,209,28*7F
$GPGSV,4,3,14,17,12,149,23,19,33,150,38,20,37,276,22,25,09,289,11*7C
$GPGSV,4,4,14,29,03,323,,30,10,119,15*79
$GPGLL,2458.04138,N,12111.32047,E,091518.00,A,A*68
$GPRMC,091519.00,A,2458.04140,N,12111.32061,E,0.528,,090621,,,A*78
$GPVTG,,T,,M,0.528,N,0.978,K,A*2A
$GPGGA,091519.00,2458.04140,N,12111.32061,E,1,11,0.80,120.3,M,16.4,M,,*5C
$GPGSA,A,3,06,05,19,20,12,13,07,09,17,15,30,,1.76,0.80,1.56*0F
$GPGSV,4,1,14,02,57,007,,05,43,275,22,06,45,067,22,07,05,083,14*76
$GPGSV,4,2,14,09,14,041,22,12,22,255,16,13,30,185,40,15,07,209,28*7E
$GPGSV,4,3,14,17,12,149,22,19,33,150,38,20,37,276,24,25,09,289,*7B
$GPGSV,4,4,14,29,03,323,,30,10,119,15*79
$GPGLL,2458.04140,N,12111.32061,E,091519.00,A,A*62
$GPRMC,091520.00,A,2458.04137,N,12111.32085,E,0.491,,090621,,,A*7B
$GPVTG,,T,,M,0.491,N,0.909,K,A*2F
$GPGGA,091520.00,2458.04137,N,12111.32085,E,1,11,0.80,119.4,M,16.4,M,,*51
$GPGSA,A,3,06,05,19,20,12,13,07,09,17,15,30,,1.76,0.80,1.56*0F
$GPGSV,4,1,14,02,57,007,,05,43,275,23,06,45,067,21,07,05,083,14*74
$GPGSV,4,2,14,09,14,041,22,12,22,255,15,13,30,185,40,15,07,209,29*7C
$GPGSV,4,3,14,17,12,149,22,19,33,150,38,20,37,276,25,25,09,289,*7A
$GPGSV,4,4,14,29,03,323,,30,10,119,19*75
$GPGLL,2458.04137,N,12111.32085,E,091520.00,A,A*62
$GPRMC,091521.00,A,2458.04128,N,12111.32110,E,0.573,,090621,,,A*74
$GPVTG,,T,,M,0.573,N,1.061,K,A*24
$GPGGA,091521.00,2458.04128,N,12111.32110,E,1,12,0.86,118.5,M,16.4,M,,*56
$GPGSA,A,3,02,06,05,19,20,12,13,07,09,17,15,30,1.81,0.86,1.59*0C
$GPGSV,4,1,14,02,57,007,16,05,43,275,22,06,45,067,21,07,05,083,14*72
$GPGSV,4,2,14,09,14,041,22,12,22,255,15,13,30,185,40,15,07,209,29*7C
$GPGSV,4,3,14,17,12,149,21,19,33,150,38,20,37,276,24,25,09,289,*78
$GPGSV,4,4,14,29,03,323,,30,10,119,17*7B
$GPGLL,2458.04128,N,12111.32110,E,091521.00,A,A*60
$GPRMC,091522.00,A,2458.04132,N,12111.32130,E,0.654,,090621,,,A*78
$GPVTG,,T,,M,0.654,N,1.212,K,A*24
$GPGGA,091522.00,2458.04132,N,12111.32130,E,1,12,0.80,117.8,M,16.4,M,,*58
$GPGSA,A,3,02,06,05,19,20,12,13,07,09,17,15,30,1.76,0.80,1.56*0D
$GPGSV,4,1,14,02,57,007,15,05,43,275,22,06,45,067,21,07,05,083,14*71
$GPGSV,4,2,14,09,14,041,22,12,22,255,14,13,30,185,40,15,07,209,29*7D
$GPGSV,4,3,14,17,12,149,20,19,33,150,38,20,37,276,25,25,09,289,*78
$GPGSV,4,4,14,29,03,323,,30,10,119,16*7A
$GPGLL,2458.04132,N,12111.32130,E,091522.00,A,A*6A
$GPRMC,091523.00,A,2458.04152,N,12111.32150,E,0.877,,090621,,,A*76
$GPVTG,,T,,M,0.877,N,1.624,K,A*2A
$GPGGA,091523.00,2458.04152,N,12111.32150,E,1,12,0.86,116.7,M,16.4,M,,*51
$GPGSA,A,3,02,06,05,19,20,12,13,07,09,17,15,30,1.81,0.86,1.59*0C
$GPGSV,4,1,14,02,57,007,15,05,43,275,22,06,45,067,21,07,05,083,14*71
$GPGSV,4,2,14,09,14,041,22,12,22,255,15,13,30,185,40,15,07,209,29*7C
$GPGSV,4,3,14,17,12,149,19,19,33,150,37,20,37,276,25,25,09,289,*7D
$GPGSV,4,1,14,02,57,007,,05,43,275,20,06,45,067,18,07,05,083,13*7A
$GPGSV,4,2,14,09,14,041,21,12,22,255,14,13,
$GPGSV,4,3,14,17,12,149,20,19,33,150,40,20,37,276,26,25,09,289,*74
$GPGSV,4,4,14,29,03,323,,30,10,119,19*75
$GPGLL,2458.04211,N,12111.32242,E,091527.00,A,A*6B
$GPRMC,091528.00,A,2458.04208,N,12111.32258,E,0.294,,090621,,,A*7D
$GPVTG,,T,,M,0.294,N,0.544,K,A*29
$GPGGA,091528.00,2458.04208,N,12111.32258,E,1,11,0.85,111.5,M,16.4,M,,*58
$GPGSA,A,3,06,05,19,20,12,13,07,09,17,15,30,,1.90,0.85,1.71*07
$GPGSV,4,1,14,02,57,007,,05,43,275,20,06,45,067,17,07,05,083,13*75
$GPGSV,4,2,14,09,14,041,22,12,22,255,17,13,30,185,42,15,07,209,31*75
$GPGSV,4,3,14,17,12,149,23,19,33,150,40,20,37,276,28,25,09,289,*79
$GPGSV,4,4,14,29,03,323,,30,10,119,20*7F
$GPGLL,2458.04208,N,12111.32258,E,091528.00,A,A*67
$GPRMC,091529.00,A,2458.04205,N,12111.32275,E,0.072,,090621,,,A*74
$GPVTG,,T,,M,0.072,N,0.133,K,A*27
$GPGGA,091529.00,2458.04205,N,12111.32275,E,1,11,0.85,111.1,M,16.4,M,,*5F
$GPGSA,A,3,06,05,19,20,12,13,07,09,17,15,30,,1.90,0.85,1.71*07
$GPGSV,4,1,14,02,57,007,,05,43,275,20,06,45,067,17,07,05,083,12*74
$GPGSV,4,2,14,09,14,041,22,12,22,255,17,13,30,185,41,15,07,209,30*77
$GPGSV,4,3,14,17,12,149,20,19,33,150,38,20,37,276,27,25,09,289,*7A
$GPGSV,4,4,14,29,03,323,,30,10,119,20*7F
$GPGLL,2458.04205,N,12111.32275,E,091529.00,A,A*64
$GPRMC,091530.00,A,2458.04209,N,12111.32295,E,0.168,,090621,,,A*74
$GPVTG,,T,,M,0.168,N,0.311,K,A*2F
$GPGGA,091530.00,2458.04209,N,12111.32295,E,1,11,0.85,110.7,M,16.4,M,,*52
$GPGSA,A,3,02,06,05,19,20,12,13,07,09,15,30,,1.90,0.85,1.71*03
$GPGSV,4,1,14,02,57,007,24,05,43,275,21,06,45,067,16,07,05,083,12*72
$GPGSV,4,2,14,09,14,041,22,12,22,255,17,13,30,185,41,15,07,209,29*7F
$GPGSV,4,3,14,17,12,149,,19,33,150,38,20,37,276,28,25,09,289,*77
$GPGSV,4,4,14,29,03,323,,30,10,119,20*7F
$GPGLL,2458.04209,N,12111.32295,E,091530.00,A,A*6E
$GPRMC,091531.00,A,2458.04218,N,12111.32311,E,0.239,,090621,,,A*7F
$GPVTG,,T,,M,0.239,N,0.443,K,A*28
$GPGGA,091531.00,2458.04218,N,12111.32311,E,1,10,0.85,110.2,M,16.4,M,,*5A
$GPGSA,A,3,02,06,05,19,20,12,13,09,15,30,,,1.90,0.85,1.71*04
$GPGSV,4,1,14,02,57,007,23,05,43,275,20,06,45,067,17,07,05,083,*76
$GPGSV,4,2,14,09,14,041,22,12,22,255,17,13,30,185,40,15,07,209,29*7E
$GPGSV,4,3,14,17,12,149,,19,33,150,38,20,37,276,28,25,09,289,*77
$GPGSV,4,4,14,29,03,323,,30,10,119,19*75
$GPGLL,2458.04218,N,12111.32311,E,091531.00,A,A*62
$GPRMC,091532.00,A,2458.04203,N,12111.32322,E,0.294,,090621,,,A*71
$GPVTG,,T,,M,0.294,N,0.545,K,A*28
$GPGGA,091532.00,2458.04203,N,12111.32322,E,1,10,0.85,109.9,M,16.4,M,,*50
$GPGSA,A,3,02,06,05,19,20,12,13,09,15,30,,,1.90,0.85,1.71*04
$GPGSV,4,1,14,02,57,007,20,05,43,275,19,06,45,067,18,07,05,083,*70
$GPGSV,4,2,14,09,14,041,20,12,22,255,17,13,30,185,41,15,07,209,29*7D
$GPGSV,4,3,14,17,12,149,,19,33,150,38,20,37,276,27,25,09,289,*78
$GPGSV,4,4,14,29,03,323,,30,10,119,18*74
$GPGLL,2458.04203,N,12111.32322,E,091532.00,A,A*6B
$GPRMC,091533.00,A,2458.04198,N,12111.32335,E,0.310,,090621,,,A*7A
$GPVTG,,T,,M,0.310,N,0.574,K,A*27
$GPGGA,091533.00,2458.04198,N,12111.32335,E,1,11,0.85,109.5,M,16.4,M,,*5B
$GPGSA,A,3,02,06,05,19,20,12,13,07,09,15,30,,1.90,0.85,1.71*03
$GPGSV,4,1,14,02,57,007,18,05,43,275,18,06,45,067,18,07,05,083,13*78
$GPGSV,4,2,14,09,14,041,19,12,22,255,17,13,30,185,40,15,07,209,29*76
$GPGSV,4,3,14,17,12,149,,19,33,150,37,20,37,276,26,25,09,289,*76
$GPGSV,4,4,14,29,03,323,,30,10,119,18*74
$GPGLL,2458.04198,N,12111.32335,E,091533.00,A,A*6D
$GPRMC,091534.00,A,2458.04209,N,12111.32342,E,0.122,,090621,,,A*75
$GPVTG,,T,,M,0.122,N,0.226,K,A*24
$GPGGA,091534.00,2458.04209,N,12111.32342,E,1,11,0.83,109.4,M,16.4,M,,*50
$GPGSA,A,3,02,06,05,19,20,12,13,07,09,15,30,,1.74,0.83,1.53*0F
$GPGSV,4,1,14,02,57,007,17,05,43,275,18,06,45,067,20,07,05,083,12*7D
$GPGSV,4,2,14,09,14,041,19,12,22,255,17,13,30,185,40,15,07,209,29*76
$GPGSV,4,3,14,17,12,149,,19,33,150,36,20,37,276,25,25,09,289,06*72
$GPGSV,4,4,14,29,03,323,,30,10,119,17*7B
$GPRMC,091535.00,A,2458.04238,N,12111.32348,E,0.367,,090621,,,A*7F
$GPVTG,,T,,M,0.367,N,0.679,K,A*29
$GPGGA,091535.00,2458.04238,N,12111.32348,E,1,09,0.89,109.4,M,16.4,M,,*5A
$GPRMC,091536.00,A,2458.04263,N,12111.32359,E,0.450,,090621,,,A*71
$GPVTG,,T,,M,0.450,N,0.833,K,A*2A
$GPGGA,091536.00,2458.04263,N,12111.32359,E,1,11,0.89,109.4,M,16.4,M,,*5E
$GPRMC,091537.00,A,2458.04285,N,12111.32361,E,0.617,,090621,,,A*72
$GPVTG,,T,,M,0.617,N,1.143,K,A*24
$GPGGA,091537.00,2458.04285,N,12111.32361,E,1,12,0.83,109.5,M,16.4,M,,*54
$GPGSA,A,3,02,06,05,19,20,12,13,07,09,17,25,15,1.74,0.83,1.53*0D
$GPGSV,4,1,14,02,57,007,17,05,43,275,12,06,45,067,22,07,05,083,12*75
$GPGSV,4,2,14,09,14,041,18,12,22,255,17,13,30,185,40,15,07,209,29*77
$GPRMC,091538.00,A,2458.04285,N,12111.32364,E,0.147,,090621,,,A*7A
$GPVTG,,T,,M,0.147,N,0.272,K,A*26
$GPGGA,091538.00,2458.04285,N,12111.32364,E,1,12,0.71,109.7,M,16.4,M,,*51
$GPGSA,A,3,02,06,05,19,20,12,13,07,09,17,25,15,1.39,0.71,1.20*0D
$GPGSV,4,1,14,02,57,007,18,05,43,275,10,06,45,067,22,07,05,083,11*7B
$GPGSV,4,2,14,09,14,041,18,12,22,255,16,13,30,185,40,15,07,209,30*7E
$GPGSV,4,3,14,17,12,149,19,19,33,150,36,20,37,276,23,25,09,289,12*79
$GPGSV,4,4,14,29,03,323,,30,10,119,17*7B
$GPGLL,2458.04285,N,12111.32364,E,091538.00,A,A*6D
$GPRMC,091539.00,A,2458.04318,N,12111.32363,E,0.719,,090621,,,A*74
$GPVTG,,T,,M,0.719,N,1.331,K,A*2C
$GPGGA,091539.00,2458.04318,N,12111.32363,E,1,12,0.68,110.1,M,16.4,M,,*54
$GPGSA,A,3,02,06,05,19,20,12,13,07,09,17,25,15,1.37,0.68,1.19*01
$GPGSV,4,1,14,02,57,007,18,05,43,275,11,06,45,067,22,07,05,083,11*7A
$GPGSV,4,2,14,09,14,041,17,12,22,255,16,13,30,185,40,15,07,209,29*79
$GPRMC,091540.00,A,2458.04333,N,12111.32365,E,0.457,,090621,,,A*7C
$GPVTG,,T,,M,0.457,N,0.846,K,A*2F
$GPGGA,091540.00,2458.04333,N,12111.32365,E,1,12,0.71,110.4,M,16.4,M,,*58
$GPRMC,091541.00,A,2458.04376,N,12111.32384,E,1.039,,090621,,,A*7E
$GPVTG,,T,,M,1.039,N,1.925,K,A*27
$GPGGA,091541.00,2458.04376,N,12111.32384,E,1,12,0.71,110.5,M,16.4,M,,*56
$GPGSA,A,3,02,06,05,19,20,12,13,07,09,25,15,30,1.39,0.71,1.20*08
$GPGSV,4,1,14,02,57,007,19,05,43,275,14,06,45,067,21,07,05,083,11*7D
$GPGSV,4,2,14,09,14,041,16,12,22,255,15,13,30,185,40,15,07,209,29*7B
$GPGSV,4,3,14,17,12,149,,19,33,150,36,20,37,276,22,25,09,289,11*73
$GPRMC,091542.00,A,2458.04422,N,12111.32389,E,1.121,,090621,,,A*7E
$GPVTG,,T,,M,1.121,N,2.076,K,A*23
$GPGGA,091542.00,2458.04422,N,12111.32389,E,1,12,0.71,110.4,M,16.4,M,,*5F
$GPGSA,A,3,02,06,05,19,20,12,13,07,09,25,15,30,1.39,0.71,1.20*08
$GPGSV,4,1,14,02,57,007,20,05,43,275,16,06,45,067,20,07,05,083,11*74
$GPGSV,4,2,14,09,14,041,16,12,22,255,16,13,30,185,39,15,07,209,29*76
$GPGSV,4,3,14,17,12,149,,19,33,150,36,20,37,276,22,25,09,289,11*73
$GPGSV,4,4,14,29,03,323,,30,10,119,17*7B
$GPRMC,091543.00,A,2458.04477,N,12111.32398,E,1.640,351.80,090621,,,A*6E
$GPVTG,351.80,T,,M,1.640,N,3.036,K,A*37
$GPGGA,091543.00,2458.04477,N,12111.32398,E,1,12,0.73,110.1,M,16.4,M,,*59
$GPGSA,A,3,02,06,05,19,20,12,13,07,09,17,25,15,1.56,0.73,1.38*0F
$GPGSV,4,1,14,02,57,007,18,05,43,275,18,06,45,067,19,07,05,083,11*7B
$GPGSV,4,2,14,09,14,041,15,12,22,255,17,13,30,185,40,15,07,209,30*72
$GPRMC,091544.00,A,2458.04483,N,12111.32398,E,0.573,,090621,,,A*71
$GPVTG,,T,,M,0.573,N,1.060,K,A*25
$GPGGA,091544.00,2458.04483,N,12111.32398,E,1,11,0.74,110.5,M,16.4,M,,*55
$GPRMC,091545.00,A,2458.04503,N,12111.32399,E,0.490,,090621,,,A*74
$GPVTG,,T,,M,0.490,N,0.907,K,A*20
$GPGGA,091545.00,2458.04503,N,12111.32399,E,1,11,0.74,110.9,M,16.4,M,,*50
$GPGSA,A,3,02,06,05,19,20,12,13,09,25,15,30,,1.51,0.74,1.31*04
$GPRMC,091546.00,A,2458.04532,N,12111.32402,E,0.457,,090621,,,A*7B
$GPVTG,,T,,M,0.457,N,0.846,K,A*2F
$GPGGA,091546.00,2458.04532,N,12111.32402,E,1,10,0.81,111.1,M,16.4,M,,*56
$GPGSA,A,3,02,06,05,19,20,12,13,09,25,15,,,1.65,0.81,1.44*08
$GPGSV,4,1,14,02,57,007,21,05,43,275,23,06,45,067,16,07,05,083,*76
$GPGSV,4,2,14,09,14,041,18,12,22,255,17,13,30,185,43,15,07,209,32*7E
$GPGSV,4,3,14,17,12,149,,19,33,150,41,20,37,276,20,25,09,289,17*77
$GPRMC,091547.00,A,2458.04546,N,12111.32410,E,0.188,,090621,,,A*7D
$GPVTG,,T,,M,0.188,N,0.348,K,A*2D
$GPGGA,091547.00,2458.04546,N,12111.32410,E,1,11,0.81,111.1,M,16.4,M,,*56
$GPGSA,A,3,02,06,05,19,20,12,13,09,25,15,30,,1.65,0.81,1.44*0B
$GPRMC,091548.00,A,2458.04568,N,12111.32416,E,0.176,,090621,,,A*79
$GPVTG,,T,,M,0.176,N,0.326,K,A*24
$GPGGA,091548.00,2458.04568,N,12111.32416,E,1,11,0.81,111.2,M,16.4,M,,*50
$GPGSA,A,3,02,06,05,19,20,12,13,09,25,15,30,,1.65,0.81,1.44*0B
$GPGSV,4,1,14,02,57,007,20,05,43,275,24,06,45,067,15,07,05,083,*73
$GPRMC,091549.00,A,2458.04530,N,12111.32449,E,0.964,,090621,,,A*74
$GPVTG,,T,,M,0.964,N,1.784,K,A*22
$GPGGA,091549.00,2458.04530,N,12111.32449,E,1,12,0.83,110.9,M,16.4,M,,*5D
$GPRMC,091550.00,A,2458.04507,N,12111.32464,E,1.060,,090621,,,A*7B
$GPVTG,,T,,M,1.060,N,1.963,K,A*29
$GPGGA,091550.00,2458.04507,N,12111.32464,E,1,10,0.85,110.7,M,16.4,M,,*54
$GPRMC,091551.00,A,2458.04530,N,12111.32469,E,0.115,,090621,,,A*71
$GPVTG,,T,,M,0.115,N,0.213,K,A*26
$GPGGA,091551.00,2458.04530,N,12111.32469,E,1,09,0.85,110.5,M,16.4,M,,*56
$GPGSA,A,3,06,05,19,20,13,09,25,15,30,,,,1.85,0.85,1.65*03
$GPRMC,091552.00,A,2458.04514,N,12111.32477,E,0.399,,090621,,,A*7D
$GPVTG,,T,,M,0.399,N,0.739,K,A*2D
$GPRMC,091553.00,A,2458.04517,N,12111.32479,E,0.414,,090621,,,A*73
$GPVTG,,T,,M,0.414,N,0.767,K,A*24
$GPGGA,091553.00,2458.04517,N,12111.32479,E,1,10,0.89,110.4,M,16.4,M,,*55
$GPGSA,A,3,02,06,05,19,20,13,09,25,15,30,,,1.83,0.89,1.60*0E
$GPGSV,4,1,14,02,58,008,19,05,44,275,25,06,45,067,19,07,05,083,*73
$GPGSV,4,2,14,09,14,041,21,12,22,255,08,13,30,185,44,15,07,209,30*7F
$GPGSV,4,3,14,17,12,149,,19,33,150,39,20,37,276,11,25,09,289,12*7F
$GPRMC,091554.00,A,2458.04508,N,12111.32481,E,0.678,,090621,,,A*75
$GPVTG,,T,,M,0.678,N,1.255,K,A*29
$GPRMC,091555.00,A,2458.04513,N,12111.32485,E,0.245,,090621,,,A*70
$GPVTG,,T,,M,0.245,N,0.453,K,A*22
$GPGGA,091555.00,2458.04513,N,12111.32485,E,1,10,0.89,110.7,M,16.4,M,,*57
$GPGSA,A,3,02,06,05,19,20,13,09,17,15,30,,,1.83,0.89,1.60*0F
$GPRMC,091556.00,A,2458.04503,N,12111.32494,E,0.377,,090621,,,A*72
$GPVTG,,T,,M,0.377,N,0.699,K,A*26
$GPGGA,091556.00,2458.04503,N,12111.32494,E,1,12,0.83,111.1,M,16.4,M,,*5A
$GPGSA,A,3,02,06,05,19,20,12,13,09,17,25,15,30,1.74,0.83,1.53*09
$GPRMC,091557.00,A,2458.04505,N,12111.32504,E,0.335,,090621,,,A*7B
$GPVTG,,T,,M,0.335,N,0.621,K,A*23
$GPRMC,091558.00,A,2458.04493,N,12111.32523,E,0.416,,090621,,,A*79
$GPVTG,,T,,M,0.416,N,0.770,K,A*20
$GPGGA,091558.00,2458.04493,N,12111.32523,E,1,12,0.71,110.9,M,16.4,M,,*55
$GPGSA,A,3,02,06,05,19,20,12,13,09,17,25,15,30,1.47,0.71,1.29*09
$GPGSV,4,1,14,02,58,008,18,05,44,275,21,06,45,068,24,07,05,083,09*7E
$GPRMC,091559.00,A,2458.04484,N,12111.32554,E,0.749,,090621,,,A*77
$GPVTG,,T,,M,0.749,N,1.388,K,A*2B
$GPRMC,091600.00,A,2458.04496,N,12111.32579,E,0.340,,090621,,,A*79
$GPVTG,,T,,M,0.340,N,0.630,K,A*21
$GPGGA,091600.00,2458.04496,N,12111.32579,E,1,12,0.71,109.2,M,16.4,M,,*52
$GPGSA,A,3,02,06,05,19,20,12,13,07,09,17,25,15,1.39,0.71,1.20*0D
$GPGSV,4,1,14,02,58,008,18,05,44,275,18,06,45,068,24,07,05,083,12*7E
$GPGSV,4,2,14,09,14,040,22,12,21,255,22,13,30,185,44,15,07,209,32*74
$GPGSV,4,3,14,17,12,149,26,19,33,150,37,20,37,276,14,25,09,289,12*70
$GPRMC,091601.00,A,2458.04504,N,12111.32586,E,0.150,,090621,,,A*71
$GPVTG,,T,,M,0.150,N,0.279,K,A*2B
$GPGGA,091601.00,2458.04504,N,12111.32586,E,1,12,0.71,109.4,M,16.4,M,,*5F
$GPGSA,A,3,02,06,05,19,20,12,13,09,17,25,15,30,1.47,0.71,1.29*09
$GPGSV,4,1,14,02,58,008,18,05,44,275,16,06,45,068,24,07,05,083,*73
$GPGSV,4,2,14,09,14,040,23,12,21,255,22,13,31,185,42,15,07,209,33*73
$GPRMC,091602.00,A,2458.04520,N,12111.32587,E,0.162,,090621,,,A*74
$GPVTG,,T,,M,0.162,N,0.300,K,A*25
$GPGGA,091602.00,2458.04520,N,12111.32587,E,1,12,0.71,109.7,M,16.4,M,,*58
$GPGSA,A,3,02,06,05,19,20,12,13,09,17,25,15,30,1.47,0.71,1.29*09
$GPRMC,091603.00,A,2458.04536,N,12111.32582,E,0.327,,090621,,,A*74
$GPVTG,,T,,M,0.327,N,0.606,K,A*25
$GPGGA,091603.00,2458.04536,N,12111.32582,E,1,12,0.71,109.9,M,16.4,M,,*55
$GPGSA,A,3,02,06,05,19,20,12,13,09,17,25,15,30,1.47,0.71,1.29*09
$GPRMC,091605.00,A,2458.04525,N,12111.32587,E,0.282,,090621,,,A*7B
$GPVTG,,T,,M,0.282,N,0.522,K,A*2E
$GPGGA,091605.00,2458.04525,N,12111.32587,E,1,11,0.82,110.6,M,16.4,M,,*5C
$GPGSA,A,3,02,06,19,20,12,13,09,17,25,15,30,,1.75,0.82,1.54*0B
$GPGSV,4,1,14,02,58,008,11,05,44,275,08,06,45,068,21,07,05,083,*70
$GPGSV,4,2,14,09,14,040,22,12,21,255,23,13,31,185,42,15,08,209,31*7E
$GPGSV,4,3,14,17,11,149,25,19,33,150,33,20,37,276,07,25,09,289,08*7D
$GPGSV,4,4,14,29,03,323,,30,10,119,17*7B
$GPGLL,2458.04525,N,12111.32587,E,091605.00,A,A*66
$GPRMC,091606.00,A,2458.04507,N,12111.32591,E,0.588,,090621,,,A*72
$GPVTG,,T,,M,0.588,N,1.089,K,A*26
