$GPRMC,123157.00,A,2458.00624,N,12111.21989,E,0.075,,280521,,,D*7A
$GPVTG,,T,,M,0.075,N,0.140,K,D*21
$GPGGA,123157.00,2458.00624,N,12111.21989,E,2,06,2.54,167.7,M,16.4,M,,0000*5F
$GPGSA,A,3,02,30,05,50,20,15,,,,,,,5.45,2.54,4.82*0C
$GPGSV,4,1,13,02,42,134,40,05,50,023,18,06,06,135,,13,73,023,*70
$GPTXT,01,01,01,NMEA unknown msg*58
$GPRMC,123158.00,A,2458.00614,N,12111.21988,E,0.312,,280521,,,D*75
$GPVTG,,T,,M,0.312,N,0.578,K,D*2C
$GPGGA,123158.00,2458.00614,N,12111.21988,E,2,06,2.54,167.6,M,16.4,M,,0000*53
$GPGSA,A,3,02,30,05,50,20,15,,,,,,,5.45,2.54,4.82*0C
$GPGSV,4,1,13,02,42,134,40,05,50,023,18,06,06,135,,13,73,023,*70
$GPGSV,4,2,13,15,64,264,23,18,40,325,,20,52,350,22,23,03,283,*7B
$GPGSV,4,3,13,24,20,183,,29,40,272,,30,18,055,23,39,,,35*4D
$GPGSV,4,4,13,50,60,166,35*4F
$GPGLL,2458.00614,N,12111.21988,E,123158.00,A,D*60
$GPRMC,123109.00,A,2458.00553,N,12111.22020,E,0.683,,280521,,,D*74
$GPVTG,,T,,M,0.683,N,1.266,K,D*28
$GPGGA,123109.00,2458.00553,N,12111.22020,E,2,07,2.53,171.2,M,16.4,M,,0000*5A
$GPGSA,A,3,02,30,29,05,50,20,15,,,,,,5.46,2.53,4.84*05
$GPGSV,4,1,13,02,42,134,39,05,50,022,13,06,06,135,,13,73,023,*74
$GPGSV,4,2,13,15,64,264,26,18,40,325,,20,52,350,20,23,03,283,*7C
$GPGSV,4,3,13,24,20,183,,29,40,272,16,30,18,055,23,39,,,35*4A
$GPGSV,4,4,13,50,60,166,35*4F
$GPRMC,123026.00,A,2458.00067,N,12111.21982,E,0.520,,280521,,,D*72
$GPVTG,,T,,M,0.520,N,0.963,K,D*2D
$GPGGA,123026.00,2458.00067,N,12111.21982,E,2,07,2.51,168.4,M,16.4,M,,0000*5A
$GPRMC,123027.00,A,2458.00103,N,12111.21994,E,0.659,,280521,,,D*7A
$GPVTG,,T,,M,0.659,N,1.221,K,D*2C
$GPGGA,123027.00,2458.00103,N,12111.21994,E,2,07,2.51,168.2,M,16.4,M,,0000*59
$GPGSA,A,3,02,30,29,05,50,20,15,,,,,,5.47,2.51,4.86*04
$GPGSV,4,1,13,02,43,133,38,05,50,021,14,06,07,134,,13,74,023,*70
$GPGSV,4,2,13,15,63,263,28,18,40,325,,20,52,350,16,23,03,283,*77
$GPGSV,4,3,13,24,19,183,,29,40,273,19,30,18,055,12,39,,,35*4C
$GPGSV,4,4,13,50,60,166,35*4F
$GPGLL,2458.00103,N,12111.21994,E,123027.00,A,D*65
$GPRMC,123028.00,A,2458.00110,N,12111.21996,E,0.483,,280521,,,D*70
$GPVTG,,T,,M,0.483,N,0.894,K,D*2C
$GPGGA,123028.00,2458.00110,N,12111.21996,E,2,07,2.52,167.9,M,16.4,M,,0000*51
$GPGSA,A,3,02,30,29,05,50,20,15,,,,,,5.47,2.52,4.86*07
$GPGSV,4,1,13,02,43,133,38,05,50,021,14,06,07,134,,13,74,023,*70
$GPGSV,4,2,13,15,63,263,28,18,40,325,,20,52,350,16,23,03,283,*77
$GPGSV,4,3,13,24,19,183,,29,40,273,19,30,18,055,13,39,,,35*4D
$GPGSV,4,4,13,50,60,166,35*4F
$GPGLL,2458.00110,N,12111.21996,E,123028.00,A,D*6A
$GPRMC,122954.00,A,2458.00835,N,12111.22248,E,0.609,,280521,,,D*76
$GPVTG,,T,,M,0.609,N,1.129,K,D*22
$GPGGA,122954.00,2458.00835,N,12111.22248,E,2,07,2.51,177.1,M,16.4,M,,0000*5D
$GPGSA,A,3,02,30,29,05,50,20,15,,,,,,5.47,2.51,4.87*05
$GPGSV,4,1,13,02,43,133,38,05,50,021,09,06,07,134,,13,74,023,*7C
$GPGSV,4,2,13,15,63,263,26,18,40,325,,20,52,350,16,23,03,283,*79
$GPGSV,4,3,13,24,19,183,,29,40,274,19,30,18,056,12,39,,,35*48
$GPGSV,4,4,13,50,60,166,35*4F
$GPGLL,2458.00835,N,12111.22248,E,122954.00,A,D*6C
$GPRMC,122955.00,A,2458.00873,N,12111.22260,E,0.095,,280521,,,D*7C
$GPVTG,,T,,M,0.095,N,0.177,K,D*2B
$GPGGA,122955.00,2458.00873,N,12111.22260,E,2,07,2.51,177.0,M,16.4,M,,0000*55
$GPGSA,A,3,02,30,29,05,50,20,15,,,,,,5.47,2.51,4.87*05
$GPGSV,4,1,13,02,43,133,38,05,50,021,09,06,07,134,,13,74,023,*7C
$GPGSV,4,2,13,15,63,263,26,18,40,325,,20,52,350,16,23,03,283,*79
$GPGSV,4,3,13,24,19,183,,29,40,274,20,30,18,056,13,39,,,35*43
$GPGSV,4,4,13,50,60,166,35*4F
$GPGLL,2458.00873,N,12111.22260,E,122955.00,A,D*65
$GPRMC,122919.00,A,2458.00653,N,12111.22269,E,0.293,,280521,,,D*75
$GPVTG,,T,,M,0.293,N,0.543,K,D*2C
$GPGGA,122919.00,2458.00653,N,12111.22269,E,2,07,2.50,178.6,M,16.4,M,,0000*50
$GPGSA,A,3,02,30,13,05,50,20,15,,,,,,5.48,2.50,4.88*0D
$GPGSV,4,1,13,02,43,133,39,05,50,020,18,06,07,134,,13,74,023,16*7B
$GPGSV,4,2,13,15,63,262,28,18,39,325,,20,52,349,17,23,02,282,*71
$GPGSV,4,3,13,24,19,183,,29,40,274,,30,18,056,21,39,,,35*40
$GPGSV,4,4,13,50,60,166,35*4F
$GPGLL,2458.00653,N,12111.22269,E,122919.00,A,D*68
$GPRMC,122920.00,A,2458.00647,N,12111.22264,E,0.114,,280521,,,D*7B
$GPVTG,,T,,M,0.114,N,0.211,K,D*20
$GPGGA,122920.00,2458.00647,N,12111.22264,E,2,07,2.50,178.6,M,16.4,M,,0000*52
$GPGSA,A,3,02,30,13,05,50,20,15,,,,,,5.48,2.50,4.88*0D
$GPGSV,4,1,13,02,43,133,39,05,50,020,18,06,07,134,,13,74,023,16*7B
$GPGSV,4,2,13,15,63,262,28,18,39,325,,20,52,349,17,23,02,282,*71
$GPGSV,4,3,13,24,19,183,,29,40,274,,30,18,056,21,39,,,35*40
$GPGSV,4,4,13,50,60,166,35*4F
$GPGLL,2458.00647,N,12111.22264,E,122920.00,A,D*6A
$GPRMC,122828.00,A,2458.00419,N,12111.22276,E,0.432,,280521,,,D*79
$GPVTG,,T,,M,0.432,N,0.801,K,D*2A
$GPGGA,122828.00,2458.00419,N,12111.22276,E,2,07,2.48,180.3,M,16.4,M,,0000*5A
$GPGSA,A,3,02,30,29,05,50,20,15,,,,,,5.48,2.48,4.89*0C
$GPGSV,4,1,13,02,43,133,39,05,50,020,15,06,07,134,,13,75,023,*70
$GPGSV,4,2,13,15,63,260,30,18,39,325,,20,52,348,21,23,02,282,15*7A
$GPGSV,4,3,13,24,19,184,,29,40,275,18,30,18,056,20,39,,,35*4E
$GPGSV,4,4,13,50,60,166,35*4F
$GPGLL,2458.00419,N,12111.22276,E,122828.00,A,D*69
$GPRMC,122829.00,A,2458.00410,N,12111.22279,E,0.461,,280521,,,D*78
$GPVTG,,T,,M,0.461,N,0.853,K,D*2B
$GPGGA,122829.00,2458.00410,N,12111.22279,E,2,07,2.48,180.5,M,16.4,M,,0000*5B
$GPGSA,A,3,02,30,29,05,50,20,15,,,,,,5.48,2.48,4.89*0C
$GPGSV,4,1,13,02,43,133,39,05,50,020,15,06,07,134,,13,74,023,*71
$GPGSV,4,2,13,15,63,260,29,18,39,325,,20,52,348,21,23,02,282,16*71
$GPGSV,4,3,13,24,19,184,,29,40,275,18,30,18,056,20,39,,,35*4E
$GPGSV,4,4,13,50,60,166,35*4F
$GPGLL,2458.00410,N,12111.22279,E,122829.00,A,D*6E
$GPRMC,122830.00,A,2458.00410,N,12111.22283,E,0.248,,280521,,,D*78
$GPVTG,,T,,M,0.248,N,0.460,K,D*2A
$GPGGA,122830.00,2458.00410,N,12111.22283,E,2,07,2.48,180.5,M,16.4,M,,0000*56
$GPGSA,A,3,02,30,29,05,50,20,15,,,,,,5.48,2.48,4.89*0C
$GPGSV,4,1,13,02,43,133,39,05,50,020,12,06,07,134,,13,74,023,*76
$GPGSV,4,2,13,15,63,260,29,18,39,325,,20,52,348,22,23,02,282,15*71
$GPGSV,4,3,13,24,19,184,,29,40,275,18,30,18,056,20,39,,,35*4E
$GPGSV,4,4,13,50,60,166,35*4F
$GPGLL,2458.00410,N,12111.22283,E,122830.00,A,D*63
$GPRMC,122722.00,A,2458.00407,N,12111.21812,E,0.294,,280521,,,D*72
$GPVTG,,T,,M,0.294,N,0.545,K,D*2D
$GPGGA,122722.00,2458.00407,N,12111.21812,E,2,08,2.46,151.4,M,16.4,M,,0000*51
$GPGSA,A,3,02,30,13,29,05,50,20,15,,,,,5.48,2.46,4.90*08
$GPGSV,4,1,13,02,44,132,38,05,50,020,23,06,07,134,,13,75,023,17*74
$GPGSV,4,2,13,15,63,260,31,18,38,325,,20,52,347,23,23,02,281,14*75
$GPGSV,4,3,13,24,18,184,,29,40,275,21,30,19,056,22,39,,,35*46
$GPGSV,4,4,13,50,60,166,35*4F
$GPGLL,2458.00407,N,12111.21812,E,122722.00,A,D*68
$GPRMC,122721.00,A,2458.00395,N,12111.21797,E,0.482,,280521,,,D*7E
$GPVTG,,T,,M,0.482,N,0.893,K,D*2A
$GPGGA,122721.00,2458.00395,N,12111.21797,E,2,07,2.46,150.4,M,16.4,M,,0000*52
$GPGSA,A,3,02,30,29,05,50,20,15,,,,,,5.48,2.46,4.90*0A
$GPGSV,4,1,13,02,44,132,39,05,50,020,23,06,07,134,,13,75,023,17*75
$GPGSV,4,2,13,15,63,260,31,18,38,325,,20,52,347,23,23,02,281,17*76
$GPGSV,4,3,13,24,18,184,,29,40,275,22,30,19,056,21,39,,,35*46
$GPGSV,4,4,13,50,60,166,35*4F
$GPGLL,2458.00395,N,12111.21797,E,122721.00,A,D*65
