$GPRMC,092307.00,A,2458.14209,N,12111.46933,E,0.069,,080621,,,A*71
$GPVTG,,T,,M,0.069,N,0.127,K,A*28
$GPGGA,092307.00,2458.14209,N,12111.46933,E,1,06,1.31,138.4,M,16.4,M,,*57
$GPGSA,A,3,02,05,06,19,13,07,,,,,,,2.65,1.31,2.30*0D
$GPGSV,3,1,09,02,58,010,37,05,44,277,39,06,44,070,15,07,06,082,33*7B
$GPGSV,3,2,09,09,13,040,24,13,32,185,18,19,32,151,32,29,04,323,08*76
$GPGSV,3,3,09,50,60,166,33*42
$GPGLL,2458.14209,N,12111.46933,E,092307.00,A,A*6A
$GPRMC,092308.00,A,2458.14190,N,12111.46936,E,0.013,,080621,,,A*75
$GPVTG,,T,,M,0.013,N,0.025,K,A*26
$GPGGA,092308.00,2458.14190,N,12111.46936,E,1,06,1.31,138.8,M,16.4,M,,*52
$GPGSA,A,3,02,05,06,19,13,07,,,,,,,2.65,1.31,2.30*0D
$GPGSV,3,1,09,02,58,010,37,05,44,277,38,06,44,070,13,07,06,082,34*7B
$GPGSV,3,2,09,09,13,040,25,13,32,185,21,19,32,151,31,29,04,323,08*7E
$GPGSV,3,3,09,50,60,166,33*42
$GPRMC,092310.00,A,2458.14166,N,12111.46939,E,0.162,,080621,,,A*7D
$GPVTG,,T,,M,0.162,N,0.300,K,A*25
$GPGGA,092310.00,2458.14166,N,12111.46939,E,1,06,1.31,139.3,M,16.4,M,,*57
$GPGSA,A,3,02,05,06,19,13,07,,,,,,,2.65,1.31,2.30*0D
$GPGSV,3,1,09,02,58,010,35,05,44,277,35,06,44,070,13,07,06,082,33*73
$GPGSV,3,2,09,09,13,040,24,13,32,185,22,19,32,151,31,29,04,323,08*7C
$GPGSV,3,3,09,50,60,166,33*42
$GPGLL,2458.14166,N,12111.46939,E,092310.00,A,A*6C
$GPRMC,092311.00,A,2458.14153,N,12111.46930,E,0.452,,080621,,,A*75
$GPVTG,,T,,M,0.452,N,0.837,K,A*2C
$GPGGA,092311.00,2458.14153,N,12111.46930,E,1,06,1.31,139.1,M,16.4,M,,*5B
$GPGSA,A,3,02,05,06,19,13,07,,,,,,,2.65,1.31,2.30*0D
$GPGSV,3,1,09,02,58,010,38,05,44,277,37,06,44,070,15,07,06,082,33*7A
$GPGSV,3,2,09,09,13,040,25,13,32,185,22,19,32,151,31,29,04,323,08*7D
$GPGSV,3,3,09,50,60,166,34*45
$GPGLL,2458.14153,N,12111.46930,E,092311.00,A,A*62
$GPTXT,01,01,01,NMEA unknown msg*58
$GPTXT,01,01,00,txbuf alloc*7F
$GPRMC,092312.00,A,2458.14132,N,12111.46928,E,0.295,,080621,,,A*75
$GPVTG,,T,,M,0.295,N,0.546,K,A*2A
$GPGGA,092312.00,2458.14132,N,12111.46928,E,1,06,1.31,139.3,M,16.4,M,,*54
$GPGSA,A,3,02,05,06,19,13,07,,,,,,,2.65,1.31,2.30*0D
$GPGSV,3,1,09,02,58,010,37,05,44,277,37,06,44,070,15,07,06,082,34*72
$GPGSV,3,2,09,09,13,040,26,13,32,185,22,19,32,151,30,29,04,323,08*7F
$GPGSV,3,3,09,50,60,166,34*45
$GPGLL,2458.14132,N,12111.46928,E,092312.00,A,A*6F
$GPRMC,092313.00,A,2458.14130,N,12111.46917,E,0.356,,080621,,,A*74
$GPVTG,,T,,M,0.356,N,0.659,K,A*29
$GPGGA,092313.00,2458.14130,N,12111.46917,E,1,06,1.31,139.1,M,16.4,M,,*59
$GPGSA,A,3,02,05,06,19,13,07,,,,,,,2.65,1.31,2.30*0D
$GPGSV,3,1,09,02,58,010,37,05,44,277,37,06,44,070,15,07,06,082,33*75
$GPGSV,3,2,09,09,13,040,26,13,32,185,23,19,32,151,29,29,04,323,*7E
$GPGSV,3,3,09,50,60,166,34*45
$GPGLL,2458.14130,N,12111.46917,E,092313.00,A,A*60
$GPRMC,092314.00,A,2458.14127,N,12111.46908,E,0.445,,080621,,,A*7E
$GPVTG,,T,,M,0.445,N,0.824,K,A*28
$GPGGA,092314.00,2458.14127,N,12111.46908,E,1,06,1.31,139.1,M,16.4,M,,*56
$GPGSA,A,3,02,05,06,19,13,07,,,,,,,2.65,1.31,2.30*0D
$GPGSV,3,1,09,02,58,010,37,05,44,277,36,06,44,070,10,07,06,082,31*73
$GPGSV,3,2,09,09,13,040,26,13,32,185,23,19,32,151,28,29,04,323,*7F
$GPGSV,3,3,09,50,60,166,34*45
$GPGLL,2458.14127,N,12111.46908,E,092314.00,A,A*6F
$GPRMC,092315.00,A,2458.14127,N,12111.46903,E,0.450,,080621,,,A*70
$GPVTG,,T,,M,0.450,N,0.833,K,A*2A
$GPGGA,092315.00,2458.14127,N,12111.46903,E,1,05,1.51,139.1,M,16.4,M,,*59
$GPGSA,A,3,02,05,19,13,07,,,,,,,,3.17,1.51,2.79*04
$GPGSV,3,1,09,02,58,010,37,05,44,277,36,06,44,070,08,07,06,082,31*7A
$GPGSV,3,2,09,09,13,040,26,13,32,185,23,19,32,151,28,29,04,323,*7F
$GPGSV,3,3,09,50,60,166,34*45
$GPGLL,2458.14127,N,12111.46903,E,092315.00,A,A*65
$GPRMC,092316.00,A,2458.14119,N,12111.46902,E,0.246,,080621,,,A*7E
$GPVTG,,T,,M,0.246,N,0.456,K,A*24
$GPGGA,092316.00,2458.14119,N,12111.46902,E,1,05,1.51,139.1,M,16.4,M,,*56
$GPGSA,A,3,02,05,19,13,07,,,,,,,,3.17,1.51,2.79*04
$GPGSV,3,1,10,02,58,010,37,05,44,277,36,06,44,070,08,07,06,082,30*73
$GPGSV,3,2,10,09,13,040,27,12,21,253,,13,32,185,22,19,32,151,27*71
$GPGSV,3,3,10,29,04,323,,50,60,166,34*70
$GPGLL,2458.14119,N,12111.46902,E,092316.00,A,A*6A
$GPRMC,092317.00,A,2458.14108,N,12111.46894,E,0.139,,080621,,,A*7A
$GPVTG,,T,,M,0.139,N,0.257,K,A*28
$GPGGA,092317.00,2458.14108,N,12111.46894,E,1,06,1.31,139.0,M,16.4,M,,*5D
$GPGSA,A,3,02,05,06,19,13,07,,,,,,,2.65,1.31,2.30*0D
$GPGSV,3,1,10,02,58,010,37,05,44,277,36,06,44,070,08,07,06,082,31*72
$GPGSV,3,2,10,09,13,040,27,12,21,253,28,13,32,185,23,19,32,151,27*7A
$GPGSV,3,3,10,29,04,323,19,50,60,166,34*78
$GPGLL,2458.14108,N,12111.46894,E,092317.00,A,A*65
$GPRMC,092318.00,A,2458.14095,N,12111.46891,E,0.088,,080621,,,A*7E
$GPVTG,,T,,M,0.088,N,0.163,K,A*27
$GPGGA,092318.00,2458.1495,N,12111.46891,E,1,06,1.51,139.0,M,16.4,M,,*54
$GPGSA,A,3,02,05,06,19,13,07,,,,,,,3.17,1.51,2.79*02
$GPGSV,3,1,10,02,58,010,36,05,44,277,35,06,44,070,08,07,06,082,32*73
$GPGSV,3,2,10,09,13,040,27,12,21,253,27,13,32,185,23,19,32,151,26*74
$GPGSV,3,3,10,29,04,323,,50,60,166,34*70
$GPGLL,2458.14095,N,12111.46891,E,092318.00,A,A*6A
$GPRMC,092319.00,A,2458.14076,N,12111.46891,E,0.102,,080621,,,A*71
$GPVTG,,T,,M,0.102,N,0.189,K,A*20
$GPGGA,092319.00,2458.14076,N,12111.46891,E,1,06,1.51,139.2,M,16.4,M,,*5A
$GPGSA,A,3,02,05,06,19,13,07,,,,,,,3.17,1.51,2.79*02
$GPGSV,3,1,10,02,58,010,36,05,44,277,34,06,44,070,24,07,06,082,32*7C
$GPGSV,3,2,10,09,13,040,26,12,21,253,27,13,32,185,23,19,32,151,25*76
$GPGSV,3,3,10,29,04,323,,50,60,166,35*71
$GPGLL,2458.14076,N,12111.46891,E,092319.00,A,A*66
$GPRMC,092320.00,A,2458.14057,N,12111.46891,E,0.128,,080621,,,A*70
$GPVTG,,T,,M,0.128,N,0.237,K,A*2E
$GPGGA,092320.00,2458.14057,N,12111.46891,E,1,06,1.51,139.5,M,16.4,M,,*54
$GPGSA,A,3,02,05,06,19,13,07,,,,,,,3.17,1.51,2.79*02
$GPGSV,3,1,10,02,58,010,36,05,44,277,34,06,44,070,25,07,06,082,32*7D
$GPGSV,3,2,10,09,13,040,26,12,21,253,27,13,32,185,24,19,32,151,26*72
$GPGSV,3,3,10,29,04,323,,50,60,166,35*71
$GPGLL,2458.14057,N,12111.46891,E,092320.00,A,A*6F
$GPRMC,092325.00,A,2458.13995,N,12111.46923,E,0.035,,080621,,,A*70
$GPVTG,,T,,M,0.035,N,0.066,K,A*25
$GPGGA,092325.00,2458.13995,N,12111.46923,E,1,06,1.31,141.1,M,16.4,M,,*54
$GPGSA,A,3,02,05,06,19,13,07,,,,,,,2.65,1.31,2.31*0C
$GPGSV,3,1,10,02,58,010,35,05,44,277,33,06,44,070,26,07,06,082,30*78
$GPGSV,3,2,10,09,13,040,25,12,21,253,24,13,32,185,28,19,32,151,29*71
$GPGSV,3,3,10,29,04,323,17,50,60,166,34*76
$GPGLL,2458.13995,N,12111.46923,E,092325.00,A,A*62
$GPRMC,092328.00,A,2458.14406,N,12111.47099,E,0.683,,080621,,,A*7F
$GPVTG,,T,,M,0.683,N,1.265,K,A*2E
$GPGGA,092328.00,2458.14406,N,12111.47099,E,1,07,1.63,141.4,M,16.4,M,,*53
$GPGSA,A,2,02,05,06,13,19,07,09,,,,,,1.91,1.63,1.00*0A
$GPGSV,3,1,09,02,58,010,34,05,44,278,31,06,44,071,22,07,06,081,26*7D
$GPGSV,3,2,09,09,13,040,23,12,21,253,,13,32,185,28,19,32,151,28*78
$GPGSV,3,3,09,29,04,323,*4D
$GPGLL,2458.14406,N,12111.47099,E,092328.00,A,A*66
$GPTXT,01,01,02,ANTSTATUS=OK*3B
$GPRMC,092329.00,A,2458.14338,N,12111.47026,E,0.043,,080621,,,A*7A
$GPVTG,,T,,M,0.043,N,0.079,K,A*2A
$GPGGA,092329.00,2458.14338,N,12111.47026,E,1,06,1.51,148.4,M,16.4,M,,*55
$GPGSA,A,3,02,05,06,13,19,07,,,,,,,3.17,1.51,2.79*02
$GPGSV,3,1,09,02,58,010,33,05,44,278,31,06,44,071,22,07,06,081,26*7A
$GPGSV,3,2,09,09,13,040,25,12,21,253,21,13,32,185,28,19,32,151,27*72
$GPGSV,3,3,09,29,04,323,*4D
$GPGLL,2458.14338,N,12111.47026,E,092329.00,A,A*69
$GPRMC,092330.00,A,2458.14454,N,12111.47283,E,0.174,,080621,,,A*77
$GPVTG,,T,,M,0.174,N,0.322,K,A*22
$GPGGA,092330.00,2458.14454,N,12111.47283,E,1,06,1.31,148.9,M,16.4,M,,*56
$GPGSA,A,3,02,05,06,13,19,07,,,,,,,2.65,1.31,2.31*0C
$GPGSV,3,1,09,02,58,010,34,05,44,278,31,06,44,071,23,07,06,081,27*7D
$GPGSV,3,2,09,09,13,040,25,12,21,253,21,13,32,185,29,19,32,151,28*7C
$GPGSV,3,3,09,29,04,323,*4D
$GPGLL,2458.14454,N,12111.47283,E,092330.00,A,A*61
$GPRMC,092331.00,A,2458.14410,N,12111.47337,E,0.361,,080621,,,A*7E
$GPVTG,,T,,M,0.361,N,0.669,K,A*2E
$GPGGA,092331.00,2458.14410,N,12111.47337,E,1,06,1.31,150.8,M,16.4,M,,*51
$GPGSA,A,3,02,05,06,13,19,07,,,,,,,2.65,1.31,2.31*0C
$GPGSV,3,1,09,02,58,010,33,05,44,278,30,06,44,071,20,07,06,081,26*79
$GPGSV,3,2,09,09,13,040,25,12,21,253,22,13,32,185,29,19,32,151,29*7E
$GPGSV,3,3,09,29,04,323,*4D
$GPGLL,2458.14410,N,12111.47337,E,092331.00,A,A*6E
$GPRMC,092332.00,A,2458.14360,N,12111.47375,E,0.133,,080621,,,A*7E
$GPRMC,092337.00,A,2458.14389,N,12111.47548,E,0.110,,080621,,,A*75
$GPVTG,,T,,M,0.110,N,0.204,K,A*25
$GPGGA,092337.00,2458.14389,N,12111.47548,E,1,06,1.31,159.9,M,16.4,M,,*56
$GPGSA,A,3,02,05,06,13,19,07,,,,,,,2.65,1.31,2.31*0C
$GPGSV,3,1,10,02,58,010,31,05,44,278,31,06,44,071,27,07,06,081,30*72
$GPGSV,3,2,10,09,13,040,25,12,21,253,25,13,32,185,31,19,32,151,28*79
$GPGSV,3,3,10,29,04,323,,50,51,133,35*73
$GPGLL,2458.14389,N,12111.47548,E,092337.00,A,A*61
$GPRMC,092338.00,A,2458.14396,N,12111.47570,E,0.350,,080621,,,A*79
$GPVTG,,T,,M,0.350,N,0.649,K,A*2E
$GPGGA,092338.00,2458.14396,N,12111.47570,E,1,06,1.31,161.1,M,16.4,M,,*5F
$GPGSA,A,3,02,05,06,13,19,07,,,,,,,2.65,1.31,2.31*0C
$GPGSV,3,1,10,02,58,010,29,05,44,278,30,06,44,071,27,07,06,081,30*7A
$GPGSV,3,2,10,09,13,040,24,12,21,253,26,13,32,185,30,19,32,151,28*7A
$GPGSV,3,3,10,29,04,323,,50,51,133,35*73
$GPGLL,2458.14396,N,12111.47570,E,092338.00,A,A*6B
$GPTXT,01,01,01,NMEA unknown msg*58
$GPRMC,092339.00,A,2458.14403,N,12111.47576,E,0.171,,080621,,,A*74
$GPVTG,,T,,M,0.171,N,0.317,K,A*21
$GPGGA,092339.00,2458.14403,N,12111.47576,E,1,06,1.31,162.0,M,16.4,M,,*51
$GPGSA,A,3,02,05,06,13,19,07,,,,,,,2.65,1.31,2.31*0C
$GPGSV,3,1,10,02,58,010,29,05,44,278,29,06,44,071,27,07,06,081,31*73
$GPGSV,3,2,10,09,13,040,23,12,21,253,26,13,32,185,31,19,32,151,27*73
$GPGSV,3,3,10,29,04,323,,50,51,133,35*73
$GPGLL,2458.14403,N,12111.47576,E,092339.00,A,A*67
$GPRMC,092340.00,A,2458.14398,N,12111.47582,E,0.084,,080621,,,A*7F
$GPVTG,,T,,M,0.084,N,0.156,K,A*2D
$GPGGA,092340.00,2458.14398,N,12111.47582,E,1,06,1.31,163.2,M,16.4,M,,*52
$GPGSA,A,3,02,05,06,13,19,07,,,,,,,2.65,1.31,2.31*0C
$GPGSV,3,1,10,02,58,010,28,05,44,278,29,06,44,071,27,07,06,081,31*72
$GPGSV,3,2,10,09,13,040,22,12,21,253,27,13,32,185,31,19,32,151,27*73
$GPGSV,3,3,10,29,04,323,,50,51,133,35*73
$GPGLL,2458.14398,N,12111.47582,E,092340.00,A,A*67
$GPRMC,092341.00,A,2458.14404,N,12111.47580,E,0.162,,080621,,,A*77
$GPVTG,,T,,M,0.162,N,0.301,K,A*24
$GPGGA,092341.00,2458.14404,N,12111.47580,E,1,06,1.31,163.9,M,16.4,M,,*58
$GPGSA,A,3,02,05,06,13,19,07,,,,,,,2.65,1.31,2.31*0C
$GPGSV,3,1,10,02,58,010,28,05,44,278,29,06,44,071,28,07,06,081,31*7D
$GPGSV,3,2,10,09,13,040,22,12,21,253,28,13,32,185,32,19,32,151,27*7F
$GPGSV,3,3,10,29,04,323,,50,51,133,35*73
$GPGLL,2458.14404,N,12111.47580,E,092341.00,A,A*66
$GPRMC,092342.00,A,2458.14408,N,12111.47567,E,0.148,,080621,,,A*79
$GPVTG,,T,,M,0.148,N,0.275,K,A*2E
$GPGGA,092342.00,2458.14408,N,12111.47567,E,1,06,1.31,164.7,M,16.4,M,,*57
$GPGSA,A,3,02,05,06,13,19,07,,,,,,,2.65,1.31,2.31*0C
$GPGSV,3,1,10,02,58,010,29,05,44,278,29,06,44,071,29,07,06,081,31*7D
$GPGSV,3,2,10,09,13,040,22,12,21,253,28,13,32,185,32,19,31,151,29*72
$GPGSV,3,3,10,29,04,323,,50,51,133,35*73
$GPGLL,2458.14408,N,12111.47567,E,092342.00,A,A*60
$GPRMC,092343.00,A,2458.14406,N,12111.47539,E,0.129,,080621,,,A*7A
$GPVTG,,T,,M,0.129,N,0.239,K,A*21
$GPGGA,092343.00,2458.14406,N,12111.47539,E,1,06,1.31,165.1,M,16.4,M,,*54
$GPGSA,A,3,02,05,06,13,19,07,,,,,,,2.65,1.31,2.31*0C
$GPGSV,3,1,10,02,58,010,30,05,44,278,30,06,44,071,29,07,06,081,31*7D
$GPGSV,3,2,10,09,13,040,23,12,21,253,29,13,32,185,31,19,31,151,27*7F
$GPGSV,3,3,10,29,04,323,,50,51,133,35*73
$GPGLL,2458.14406,N,12111.47539,E,092343.00,A,A*64
$GPRMC,092344.00,A,2458.14405,N,12111.47493,E,0.088,,080621,,,A*75
$GPVTG,,T,,M,0.088,N,0.163,K,A*27
$GPGGA,092344.00,2458.14405,N,12111.47493,E,1,06,1.31,165.6,M,16.4,M,,*56
$GPGSA,A,3,02,05,06,13,19,07,,,,,,,2.65,1.31,2.31*0C
$GPGSV,3,1,11,02,58,010,30,05,44,278,29,06,44,071,29,07,06,081,32*77
$GPGSV,3,2,11,09,13,040,23,12,21,253,29,13,32,185,32,19,31,151,27*7D
$GPGSV,3,3,11,20,,,31,29,04,323,,50,51,133,35*72
$GPGLL,2458.14405,N,12111.47493,E,092344.00,A,A*61
$GPRMC,092345.00,A,2458.14412,N,12111.47447,E,0.142,,080621,,,A*7C
$GPVTG,,T,,M,0.142,N,0.263,K,A*23
$GPGGA,092345.00,2458.14412,N,12111.47447,E,1,06,1.31,165.6,M,16.4,M,,*58
$GPGSA,A,3,02,05,06,13,19,07,,,,,,,2.65,1.31,2.31*0C
$GPGSV,3,1,11,02,58,010,32,05,44,278,30,06,44,071,30,07,06,081,30*77
$GPGSV,3,2,11,09,13,040,23,12,21,253,29,13,32,185,31,19,31,151,27*SV,3,3,11,20,,,31,29,04,323,,50,51,133,35*72
$GPGLL,2458.14412,N,12111.47447,E,092345.00,A,A*6F
$GPRMC,092346.00,A,2458.14417,N,12111.47404,E,0.067,,080621,,,A*7B
$GPVTG,,T,,M,0.067,N,0.123,K,A*22
$GPGGA,092346.00,2458.14417,N,12111.47404,E,1,06,1.31,165.0,M,16.4,M,,*5F
$GPGSA,A,3,02,05,06,13,19,07,,,,,,,2.65,1.31,2.31*0C
$GPGSV,3,1,11,02,58,010,32,05,44,278,30,06,44,071,30,07,06,081,30*77
$GPGSV,3,2,11,09,13,040,24,12,21,253,29,13,32,185,31,19,31,151,28*76
$GPGSV,3,3,11,20,,,31,29,04,323,,50,51,133,35*72
$GPGLL,2458.14417,N,12111.47404,E,092346.00,A,A*6E
$GPRMC,092347.00,A,2458.14424,N,12111.47360,E,0.043,,080621,,,A*79
$GPVTG,,T,,M,0.043,N,0.081,K,A*2D
$GPGGA,092347.00,2458.14424,N,12111.47360,E,1,06,1.31,164.4,M,16.4,M,,*5E
$GPGSA,A,3,02,05,06,13,19,07,,,,,,,2.65,1.31,2.31*0C
$GPGSV,3,1,11,02,58,010,32,05,44,278,30,06,44,071,31,07,06,081,31*77
$GPGSV,3,2,11,09,13,040,25,12,21,253,28,13,32,185,31,19,31,151,29*77
$GPGSV,3,3,11,20,,,30,29,04,323,,50,51,133,35*73
$GPGLL,2458.14424,N,12111.47360,E,092347.00,A,A*6A
$GPRMC,092348.00,A,2458.14426,N,12111.47323,E,0.014,,080621,,,A*71
$GPVTG,,T,,M,0.014,N,0.025,K,A*21
$GPGGA,092348.00,2458.14426,N,12111.47323,E,1,06,1.31,163.7,M,16.4,M,,*50
$GPGSA,A,3,02,05,06,13,19,07,,,,,,,2.65,1.31,2.31*0C
$GPGSV,3,1,11,02,58,010,33,05,44,278,30,06,44,071,31,07,06,081,31*76
$GPGSV,3,2,11,09,13,040,25,12,21,253,29,13,32,185,30,19,31,151,28*76
$GPGSV,3,3,11,20,,,30,29,04,323,,50,51,133,35*73
$GPGLL,2458.14426,N,12111.47323,E,092348.00,A,A*60
$GPRMC,092349.00,A,2458.14429,N,12111.47277,E,0.006,,080621,,,A*7C
$GPVTG,,T,,M,0.006,N,0.011,K,A*25
$GPGGA,092349.00,2458.14429,N,12111.47277,E,1,06,1.31,162.8,M,16.4,M,,*50
$GPGSA,A,3,02,05,06,13,19,07,,,,,,,2.65,1.31,2.31*0C
$GPGSV,3,1,11,02,58,010,33,05,44,278,30,06,44,071,32,07,06,081,30*74
$GPGSV,3,2,11,09,13,040,25,12,21,253,29,13,32,185,30,19,31,151,29*77
$GPGSV,3,3,11,20,,,30,29,04,323,,50,51,133,35*73
$GPRMC,092354.00,A,2458.14424,N,12111.47114,E,0.108,,080621,,,A*74
$GPVTG,,T,,M,0.108,N,0.201,K,A*29
$GPGGA,092354.00,2458.14424,N,12111.47114,E,1,06,1.31,159.5,M,16.4,M,,*52
$GPGSA,A,3,02,05,06,13,19,07,,,,,,,2.65,1.31,2.31*0C
$GPGSV,3,1,11,02,58,010,32,05,44,278,26,06,44,071,32,07,06,081,33*71
$GPGSV,3,2,11,09,13,040,23,12,21,253,29,13,32,185,30,19,31,151,27*7F
$GPGSV,3,3,11,20,,,34,29,04,323,13,50,51,133,36*76
$GPGLL,2458.14424,N,12111.47114,E,092354.00,A,A*69
$GPRMC,092355.00,A,2458.14423,N,12111.47094,E,0.126,,080621,,,A*77
$GPVTG,,T,,M,0.126,N,0.233,K,A*24
$GPGGA,092355.00,2458.14423,N,12111.47094,E,1,06,1.31,159.2,M,16.4,M,,*5A
$GPGSA,A,3,02,05,06,13,19,07,,,,,,,2.65,1.31,2.31*0C
$GPGSV,3,1,11,02,58,010,32,05,44,278,26,06,44,071,31,07,06,081,34*75
$GPGSV,3,2,11,09,13,040,22,12,21,253,28,13,32,185,31,19,31,151,26*7F
$GPGSV,3,3,11,20,,,34,29,04,323,11,50,51,133,35*77
$GPGLL,2458.14423,N,12111.47094,E,092355.00,A,A*66
$GPRMC,092356.00,A,2458.14423,N,12111.47083,E,0.036,,080621,,,A*72
$GPVTG,,T,,M,0.036,N,0.066,K,A*26
$GPGGA,092356.00,2458.14423,N,12111.47083,E,1,06,1.31,159.0,M,16.4,M,,*5D
$GPGSA,A,3,02,05,06,13,19,07,,,,,,,2.65,1.31,2.31*0C
$GPGSV,3,1,11,02,58,010,32,05,44,278,25,06,44,071,31,07,06,081,34*76
$GPGSV,3,2,11,09,13,040,22,12,21,253,28,13,32,185,31,19,31,151,25*7C
$GPGSV,3,3,11,20,,,34,29,04,323,11,50,51,133,35*77
$GPGLL,2458.14423,N,12111.47083,E,092356.00,A,A*63
$GPRMC,092357.00,A,2458.14422,N,12111.47078,E,0.168,,080621,,,A*7C
$GPVTG,,T,,M,0.168,N,0.312,K,A*2C
$GPGGA,092357.00,2458.14422,N,12111.47078,E,1,06,1.31,158.9,M,16.4,M,,*51
$GPGSA,A,3,02,05,06,13,19,07,,,,,,,2.65,1.31,2.31*0C
$GPGSV,3,1,11,02,58,010,33,05,44,278,25,06,44,071,31,07,06,081,33*70
$GPGSV,3,2,11,09,13,040,22,12,21,253,27,13,32,185,31,19,31,151,25*73
$GPGSV,3,3,11,20,,,35,29,04,323,11,50,51,133,36*75
$GPGLL,2458.14422,N,12111.47078,E,092357.00,A,A*67
$GPRMC,092358.00,A,2458.14409,N,12111.47079,E,0.191,,080621,,,A*7D
$GPVTG,,T,,M,0.191,N,0.353,K,A*2F
$GPGGA,092358.00,2458.14409,N,12111.47079,E,1,06,1.31,158.9,M,16.4,M,,*56
$GPGSA,A,3,02,05,06,13,19,07,,,,,,,2.65,1.31,2.31*0C
$GPGSV,3,1,11,02,58,010,32,05,44,278,24,06,44,071,32,07,06,081,33*73
$GPGSV,3,2,11,09,13,040,22,12,21,253,26,13,32,185,31,19,31,151,31*77
$GPGSV,3,3,11,20,,,35,29,04,323,11,50,51,133,35*76
$GPGLL,2458.14409,N,12111.47079,E,092358.00,A,A*60
$GPRMC,092359.00,A,2458.14406,N,12111.47071,E,0.384,,080621,,,A*7D
$GPVTG,,T,,M,0.384,N,0.711,K,A*2B
$GPGGA,092359.00,2458.14406,N,12111.47071,E,1,06,1.31,158.6,M,16.4,M,,*5F
$GPGSA,A,3,02,05,06,13,19,07,,,,,,,2.65,1.31,2.31*0C
$GPGSV,3,1,11,02,58,010,33,05,44,278,22,06,44,071,32,07,06,081,33*74
$GPGSV,3,2,11,09,13,040,23,12,21,253,26,13,32,185,31,19,31,151,25*73
$GPGSV,3,3,11,20,,,35,29,04,323,05,50,51,133,35*73
$GPGLL,2458.14406,N,12111.47071,E,092359.00,A,A*66
$GPRMC,092400.00,A,2458.14385,N,12111.47093,E,0.361,,080621,,,A*7D
$GPVTG,,T,,M,0.361,N,0.669,K,A*2E
$GPGGA,092400.00,2458.14385,N,12111.47093,E,1,06,1.31,158.9,M,16.4,M,,*5B
$GPGSA,A,3,02,05,06,13,19,07,,,,,,,2.65,1.31,2.31*0C
$GPGSV,3,1,11,02,58,010,32,05,44,278,20,06,44,071,33,07,06,081,31*74
$GPGSV,3,2,11,09,13,040,22,12,21,253,26,13,32,185,31,19,31,151,32*74
$GPGSV,3,3,11,20,,,35,29,04,323,05,50,51,133,35*73
$GPGLL,2458.14385,N,12111.47093,E,092400.00,A,A*6D
$GPRMC,092509.00,A,2458.14248,N,12111.46974,E,0.027,,080621,,,A*75
$GPVTG,,T,,M,0.027,N,0.050,K,A*23
$GPGGA,092509.00,2458.14248,N,12111.46974,E,1,08,1.00,146.8,M,16.4,M,,*50
$GPGSA,A,3,02,05,06,13,19,07,12,20,,,,,2.02,1.00,1.76*0E
$GPGSV,3,1,12,02,59,011,23,05,44,278,38,06,44,071,33,07,06,081,24*7A
$GPGSV,3,2,12,09,12,040,26,12,20,252,27,13,33,185,34,15,10,209,20*75
$GPGSV,3,3,12,19,31,151,32,20,37,278,33,29,05,323,15,50,51,133,35*71
$GPGLL,2458.14248,N,12111.46974,E,092509.00,A,A*64
$GPRMC,092510.00,A,2458.14260,N,12111.46988,E,0.162,,080621,,,A*74
$GPVTG,,T,,M,0.162,N,0.299,K,A*24
$GPGGA,092510.00,2458.14260,N,12111.46988,E,1,08,1.00,147.1,M,16.4,M,,*59
$GPGSA,A,3,02,05,06,13,19,07,12,20,,,,,2.02,1.00,1.76*0E
$GPGSV,3,1,12,02,59,011,22,05,44,278,38,06,44,071,33,07,06,081,23*7C
$GPGSV,3,2,12,09,12,040,26,12,20,252,27,13,33,185,35,15,10,209,20*74
$GPGSV,3,3,12,19,31,151,32,20,37,278,32,29,05,323,16,50,51,133,35*73
$GPGLL,2458.14260,N,12111.46988,E,092510.00,A,A*65
$GPRMC,092511.00,A,2458.14273,N,12111.46997,E,0.033,,080621,,,A*7C
$GPVTG,,T,,M,0.033,N,0.062,K,A*27
$GPGGA,092511.00,2458.14273,N,12111.46997,E,1,08,1.00,146.9,M,16.4,M,,*5D
$GPGSA,A,3,02,05,06,13,19,07,12,20,,,,,2.02,1.00,1.76*0E
$GPGSV,3,1,12,02,59,011,21,05,44,278,38,06,44,071,33,07,06,081,23*7F
$GPGSV,3,2,12,09,12,040,26,12,20,252,26,13,33,185,35,15,10,209,20*75
$GPGSV,3,3,12,19,31,151,32,20,37,278,32,29,05,323,16,50,51,133,35*73
$GPGLL,2458.14273,N,12111.46997,E,092511.00,A,A*68
$GPTXT,01,01,00,txbuf alloc*7F
$GPRMC,092512.00,A,2458.14285,N,12111.47005,E,0.113,,080621,,,A*76
$GPVTG,,T,,M,0.113,N,0.209,K,A*2B
$GPGGA,092512.00,2458.14285,N,12111.47005,E,1,08,1.00,146.7,M,16.4,M,,*5A
$GPGSA,A,3,02,05,06,13,19,07,12,20,,,,,2.02,1.00,1.76*0E
$GPGSV,3,1,12,02,59,011,19,05,44,278,38,06,44,071,34,07,06,081,23*73
$GPGSV,3,2,12,09,12,040,26,12,20,252,25,13,33,185,35,15,10,209,20*76
$GPGSV,3,3,12,19,31,151,32,20,37,278,32,29,05,323,16,50,51,133,34*72
$GPGLL,2458.14285,N,12111.47005,E,092512.00,A,A*61
$GPRMC,092518.00,A,2458.14271,N,12111.46996,E,0.298,,080621,,,A*75
$GPVTG,,T,,M,0.298,N,0.552,K,A*22
$GPGGA,092518.00,2458.14271,N,12111.46996,E,1,08,1.00,152.2,M,16.4,M,,*59
$GPGSA,A,3,02,05,06,13,19,07,12,20,,,,,2.02,1.00,1.76*0E
$GPGSV,3,1,12,02,59,011,17,05,44,278,37,06,44,071,34,07,06,081,25*74
$GPGSV,3,2,12,09,12,040,27,12,20,252,25,13,33,185,35,15,10,209,22*75
$GPGSV,3,3,12,19,31,151,31,20,37,278,31,29,05,323,20,50,51,133,34*77
$GPGLL,2458.14271,N,12111.46996,E,092518.00,A,A*62
$GPRMC,092519.00,A,2458.14262,N,12111.46989,E,0.260,,080621,,,A*7F
$GPVTG,,T,,M,0.260,N,0.481,K,A*2A
$GPGGA,092519.00,2458.14262,N,12111.46989,E,1,08,1.00,153.3,M,16.4,M,,*54
$GPGSA,A,3,02,05,06,13,19,07,12,20,,,,,2.02,1.00,1.76*0E
$GPGSV,3,1,12,02,59,011,17,05,44,278,37,06,44,071,34,07,06,081,25*74
$GPGSV,3,2,12,09,12,040,27,12,20,252,26,13,33,185,35,15,10,209,22*76
$GPGSV,3,3,12,19,31,151,31,20,37,278,30,29,05,323,21,50,51,133,34*77
$GPGLL,2458.14262,N,12111.46989,E,092519.00,A,A*6F
$GPRMC,092520.00,A,2458.14256,N,12111.46983,E,0.099,,080621,,,A*7C
$GPVTG,,T,,M,0.099,N,0.183,K,A*29
$GPGGA,092520.00,2458.14256,N,12111.46983,E,1,08,1.00,154.3,M,16.4,M,,*54
$GPGSA,A,3,02,05,06,13,19,07,12,20,,,,,2.02,1.00,1.76*0E
$GPGSV,3,1,12,02,59,011,17,05,44,278,37,06,44,071,34,07,06,081,26*77
$GPGSV,3,2,12,09,12,040,27,12,20,252,26,13,33,185,35,15,10,209,21*75
$GPGSV,3,3,12,19,31,151,31,20,37,278,30,29,05,323,21,50,51,133,34*77
$GPGLL,2458.14256,N,12111.46983,E,092520.00,A,A*68
$GPRMC,092521.00,A,2458.14254,N,12111.46976,E,0.042,,080621,,,A*73
$GPVTG,,T,,M,0.042,N,0.078,K,A*2A
$GPGGA,092521.00,2458.14254,N,12111.46976,E,1,08,1.00,155.2,M,16.4,M,,*5D
$GPGSA,A,3,02,05,06,13,19,07,12,20,,,,,2.02,1.00,1.76*0E
$GPGSV,3,1,12,02,59,011,17,05,44,278,37,06,44,071,35,07,06,081,27*77
$GPGSV,3,2,12,09,12,040,27,12,20,252,26,13,33,185,35,15,10,209,21*75
$GPGSV,3,3,12,19,31,151,32,20,37,278,29,29,05,323,21,50,51,133,34*7C
$GPGLL,2458.14254,N,12111.46976,E,092521.00,A,A*61
$GPRMC,092522.00,A,2458.14247,N,12111.46968,E,0.036,,080621,,,A*7E
$GPVTG,,T,,M,0.036,N,0.066,K,A*26
$GPGGA,092522.00,2458.14247,N,12111.46968,E,1,08,1.00,156.8,M,16.4,M,,*5A
$GPGSA,A,3,02,05,06,13,19,07,12,20,,,,,2.02,1.00,1.76*0E
$GPGSV,3,1,12,02,59,011,19,05,44,278,37,06,44,071,36,07,06,081,31*7D
$GPGSV,3,2,12,09,12,040,26,12,20,252,25,13,33,185,35,15,10,209,20*76
$GPGSV,3,3,12,19,31,151,31,20,37,278,30,29,05,323,21,50,51,133,34*77
$GPGLL,2458.14247,N,12111.46968,E,092522.00,A,A*6F
$GPRMC,092523.00,A,2458.14238,N,12111.46960,E,0.108,,080621,,,A*73
$GPVTG,,T,,M,0.108,N,0.200,K,A*28
$GPGGA,092523.00,2458.14238,N,12111.46960,E,1,08,1.00,158.2,M,16.4,M,,*5F
$GPGSA,A,3,02,05,06,13,19,07,12,20,,,,,2.02,1.00,1.76*0E
$GPGSV,3,1,12,02,59,011,19,05,44,278,37,06,44,071,35,07,06,081,29*77
$GPGSV,3,2,12,09,12,040,26,12,20,252,25,13,33,185,35,15,10,209,20*76
$GPGSV,3,3,12,19,31,151,31,20,37,278,29,29,05,323,20,50,51,133,34*7E
$GPGLL,2458.14238,N,12111.46960,E,092523.00,A,A*6E
$GPRMC,092524.00,A,2458.14232,N,12111.46953,E,0.081,,080621,,,A*7E
$GPVTG,,T,,M,0.081,N,0.150,K,A*2E
$GPGGA,092524.00,2458.14232,N,12111.46953,E,1,08,1.00,159.2,M,16.4,M,,*53
$GPGSA,A,3,02,05,06,13,19,07,12,20,,,,,2.02,1.00,1.76*0E
$GPGSV,3,1,12,02,59,011,21,05,44,278,37,06,44,071,36,07,06,081,28*7E
$GPGSV,3,2,12,09,12,040,26,12,20,252,26,13,33,185,35,15,10,209,19*7F
$GPGSV,3,3,12,19,31,151,31,20,37,278,29,29,05,323,21,50,51,133,34*7F
$GPGLL,2458.14232,N,12111.46953,E,092524.00,A,A*63
$GPRMC,092525.00,A,2458.14230,N,12111.46945,E,0.021,,080621,,,A*70
$GPVTG,,T,,M,0.021,N,0.038,K,A*2B
$GPGGA,092525.00,2458.14230,N,12111.46945,E,1,08,1.00,159.9,M,16.4,M,,*5C
$GPGSA,A,3,02,05,06,13,19,07,12,20,,,,,2.02,1.00,1.76*0E
$GPGSV,3,1,12,02,59,011,20,05,44,278,37,06,44,071,36,07,06,081,27*70
$GPGSV,3,2,12,09,12,040,25,12,20,252,25,13,33,185,35,15,10,209,19*7F
$GPGSV,3,3,12,19,31,151,31,20,37,278,29,29,05,323,21,50,51,133,34*7F
$GPGLL,2458.14230,N,12111.46945,E,092525.00,A,A*67
$GPRMC,092526.00,A,2458.14228,N,12111.46939,E,0.025,,080621,,,A*75
$GPVTG,,T,,M,0.025,N,0.047,K,A*27
$GPGGA,092526.00,2458.14228,N,12111.46939,E,1,08,1.00,160.6,M,16.4,M,,*58
$GPGSA,A,3,02,05,06,13,19,07,12,20,,,,,2.02,1.00,1.76*0E
$GPGSV,3,1,12,02,59,011,21,05,44,278,37,06,44,071,33,07,06,081,28*7B
$GPGSV,3,2,12,09,12,040,23,12,20,252,24,13,33,185,35,15,10,209,19*78
$GPRMC,092529.00,A,2458.14217,N,12111.46916,E,0.088,,080621,,,A*7C
$GPVTG,,T,,M,0.088,N,0.164,K,A*20
$GPGGA,092529.00,2458.14217,N,12111.46916,E,1,08,1.00,162.3,M,16.4,M,,*51
$GPGSA,A,3,02,05,06,13,19,07,12,20,,,,,2.02,1.00,1.76*0E
$GPGSV,3,1,12,02,59,011,21,05,44,278,38,06,44,071,35,07,06,081,25*7F
$GPGSV,3,2,12,09,12,040,19,12,20,252,25,13,33,185,29,15,10,209,12*76
$GPGSV,3,3,12,19,31,151,27,20,37,278,31,29,05,323,19,50,51,133,33*7D
$GPGLL,2458.14217,N,12111.46916,E,092529.00,A,A*68
$GPRMC,092530.00,A,2458.14216,N,12111.46909,E,0.043,,080621,,,A*7C
$GPVTG,,T,,M,0.043,N,0.079,K,A*2A
$GPGGA,092530.00,2458.14216,N,12111.46909,E,1,08,1.00,162.5,M,16.4,M,,*50
$GPGSA,A,3,02,05,06,13,19,07,12,20,,,,,2.02,1.00,1.76*0E
$GPGSV,3,1,12,02,59,011,21,05,44,278,38,06,44,071,35,07,06,081,23*79
$GPGSV,3,2,12,09,12,040,19,12,20,252,26,13,33,185,31,15,10,209,12*7C
$GPTXT,01,01,01,NMEA unknown msg*58
$GPRMC,092532.00,A,2458.14220,N,12111.46890,E,0.027,,080621,,,A*78
$GPVTG,,T,,M,0.027,N,0.050,K,A*23
$GPGGA,092532.00,2458.14220,N,12111.46890,E,1,08,1.00,163.2,M,16.4,M,,*50
$GPGSA,A,3,02,05,06,13,19,07,12,20,,,,,2.02,1.00,1.76*0E
$GPGSV,3,1,12,02,59,011,24,05,44,278,38,06,44,071,36,07,06,081,20*7C
$GPGSV,3,2,12,09,12,040,15,12,20,252,26,13,33,185,30,15,10,209,09*7B
$GPTXT,01,01,01,NMEA unknown msg*58
$GPRMC,092533.00,A,2458.14217,N,12111.46878,E,0.055,,080621,,,A*7E
$GPVTG,,T,,M,0.055,N,0.102,K,A*20
$GPGGA,092533.00,2458.14217,N,12111.46878,E,1,08,1.00,163.4,M,16.4,M,,*55
$GPGSA,A,3,02,05,06,13,19,07,12,20,,,,,2.02,1.00,1.76*0E
$GPGSV,3,1,12,02,59,011,26,05,44,278,38,06,44,071,37,07,06,081,22*7D
$GPGSV,3,2,12,09,12,040,16,12,20,252,26,13,33,185,31,15,10,209,08*78
$GPGSV,3,3,12,19,31,151,34,20,37,278,31,29,05,323,19,50,51,133,34*78
$GPGLL,2458.14217,N,12111.46878,E,092533.00,A,A*6A
$GPRMC,092552.00,A,2458.14118,N,12111.46831,E,0.049,,080621,,,A*75
$GPVTG,,T,,M,0.049,N,0.091,K,A*26
$GPGGA,092552.00,2458.14118,N,12111.46831,E,1,08,1.00,162.2,M,16.4,M,,*54
$GPGSA,A,3,02,05,06,13,19,07,12,20,,,,,2.02,1.00,1.76*0E
$GPGSV,4,1,13,02,59,012,31,05,45,279,40,06,44,072,39,07,06,080,30*7E
$GPGSV,4,2,13,09,12,040,22,12,20,252,29,13,33,185,27,15,10,209,*79
$GPTXT,01,01,01,NMEA unknown msg*58
$GPRMC,092610.00,A,2458.14039,N,12111.46826,E,0.195,,080621,,,A*74
$GPVTG,,T,,M,0.195,N,0.361,K,A*2A
$GPGGA,092610.00,2458.14039,N,12111.46826,E,1,08,1.00,155.5,M,16.4,M,,*56
$GPGSA,A,3,02,05,06,13,19,07,12,20,,,,,2.02,1.00,1.76*0E
$GPGSV,4,1,13,02,59,012,31,05,45,279,38,06,44,072,36,07,06,080,29*76
$GPGSV,4,2,13,09,12,039,23,12,20,252,28,13,34,185,27,15,10,209,26*74
$GPGSV,4,3,13,17,09,150,20,19,30,151,32,20,37,279,30,29,05,323,17*79
$GPGSV,4,4,13,50,60,166,34*4E
$GPRMC,092406.00,A,2458.14292,N,12111.47216,E,0.207,,080621,,,A*72
$GPVTG,,T,,M,0.207,N,0.383,K,A*2E
$GPGGA,092406.00,2458.14292,N,12111.47216,E,1,06,1.31,159.5,M,16.4,M,,*58
$GPGSA,A,3,02,05,06,13,19,07,,,,,,,2.65,1.31,2.31*0C
$GPGSV,3,1,11,02,58,010,33,05,44,278,21,06,44,071,33,07,06,081,33*76
$GPGSV,3,2,11,09,13,040,16,12,21,253,27,13,32,185,32,19,31,151,28*7A
$GPGSV,3,3,11,20,,,36,29,04,323,09,50,51,133,35*7C
$GPGLL,2458.14292,N,12111.47216,E,092406.00,A,A*63
$GPRMC,092407.00,A,2458.14282,N,12111.47233,E,0.029,,080621,,,A*7B
$GPVTG,,T,,M,0.029,N,0.053,K,A*2E
$GPGGA,092407.00,2458.14282,N,12111.47233,E,1,06,1.31,159.4,M,16.4,M,,*5E
$GPGSA,A,3,02,05,06,13,19,07,,,,,,,2.65,1.31,2.31*0C
$GPGSV,3,1,11,02,58,010,33,05,44,278,20,06,44,071,32,07,06,081,33*76
$GPGSV,3,2,11,09,13,040,13,12,21,253,26,13,32,185,31,19,31,151,27*72
$GPGSV,3,3,11,20,,,34,29,04,323,,50,51,133,33*71
$GPGLL,2458.14282,N,12111.47233,E,092407.00,A,A*64
$GPRMC,092408.00,A,2458.14268,N,12111.47261,E,0.050,,080621,,,A*79
$GPVTG,,T,,M,0.050,N,0.093,K,A*2C
$GPGGA,092408.00,2458.14268,N,12111.47261,E,1,06,1.31,159.7,M,16.4,M,,*51
$GPGSA,A,3,02,05,06,13,19,07,,,,,,,2.65,1.31,2.31*0C
$GPGSV,3,1,11,02,58,010,33,05,44,278,19,06,44,071,33,07,06,081,33*7D
$GPGSV,3,2,11,09,13,040,12,12,21,253,26,13,32,185,32,19,31,151,28*7F
$GPGSV,3,3,11,20,,,35,29,04,323,,50,51,133,34*77
$GPGLL,2458.14268,N,12111.47261,E,092408.00,A,A*68
$GPRMC,092409.00,A,2458.14250,N,12111.47290,E,0.067,,080621,,,A*79
$GPVTG,,T,,M,0.067,N,0.123,K,A*22
$GPGGA,092409.00,2458.14250,N,12111.47290,E,1,06,1.31,160.0,M,16.4,M,,*58
$GPGSA,A,3,02,05,06,13,19,07,,,,,,,2.65,1.31,2.31*0C
$GPGSV,3,1,11,02,58,010,34,05,44,278,20,06,44,071,33,07,06,081,33*70
$GPGSV,3,2,11,09,13,040,13,12,21,253,27,13,32,185,32,19,31,151,30*76
$GPGSV,3,3,11,20,,,35,29,04,323,,50,51,133,34*77
$GPGLL,2458.14250,N,12111.47290,E,092409.00,A,A*6C
$GPRMC,092410.00,A,2458.14235,N,12111.47307,E,0.457,,080621,,,A*7A
$GPVTG,,T,,M,0.457,N,0.847,K,A*2E
$GPGGA,092410.00,2458.14235,N,12111.47307,E,1,06,1.31,160.0,M,16.4,M,,*5C
$GPGSA,A,3,02,05,06,13,19,07,,,,,,,2.65,1.31,2.31*0C
$GPGSV,3,1,11,02,58,010,34,05,44,278,20,06,44,071,33,07,06,081,34*77
$GPGSV,3,2,11,09,13,040,13,12,21,253,27,13,32,185,33,19,31,151,29*7F
$GPGSV,3,3,11,20,,,35,29,04,323,,50,51,133,35*76
$GPGLL,2458.14235,N,12111.47307,E,092410.00,A,A*68
$GPRMC,092411.00,A,2458.14218,N,12111.47308,E,0.289,,080621,,,A*7E
$GPVTG,,T,,M,0.289,N,0.535,K,A*23
$GPGGA,092411.00,2458.14218,N,12111.47308,E,1,06,1.31,159.7,M,16.4,M,,*50
$GPGSA,A,3,02,05,06,13,19,07,,,,,,,2.65,1.31,2.31*0C
$GPGSV,3,1,11,02,58,010,35,05,44,278,21,06,44,071,33,07,06,081,31*72
$GPGSV,3,2,11,09,13,040,10,12,21,253,27,13,32,185,32,19,31,151,29*7D
$GPGSV,3,3,11,20,,,35,29,04,323,,50,51,133,34*77
$GPGLL,2458.14218,N,12111.47308,E,092411.00,A,A*69
$GPRMC,092412.00,A,2458.14203,N,12111.47314,E,0.123,,080621,,,A*79
$GPVTG,,T,,M,0.123,N,0.228,K,A*2B
$GPGGA,092412.00,2458.14203,N,12111.47314,E,1,06,1.31,159.4,M,16.4,M,,*57
$GPGSA,A,3,02,05,06,13,19,07,,,,,,,2.65,1.31,2.31*0C
$GPGSV,3,1,11,02,58,010,35,05,44,278,24,06,44,071,33,07,06,081,32*74
$GPGSV,3,2,11,09,13,040,10,12,21,253,28,13,32,185,33,19,31,151,29*73
$GPGSV,3,3,11,20,,,36,29,04,323,,50,51,133,34*74
$GPGLL,2458.14203,N,12111.47314,E,092412.00,A,A*6D
$GPRMC,092413.00,A,2458.14190,N,12111.47330,E,0.129,,080621,,,A*7D
$GPVTG,,T,,M,0.129,N,0.239,K,A*21
$GPGGA,092413.00,2458.14190,N,12111.47330,E,1,06,1.31,159.3,M,16.4,M,,*5E
$GPGSA,A,3,02,05,06,13,19,07,,,,,,,2.65,1.31,2.31*0C
$GPGSV,3,1,11,02,58,010,35,05,44,278,25,06,44,071,33,07,06,081,33*74
$GPGSV,3,2,11,09,13,040,10,12,21,253,28,13,32,185,33,19,31,151,28*72
$GPGSV,3,3,11,20,,,36,29,04,323,,50,51,133,35*75
$GPRMC,092416.00,A,2458.14115,N,12111.47449,E,0.034,,080621,,,A*71
$GPVTG,,T,,M,0.034,N,0.064,K,A*26
$GPGGA,092416.00,2458.14115,N,12111.47449,E,1,06,1.31,160.5,M,16.4,M,,*53
$GPGSA,A,3,02,05,06,13,19,07,,,,,,,2.65,1.31,2.31*0C
$GPGSV,3,1,11,02,58,010,35,05,44,278,32,06,44,071,34,07,06,081,33*75
$GPGSV,3,2,11,09,13,040,11,12,21,253,29,13,32,185,33,19,31,151,28*72
$GPRMC,092417.00,A,2458.14099,N,12111.47484,E,0.342,,080621,,,A*76
$GPVTG,,T,,M,0.342,N,0.634,K,A*27
$GPGGA,092417.00,2458.14099,N,12111.47484,E,1,06,1.31,160.5,M,16.4,M,,*56
$GPGSA,A,3,02,05,06,13,19,07,,,,,,,2.65,1.31,2.31*0C
$GPGSV,3,1,11,02,58,010,35,05,44,278,32,06,44,071,34,07,06,081,32*74
$GPGSV,3,2,11,09,13,040,17,12,21,253,29,13,32,185,33,19,31,151,27*7B
$GPRMC,092419.00,A,2458.14069,N,12111.47506,E,0.083,,080621,,,A*72
$GPVTG,,T,,M,0.083,N,0.153,K,A*2F
$GPGGA,092419.00,2458.14069,N,12111.47506,E,1,06,1.31,160.2,M,16.4,M,,*5B
$GPGSA,A,3,02,05,06,13,19,07,,,,,,,2.65,1.31,2.31*0C
$GPGSV,3,1,11,02,58,010,35,05,44,278,31,06,44,071,34,07,06,081,33*76
$GPRMC,092420.00,A,2458.14059,N,12111.47503,E,0.043,,080621,,,A*72
$GPVTG,,T,,M,0.043,N,0.079,K,A*2A
$GPGGA,092420.00,2458.14059,N,12111.47503,E,1,06,1.31,159.9,M,16.4,M,,*56
$GPGSA,A,3,02,05,06,13,19,07,,,,,,,2.65,1.31,2.31*0C
$GPGSV,3,1,11,02,58,010,35,05,44,278,32,06,44,071,35,07,06,081,34*73
$GPGSV,3,2,11,09,13,040,24,12,21,253,28,13,32,185,33,19,31,151,29*74
$GPGSV,3,3,11,20,,,36,29,04,323,,50,51,133,34*74
$GPRMC,092421.00,A,2458.14054,N,12111.47493,E,0.017,,080621,,,A*77
$GPVTG,,T,,M,0.017,N,0.031,K,A*27
$GPGGA,092421.00,2458.14054,N,12111.47493,E,1,06,1.31,159.4,M,16.4,M,,*5F
$GPGSA,A,3,02,05,06,13,19,07,,,,,,,2.65,1.31,2.31*0C
$GPGSV,3,1,11,02,58,010,35,05,44,278,33,06,44,071,36,07,06,081,34*71
$GPGSV,3,2,11,09,13,040,25,12,21,253,28,13,32,185,34,19,31,151,28*73
$GPGSV,3,3,11,20,,,36,29,04,323,,50,51,133,35*75
$GPGLL,2458.14054,N,12111.47493,E,092421.00,A,A*65
$GPRMC,092422.00,A,2458.14055,N,12111.47469,E,0.040,,080621,,,A*72
$GPVTG,,T,,M,0.040,N,0.073,K,A*23
$GPGGA,092422.00,2458.14055,N,12111.47469,E,1,06,1.31,158.7,M,16.4,M,,*5A
$GPGSA,A,3,02,05,06,13,19,07,,,,,,,2.65,1.31,2.31*0C
$GPRMC,092429.00,A,2458.14087,N,12111.47247,E,0.014,,080621,,,A*7D
$GPVTG,,T,,M,0.014,N,0.025,K,A*21
$GPGGA,092429.00,2458.14087,N,12111.47247,E,1,06,1.31,152.1,M,16.4,M,,*58
$GPGSA,A,3,02,05,06,13,19,07,,,,,,,2.65,1.31,2.31*0C
$GPGSV,3,1,11,02,58,010,35,05,44,278,33,06,44,071,36,07,06,081,31*74
$GPGSV,3,2,11,09,13,040,25,12,21,253,27,13,32,185,33,19,31,151,28*7B
$GPRMC,092440.00,A,2458.14134,N,12111.47033,E,0.238,,080621,,,A*76
$GPVTG,,T,,M,0.238,N,0.441,K,A*2B
$GPGGA,092440.00,2458.14134,N,12111.47033,E,1,06,1.31,145.5,M,16.4,M,,*5D
$GPGSA,A,3,02,05,06,13,19,07,,,,,,,2.65,1.31,2.31*0C
$GPGSV,3,1,11,02,59,011,35,05,44,278,35,06,44,071,37,07,06,081,31*73
$GPGSV,3,2,11,09,13,040,21,12,21,253,21,13,32,185,33,19,31,151,23*72
$GPGSV,3,3,11,20,,,33,29,04,323,18,50,51,133,34*78
$GPRMC,092445.00,A,2458.14109,N,12111.46989,E,0.089,,080621,,,A*7C
$GPVTG,,T,,M,0.089,N,0.165,K,A*20
$GPGGA,092445.00,2458.14109,N,12111.46989,E,1,06,1.31,144.9,M,16.4,M,,*52
$GPGSA,A,3,02,05,06,13,19,07,,,,,,,2.65,1.31,2.31*0C
$GPGSV,3,1,11,02,59,011,34,05,44,278,35,06,44,071,34,07,06,081,27*76
$GPGSV,3,2,11,09,12,040,19,12,21,253,22,13,32,185,32,19,31,151,28*71
$GPGSV,3,3,11,20,,,34,29,04,323,19,50,51,133,35*7F
$GPGLL,2458.14109,N,12111.46989,E,092445.00,A,A*69
$GPRMC,092446.00,A,2458.14105,N,12111.46982,E,0.040,,080621,,,A*7D
$GPVTG,,T,,M,0.040,N,0.074,K,A*24
$GPGGA,092446.00,2458.14105,N,12111.46982,E,1,06,1.31,144.8,M,16.4,M,,*57
$GPGSA,A,3,02,05,06,13,19,07,,,,,,,2.65,1.31,2.31*0C
$GPGSV,3,1,12,02,59,011,34,05,44,278,34,06,44,071,33,07,06,081,27*73
$GPGSV,3,2,12,09,12,040,21,12,20,253,20,13,32,185,32,15,09,209,*79
$GPGSV,3,3,12,19,31,151,28,20,,,35,29,04,323,20,50,51,133,34*43
$GPRMC,092450.00,A,2458.14122,N,12111.46950,E,0.036,,080621,,,A*71
$GPVTG,,T,,M,0.036,N,0.066,K,A*26
$GPGGA,092450.00,2458.14122,N,12111.46950,E,1,06,1.31,143.7,M,16.4,M,,*52
$GPGSA,A,3,02,05,06,13,19,07,,,,,,,2.65,1.31,2.31*0C
$GPGSV,3,1,12,02,59,011,32,05,44,278,35,06,44,071,34,07,06,081,27*73
$GPGSV,3,2,12,09,12,040,23,12,20,253,23,13,33,185,32,15,10,209,23*70
$GPRMC,092244.00,A,2458.14301,N,12111.46835,E,0.037,,080621,,,A*72
$GPVTG,,T,,M,0.037,N,0.069,K,A*28
$GPGGA,092244.00,2458.14301,N,12111.46835,E,1,06,1.30,141.7,M,16.4,M,,*53
$GPGSA,A,3,02,05,06,19,13,07,,,,,,,2.65,1.30,2.30*0C
$GPGSV,3,1,09,02,58,010,38,05,44,277,39,06,44,070,33,07,06,082,32*71
$GPGSV,3,2,09,09,13,040,20,13,32,185,33,19,32,151,28,29,04,323,*78
$GPGSV,3,3,09,50,51,133,35*46
$GPRMC,092248.00,A,2458.14266,N,12111.46865,E,0.341,,080621,,,A*79
$GPVTG,,T,,M,0.341,N,0.631,K,A*21
$GPGGA,092248.00,2458.14266,N,12111.46865,E,1,06,1.30,140.6,M,16.4,M,,*5A
$GPGSA,A,3,02,05,06,19,13,07,,,,,,,2.65,1.30,2.30*0C
$GPGSV,3,1,09,02,58,010,38,05,44,277,39,06,44,070,31,07,06,082,31*70
$GPGSV,3,2,09,09,13,040,20,13,32,185,31,19,32,151,29,29,04,323,20*79
$GPRMC,092250.00,A,2458.14261,N,12111.46887,E,0.040,,080621,,,A*79
$GPVTG,,T,,M,0.040,N,0.075,K,A*25
$GPGGA,092250.00,2458.14261,N,12111.46887,E,1,06,1.30,139.9,M,16.4,M,,*59
$GPGSA,A,3,02,05,06,19,13,07,,,,,,,2.65,1.30,2.30*0C
$GPGSV,3,1,09,02,58,010,37,05,44,277,39,06,44,070,32,07,06,082,31*7C
$GPGSV,3,2,09,09,13,040,20,13,32,185,32,19,32,151,21,29,04,323,17*76
$GPRMC,092252.00,A,2458.14250,N,12111.46905,E,0.143,,080621,,,A*70
$GPVTG,,T,,M,0.143,N,0.266,K,A*27
$GPGGA,092252.00,2458.14250,N,12111.46905,E,1,06,1.30,139.2,M,16.4,M,,*59
$GPGSA,A,3,02,05,06,19,13,07,,,,,,,2.65,1.30,2.30*0C
$GPGSV,3,1,09,02,58,010,38,05,44,277,40,06,44,070,32,07,06,082,30*7C
$GPGSV,3,2,09,09,13,040,20,13,32,185,29,19,32,151,30,29,04,323,17*7C
$GPGSV,3,3,09,50,51,133,35*46
