$GPRMC,101825.00,A,2457.95706,N,12111.65919,E,5.726,181.27,080621,,,A*6E
$GPVTG,181.27,T,,M,5.726,N,10.604,K,A*05
$GPGGA,101825.00,2457.95706,N,12111.65919,E,1,08,1.04,137.8,M,16.4,M,,*59
$GPGSA,A,3,02,05,20,06,15,29,30,07,,,,,1.94,1.04,1.64*00
$GPGSV,3,1,12,02,65,064,25,05,51,316,33,06,34,102,18,07,08,059,18*78
$GPGSV,3,2,12,12,09,231,,13,60,183,,15,31,217,10,19,08,156,*7E
$GPGSV,3,3,12,20,46,309,29,25,04,264,,29,24,316,29,30,20,095,26*73
$GPGLL,2457.95706,N,12111.65919,E,101825.00,A,A*6F
$GPRMC,101826.00,A,2457.95772,N,12111.65949,E,10.039,197.59,080621,,,A*58
$GPVTG,197.59,T,,M,10.039,N,18.592,K,A*32
$GPGGA,101826.00,2457.95772,N,12111.65949,E,1,08,1.04,138.3,M,16.4,M,,*58
$GPGSA,A,3,02,05,20,06,15,29,30,07,,,,,1.94,1.04,1.64*00
$GPGSV,3,1,12,02,65,064,25,05,51,316,33,06,34,102,19,07,08,059,18*79
$GPGSV,3,2,12,12,09,231,,13,60,183,,15,31,217,09,19,08,156,*76
$GPGSV,3,3,12,20,46,309,29,25,04,264,,29,24,316,29,30,20,094,26*72
$GPGLL,2457.95772,N,12111.65949,E,101826.00,A,A*6A
$GPRMC,101827.00,A,2457.95691,N,12111.65911,E,12.333,201.11,080621,,,A*53
$GPVTG,201.11,T,,M,12.333,N,22.840,K,A*32
$GPGGA,101827.00,2457.95691,N,12111.65911,E,1,09,1.04,138.2,M,16.4,M,,*58
$GPGSA,A,3,02,13,05,20,06,15,29,30,07,,,,1.94,1.04,1.64*02
$GPGSV,3,1,12,02,65,064,25,05,51,316,33,06,34,102,19,07,08,059,19*78
$GPGSV,3,2,12,12,09,231,,13,60,183,16,15,31,217,09,19,08,156,*71
$GPGSV,3,3,12,20,46,309,28,25,04,264,,29,24,316,28,30,20,094,26*72
$GPGLL,2457.95691,N,12111.65911,E,101827.00,A,A*6A
$GPRMC,101828.00,A,2457.95570,N,12111.65858,E,11.992,201.63,080621,,,A*5B
$GPVTG,201.63,T,,M,11.992,N,22.209,K,A*32
$GPGGA,101828.00,2457.95570,N,12111.65858,E,1,09,1.04,137.5,M,16.4,M,,*5F
$GPGSA,A,3,02,13,05,20,06,15,29,30,07,,,,1.94,1.04,1.64*02
$GPGSV,3,1,12,02,65,064,25,05,51,316,33,06,34,102,19,07,08,059,19*78
$GPRMC,101832.00,A,2457.94302,N,12111.65315,E,18.304,200.55,080621,,,A*58
$GPVTG,200.55,T,,M,18.304,N,33.8
$GPGGA,101832.00,2457.94302,N,12111.65315,E,1,08,1.04,130.1,M,16.4,M,,*56
$GPGSA,A,3,02,05,20,06,15,29,30,07,,,,,1.94,1.04,1.64*00
$GPGSV,3,1,12,02,65,064,24,05,51,316,34,06,34,102,18,07,08,059,18*7E
$GPGSV,3,2,12,12,09,231,,13,60,183,08,15,31,217,08,19,08,156,*7F
$GPGSV,3,3,12,20,46,309,28,25,04,264,,29,24,316,29,30,20,094,26*73
$GPGLL,2457.94302,N,12111.65315,E,101832.00,A,A*6E
$GPRMC,101833.00,A,2457.93720,N,12111.65056,E,22.056,201.98,080621,,,A*53
$GPVTG,201.98,T,,M,22.056,N,40.847,K,A*33
$GPGGA,101833.00,2457.93720,N,12111.65056,E,1,09,1.04,127.4,M,16.4,M,,*52
$GPGSA,A,3,02,05,20,06,15,29,30,19,07,,,,1.94,1.04,1.64*08
$GPGSV,3,1,12,02,65,064,24,05,51,316,34,06,34,102,18,07,08,059,18*7E
$GPGSV,3,2,12,12,09,231,,13,60,183,08,15,31,217,08,19,08,156,17*79
$GPGSV,3,3,12,20,46,309,28,25,04,264,,29,24,316,29,30,20,094,26*73
$GPGLL,2457.93720,N,12111.65056,E,101833.00,A,A*68
$GPRMC,101834.00,A,2457.93519,N,12111.64977,E,15.567,201.34,080621,,,A*52
$GPVTG,201.34,T,,M,15.567,N,28.831,K,A*39
$GPGGA,101834.00,2457.93519,N,12111.64977,E,1,09,2.64,125.5,M,16.4,M,,*50
$GPGSA,A,3,02,05,20,06,15,29,30,19,07,,,,3.40,2.64,2.15*03
$GPGSV,3,1,12,02,65,064,23,05,51,316,34,06,34,102,17,07,08,059,18*76
$GPGSV,3,2,12,12,09,231,,13,60,183,09,15,31,217,08,19,08,156,14*7B
$GPGSV,3,3,12,20,46,309,28,25,04,264,,29,24,316,28,30,20,094,26*72
$GPGLL,2457.93519,N,12111.64977,E,101834.00,A,A*6C
$GPRMC,101835.00,A,2457.93489,N,12111.64962,E,9.302,202.39,080621,,,A*69
$GPVTG,202.39,T,,M,9.302,N,17.227,K,A*0E
$GPGGA,101835.00,2457.93489,N,12111.64962,E,1,10,1.63,124.4,M,16.4,M,,*51
$GPGSA,A,3,02,13,05,20,06,15,29,30,19,07,,,2.60,1.63,2.03*01
$GPGSV,3,1,12,02,65,064,23,05,51,316,34,06,34,102,17,07,08,059,18*76
$GPGSV,3,2,12,12,09,231,,13,60,183,12,15,31,217,08,19,08,156,11*74
$GPGSV,3,3,12,20,46,309,28,25,04,264,,29,24,316,28,30,20,094,25*71
$GPGLL,2457.93489,N,12111.64962,E,101835.00,A,A*61
$GPRMC,101836.00,A,2457.93462,N,12111.64951,E,6.468,203.07,080621,,,A*67
$GPVTG,203.07,T,,M,6.468,N,11.979,K,A*00
$GPGGA,101836.00,2457.93462,N,12111.64951,E,1,10,1.63,123.5,M,16.4,M,,*51
$GPGSA,A,3,02,13,05,20,06,15,29,30,19,07,,,2.60,1.63,2.03*01
$GPGSV,3,1,12,02,65,064,23,05,51,316,34,06,34,102,17,07,08,059,19*77
$GPGSV,3,2,12,12,09,231,,13,60,183,14,15,31,217,08,19,08,156,10*73
$GPGSV,3,3,12,20,46,309,28,25,04,264,,29,24,316,28,30,20,094,25*71
$GPGLL,2457.93462,N,12111.64951,E,101836.00,A,A*67
$GPRMC,101837.00,A,2457.93461,N,12111.64944,E,4.582,204.38,080621,,,A*6D
$GPVTG,204.38,T,,M,4.582,N,8.486,K,A*39
$GPGGA,101837.00,2457.93461,N,12111.64944,E,1,09,1.63,122.8,M,16.4,M,,*53
$GPGSA,A,3,02,13,05,20,06,29,30,19,07,,,,2.60,1.63,2.03*05
$GPGSV,3,1,12,02,65,064,22,05,51,316,34,06,34,102,17,07,08,059,19*76
$GPGSV,3,2,12,12,09,231,,13,60,183,15,15,31,217,,19,08,156,12*78
$GPGSV,3,3,12,20,46,309,28,25,04,264,,29,24,316,28,30,20,094,25*71
$GPGLL,2457.93461,N,12111.64944,E,101837.00,A,A*61
$GPRMC,101838.00,A,2457.93515,N,12111.64962,E,3.077,205.21,080621,,,A*65
$GPVTG,205.21,T,,M,3.077,N,5.699,K,A*39
$GPGGA,101838.00,2457.93515,N,12111.64962,E,1,09,1.63,122.3,M,16.4,M,,*51
$GPGSA,A,3,02,13,05,20,06,15,29,30,07,,,,2.61,1.63,2.03*08
$GPGSV,3,1,12,02,65,064,22,05,51,316,35,06,34,102,18,07,08,059,19*78
$GPGSV,3,2,12,12,09,231,,13,60,183,16,15,31,217,19,19,08,156,09*79
$GPGSV,3,3,12,20,46,309,28,25,04,264,,29,24,316,28,30,20,094,25*71
$GPGLL,2457.93515,N,12111.64962,E,101838.00,A,A*68
$GPRMC,101839.00,A,2457.93569,N,12111.64977,E,2.340,206.88,080621,,,A*6D
$GPVTG,206.88,T,,M,2.340,N,4.334,K,A*3C
$GPGGA,101839.00,2457.93569,N,12111.64977,E,1,09,1.64,122.2,M,16.4,M,,*59
$GPGSA,A,3,02,13,05,20,06,15,29,30,07,,,,2.61,1.64,2.03*0F
$GPGSV,3,1,12,02,65,064,22,05,51,316,34,06,34,102,18,07,08,059,19*79
$GPGSV,3,2,12,12,09,231,,13,60,183,17,15,31,217,18,19,08,156,08*78
$GPGSV,3,3,12,20,46,309,28,25,04,264,,29,24,316,28,30,20,094,26*72
$GPGLL,2457.93569,N,12111.64977,E,101839.00,A,A*66
$GPRMC,101840.00,A,2457.93576,N,12111.64962,E,2.262,209.78,080621,,,A*68
$GPVTG,209.78,T,,M,2.262,N,4.189,K,A*39
$GPGGA,101840.00,2457.93576,N,12111.64962,E,1,10,1.64,121.6,M,16.4,M,,*52
$GPGSA,A,3,02,13,05,20,06,15,29,30,12,07,,,2.61,1.64,2.03*0C
$GPGSV,3,1,12,02,65,064,22,05,51,316,35,06,34,102,18,07,08,059,18*79
$GPGSV,3,2,12,12,09,231,15,13,60,183,17,15,31,217,18,19,08,156,08*7C
$GPGSV,3,3,12,20,46,309,29,25,04,264,,29,24,316,28,30,20,094,26*73
$GPGLL,2457.93576,N,12111.64962,E,101840.00,A,A*62
$GPRMC,101841.00,A,2457.93993,N,12111.65153,E,1.026,,080621,,,A*7E
$GPVTG,,T,,M,1.026,N,1.900,K,A*2E
$GPRMC,101842.00,A,2457.94232,N,12111.65266,E,1.166,,080621,,,A*7A
$GPRMC,101843.00,A,2457.94464,N,12111.65374,E,0.935,,080621,,,A*73
$GPVTG,,T,,M,0.935,N,1.731,K,A*28
$GPGGA,101843.00,2457.94464,N,12111.65374,E,1,10,1.02,127.5,M,16.4,M,,*5D
$GPGSA,A,3,02,13,05,20,06,15,29,30,12,07,,,1.86,1.02,1.55*06
$GPGSV,3,1,12,02,65,064,22,05,51,316,36,06,34,102,16,07,08,059,18*74
$GPGSV,3,2,12,12,09,231,15,13,60,183,18,15,31,217,18,19,08,156,*7B
$GPGSV,3,3,12,20,46,309,29,25,04,264,,29,24,316,27,30,20,094,27*7D
$GPGLL,2457.94464,N,12111.65374,E,101843.00,A,A*68
$GPRMC,101844.00,A,2457.94726,N,12111.65502,E,0.486,,080621,,,A*73
$GPVTG,,T,,M,0.486,N,0.901,K,A*21
$GPGGA,101844.00,2457.94726,N,12111.65502,E,1,10,0.88,128.9,M,16.4,M,,*58
$GPGSA,A,3,02,13,05,20,06,15,29,30,12,07,,,1.49,0.88,1.21*05
$GPGSV,3,1,12,02,65,064,22,05,51,316,36,06,34,102,16,07,08,059,18*74
$GPGSV,3,2,12,12,09,231,15,13,60,183,19,15,31,217,18,19,08,156,*7A
$GPGSV,3,3,12,20,46,309,29,25,04,264,,29,24,316,27,30,20,094,27*7D
$GPRMC,101845.00,A,2457.94925,N,12111.65598,E,0.297,,080621,,,A*7A
$GPVTG,,T,,M,0.297,N,0.551,K,A*2E
$GPRMC,101847.00,A,2457.95229,N,12111.65737,E,0.153,,080621,,,A*72
$GPVTG,,T,,M,0.153,N,0.284,K,A*2A
$GPGGA,101847.00,2457.95229,N,12111.65737,E,1,10,0.88,131.3,M,16.4,M,,*56
$GPGSA,A,3,02,13,05,20,06,15,29,30,12,07,,,1.49,0.88,1.21*05
$GPGSV,3,1,12,02,65,064,21,05,51,316,35,06,34,102,15,07,08,059,19*76
$GPGSV,3,2,12,12,09,231,14,13,60,183,21,15,31,217,19,19,08,156,*71
$GPRMC,101848.00,A,2457.95318,N,12111.65766,E,0.361,,080621,,,A*79
$GPVTG,,T,,M,0.361,N,0.669,K,A*2E
$GPGGA,101848.00,2457.95318,N,12111.65766,E,1,10,0.83,131.5,M,16.4,M,,*53
$GPGSA,A,3,02,13,05,20,06,15,29,30,12,07,,,1.46,0.83,1.20*00
$GPGSV,3,1,12,02,65,064,20,05,51,316,35,06,34,102,16,07,08,059,17*7A
$GPGSV,3,2,12,12,09,231,16,13,60,183,21,15,31,217,18,19,08,156,*72
$GPGSV,3,3,12,20,46,309,32,25,04,264,,29,24,316,25,30,20,094,27*75
$GPGLL,2457.95318,N,12111.65766,E,101848.00,A,A*69
$GPRMC,101849.00,A,2457.95393,N,12111.65800,E,0.533,,080621,,,A*75
$GPVTG,,T,,M,0.533,N,0.987,K,A*20
$GPGGA,101849.00,2457.95393,N,12111.65800,E,1,10,0.88,131.8,M,16.4,M,,*58
$GPRMC,101850.00,A,2457.95424,N,12111.65800,E,1.175,,080621,,,A*71
$GPVTG,,T,,M,1.175,N,2.177,K,A*22
$GPGGA,101850.00,2457.95424,N,12111.65800,E,1,10,0.88,131.3,M,16.4,M,,*50
$GPGSA,A,3,02,13,05,20,06,15,29,30,12,07,,,1.49,0.88,1.21*05
$GPRMC,101851.00,A,2457.95482,N,12111.65809,E,1.007,,080621,,,A*71
$GPVTG,,T,,M,1.007,N,1.864,K,A*2E
$GPGGA,101851.00,2457.95482,N,12111.65809,E,1,10,0.88,130.8,M,16.4,M,,*5E
$GPGSA,A,3,02,13,05,20,06,15,29,30,12,07,,,1.49,0.88,1.21*05
$GPGSV,3,1,12,02,65,064,20,05,51,316,35,06,34,102,13,07,08,059,21*7A
$GPRMC,101852.00,A,2457.95537,N,12111.65820,E,0.714,,080621,,,A*72
$GPVTG,,T,,M,0.714,N,1.321,K,A*20
$GPGGA,101852.00,2457.95537,N,12111.65820,E,1,10,0.88,130.4,M,16.4,M,,*55
$GPGSA,A,3,02,13,05,20,06,15,29,30,12,07,,,1.49,0.88,1.21*05
$GPRMC,101853.00,A,2457.95595,N,12111.65829,E,0.583,,080621,,,A*7E
$GPVTG,,T,,M,0.583,N,1.080,K,A*24
$GPGGA,101853.00,2457.95595,N,12111.65829,E,1,10,1.02,130.7,M,16.4,M,,*55
$GPGSA,A,3,02,13,05,20,06,15,29,30,12,07,,,1.86,1.02,1.55*06
$GPGSV,3,1,12,02,65,064,21,05,51,316,35,06,34,102,13,07,08,059,22*78
$GPGSV,3,2,12,12,09,231,10,13,60,183,18,15,31,217,18,19,08,156,*7E
$GPRMC,101854.00,A,2457.95673,N,12111.65850,E,0.262,,080621,,,A*74
$GPVTG,,T,,M,0.262,N,0.485,K,A*2C
$GPGGA,101854.00,2457.95673,N,12111.65850,E,1,09,1.02,130.7,M,16.4,M,,*5F
$GPGSA,A,3,02,13,05,20,15,29,30,12,07,,,,1.86,1.02,1.55*00
$GPGSV,3,1,12,02,65,064,21,05,51,316,35,06,34,102,14,07,08,059,21*7C
$GPRMC,101855.00,A,2457.95728,N,12111.65875,E,0.106,,080621,,,A*7C
$GPVTG,,T,,M,0.106,N,0.197,K,A*2B
$GPRMC,101856.00,A,2457.95746,N,12111.65874,E,0.474,,080621,,,A*76
$GPVTG,,T,,M,0.474,N,0.878,K,A*23
$GPRMC,101857.00,A,2457.95747,N,12111.65863,E,1.008,,080621,,,A*7E
$GPVTG,,T,,M,1.008,N,1.866,K,A*23
$GPGGA,101857.00,2457.95747,N,12111.65863,E,1,09,1.03,131.0,M,16.4,M,,*5D
$GPRMC,101858.00,A,2457.95725,N,12111.65841,E,1.587,,080621,,,A*77
$GPVTG,,T,,M,1.587,N,2.939,K,A*29
$GPGGA,101858.00,2457.95725,N,12111.65841,E,1,09,1.03,131.1,M,16.4,M,,*57
$GPGSA,A,3,02,13,05,20,06,15,29,30,07,,,,1.86,1.03,1.55*04
$GPGSV,3,1,12,02,65,064,21,05,51,316,35,06,34,102,15,07,08,059,23*7F
$GPGSV,3,2,12,12,09,231,08,13,60,183,20,15,31,217,17,19,08,156,*73
$GPGSV,3,3,12,20,46,309,26,25,04,264,,29,24,316,29,30,20,094,25*7E
$GPGLL,2457.95725,N,12111.65841,E,101858.00,A,A*68
$GPRMC,101859.00,A,2457.95759,N,12111.65845,E,1.267,,080621,,,A*70
$GPVTG,,T,,M,1.267,N,2.347,K,A*23
$GPGGA,101859.00,2457.95759,N,12111.65845,E,1,09,0.98,131.6,M,16.4,M,,*5D
$GPGSA,A,3,02,13,05,20,06,15,29,30,07,,,,1.83,0.98,1.54*03
$GPGSV,3,1,12,02,65,064,21,05,51,316,35,06,34,102,16,07,08,059,23*7C
$GPGSV,3,2,12,12,09,231,08,13,60,183,20,15,31,217,17,19,08,156,*73
$GPRMC,101900.00,A,2457.95807,N,12111.65864,E,0.725,,080621,,,A*78
$GPVTG,,T,,M,0.725,N,1.343,K,A*26
$GPGGA,101900.00,2457.95807,N,12111.65864,E,1,09,0.98,132.2,M,16.4,M,,*50
$GPGSA,A,3,02,13,05,20,06,15,29,30,07,,,,1.83,0.98,1.54*03
$GPRMC,101901.00,A,2457.95814,N,12111.65862,E,0.861,,080621,,,A*72
$GPVTG,,T,,M,0.861,N,1.594,K,A*25
$GPRMC,101902.00,A,2457.95846,N,12111.65868,E,0.519,,080621,,,A*7E
$GPRMC,101903.00,A,2457.95859,N,12111.65869,E,0.565,,080621,,,A*7B
$GPVTG,,T,,M,0.565,N,1.046,K,A*26
$GPGGA,101903.00,2457.95859,N,12111.65869,E,1,09,0.98,132.6,M,16.4,M,,*51
$GPGSA,A,3,02,13,05,20,06,15,29,30,07,,,,1.83,0.98,1.54*03
$GPGSV,3,1,12,02,65,064,19,05,51,316,35,06,34,102,15,07,08,059,22*75
$GPGSV,3,2,12,12,09,231,,13,60,183,19,15,31,217,16,19,08,156,*70
$GPGSV,3,3,12,20,46,309,27,25,04,264,,29,24,316,30,30,20,094,24*76
$GPGLL,2457.95859,N,12111.65869,E,101903.00,A,A*69
$GPRMC,101904.00,A,2457.95828,N,12111.65849,E,1.127,,080621,,,A*7B
$GPVTG,,T,,M,1.127,N,2.088,K,A*24
$GPGGA,101904.00,2457.95828,N,12111.65849,E,1,09,0.98,132.4,M,16.4,M,,*50
$GPGSA,A,3,02,13,05,20,06,15,29,30,07,,,,1.83,0.98,1.54*03
$GPGSV,3,1,12,02,65,064,19,05,51,316,36,06,34,102,13,07,08,059,22*70
$GPGSV,3,2,12,12,09,231,,13,60,183,20,15,31,217,16,19,08,156,*7A
$GPGSV,3,3,12,20,46,309,28,25,04,264,,29,24,316,30,30,20,094,25*78
$GPRMC,101905.00,A,2457.95852,N,12111.65861,E,0.835,,080621,,,A*76
$GPVTG,,T,,M,0.835,N,1.546,K,A*2B
$GPGGA,101905.00,2457.95852,N,12111.65861,E,1,09,0.98,132.8,M,16.4,M,,*5A
$GPGSA,A,3,02,13,05,20,06,15,29,30,07,,,,1.83,0.98,1.54*03
$GPGSV,3,1,12,02,65,064,18,05,51,316,36,06,34,102,12,07,08,059,22*70
$GPGSV,3,2,12,12,09,231,,13,60,183,20,15,31,217,16,19,08,156,*7A
$GPRMC,101907.00,A,2457.95824,N,12111.65832,E,1.204,,080621,,,A*7A
$GPVTG,,T,,M,1.204,N,2.231,K,A*26
$GPGGA,101907.00,2457.95824,N,12111.65832,E,1,09,0.98,132.9,M,16.4,M,,*5E
$GPGSA,A,3,02,13,05,20,06,15,29,30,07,,,,1.83,0.98,1.54*03
$GPRMC,101908.00,A,2457.95838,N,12111.65839,E,0.908,,080621,,,A*75
$GPVTG,,T,,M,0.908,N,1.681,K,A*2C
$GPGGA,101908.00,2457.95838,N,12111.65839,E,1,09,0.98,133.1,M,16.4,M,,*5E
$GPGSA,A,3,02,13,05,20,06,15,29,30,07,,,,1.83,0.98,1.55*02
$GPGSV,3,1,12,02,65,064,16,05,51,316,36,06,34,102,15,07,08,059,21*7A
$GPGSV,3,2,12,12,09,231,,13,60,183,19,15,31,217,15,19,08,156,*73
$GPGSV,3,3,12,20,46,309,28,25,04,264,,29,24,316,30,30,20,094,23*7E
$GPGLL,2457.95838,N,12111.65839,E,101908.00,A,A*60
$GPRMC,101909.00,A,2457.95789,N,12111.65832,E,1.461,,080621,,,A*79
$GPVTG,,T,,M,1.461,N,2.707,K,A*23
$GPGGA,101909.00,2457.95789,N,12111.65832,E,1,09,0.98,133.1,M,16.4,M,,*51
$GPGSA,A,3,02,13,05,20,06,15,29,30,07,,,,1.83,0.98,1.55*02
$GPGSV,3,1,12,02,65,065,13,05,51,316,35,06,34,102,15,07,08,059,20*7C
$GPGSV,3,2,12,12,09,231,,13,60,183,19,15,31,217,13,19,08,156,*75
$GPGSV,3,3,12,20,46,309,27,25,04,264,,29,24,316,30,30,20,094,23*71
$GPRMC,101913.00,A,2457.95654,N,12111.65747,E,2.039,,080621,,,A*74
$GPVTG,,T,,M,2.039,N,3.776,K,A*2E
$GPGGA,101913.00,2457.95654,N,12111.65747,E,1,09,1.08,131.6,M,16.4,M,,*5B
$GPGSA,A,3,02,13,05,20,06,15,29,30,07,,,,2.29,1.08,2.03*09
$GPGSV,3,1,12,02,65,065,10,05,51,317,35,06,33,103,16,07,08,059,18*70
$GPGSV,3,2,12,12,09,231,,13,60,183,17,15,31,217,13,19,08,156,*7B
$GPGSV,3,3,12,20,46,309,27,25,04,264,,29,24,316,30,30,20,094,22*70
$GPRMC,101915.00,A,2457.95556,N,12111.65680,E,2.134,203.55,080621,,,A*6A
$GPVTG,203.55,T,,M,2.134,N,3.952,K,A*35
$GPGGA,101915.00,2457.95556,N,12111.65680,E,1,09,0.99,131.1,M,16.4,M,,*58
$GPGSA,A,3,02,13,05,20,06,15,29,30,07,,,,1.83,0.99,1.55*03
$GPGSV,3,1,12,02,65,065,12,05,51,317,35,06,33,103,15,07,08,059,18*71
$GPRMC,101918.00,A,2457.95591,N,12111.65693,E,0.959,,080621,,,A*70
$GPVTG,,T,,M,0.959,N,1.777,K,A*20
$GPGGA,101918.00,2457.95591,N,12111.65693,E,1,10,1.08,130.3,M,16.4,M,,*5E
$GPGSA,A,3,02,13,05,20,06,15,29,30,12,07,,,2.30,1.08,2.03*02
$GPGSV,3,1,12,02,65,065,13,05,51,317,35,06,33,103,17,07,08,059,13*79
$GPRMC,101921.00,A,2457.95614,N,12111.65718,E,0.761,,080621,,,A*73
$GPVTG,,T,,M,0.761,N,1.410,K,A*27
$GPGGA,101921.00,2457.95614,N,12111.65718,E,1,10,1.08,129.5,M,16.4,M,,*56
$GPGSA,A,3,02,13,05,20,06,15,29,30,12,07,,,2.30,1.08,2.03*02
$GPGSV,3,1,12,02,65,065,10,05,51,317,35,06,33,103,17,07,08,059,13*7A
$GPGSV,3,2,12,12,09,231,12,13,60,183,15,15,31,217,16,19,08,156,*7F
$GPRMC,101923.00,A,2457.95641,N,12111.65733,E,0.475,,080621,,,A*7E
$GPVTG,,T,,M,0.475,N,0.879,K,A*23
$GPGGA,101923.00,2457.95641,N,12111.65733,E,1,08,1.08,129.3,M,16.4,M,,*52
$GPGSA,A,3,13,05,20,06,15,29,30,07,,,,,2.30,1.08,2.03*03
$GPGSV,3,1,12,02,65,065,09,05,51,317,35,06,33,103,17,07,08,059,13*72
$GPGSV,3,2,12,12,09,231,09,13,60,183,15,15,32,217,16,19,08,156,*76
$GPGSV,3,3,12,20,46,309,28,25,04,264,,29,24,316,31,30,20,094,21*7D
$GPRMC,101925.00,A,2457.95693,N,12111.65716,E,0.368,,080621,,,A*7B
$GPVTG,,T,,M,0.368,N,0.681,K,A*21
$GPGGA,101925.00,2457.95693,N,12111.65716,E,1,08,1.08,129.7,M,16.4,M,,*58
$GPGSA,A,3,13,05,20,06,15,29,30,07,,,,,2.30,1.08,2.03*03
$GPGSV,3,1,12,02,65,065,09,05,51,317,35,06,33,103,17,07,08,059,12*73
$GPGSV,3,2,12,12,09,231,09,13,60,183,14,15,32,217,16,19,08,156,*77

$GPGSV,3,3,12,20,46,310,27,25,04,264,,29,24,316,31,30,20,094,20*7B
$GPRMC,101930.00,A,2457.95492,N,12111.65744,E,1.654,,080621,,,A*70
$GPVTG,,T,,M,1.654,N,3.064,K,A*24
$GPGGA,101930.00,2457.95492,N,12111.65744,E,1,09,1.12,128.4,M,16.4,M,,*50
$GPGSA,A,3,02,13,05,20,06,15,29,30,12,,,,2.56,1.12,2.30*0E
$GPGSV,3,1,12,02,65,065,18,05,51,317,34,06,33,103,15,07,08,059,09*7A
$GPGSV,3,2,12,12,09,231,07,13,60,183,14,15,32,217,18,19,08,156,*77
$GPGSV,3,3,12,20,46,310,27,25,04,264,,29,24,316,31,30,20,094,19*71
$GPGLL,2457.95492,N,12111.65744,E,101930.00,A,A*62
$GPRMC,101931.00,A,2457.95484,N,12111.65731,E,1.647,,080621,,,A*76
$GPVTG,,T,,M,1.647,N,3.050,K,A*21
$GPGGA,101931.00,2457.95484,N,12111.65731,E,1,09,1.12,128.4,M,16.4,M,,*54
$GPGSA,A,3,02,13,05,20,06,15,29,30,12,,,,2.56,1.12,2.30*0E
$GPGSV,3,1,12,02,65,065,17,05,51,317,34,06,33,103,15,07,08,059,08*74
$GPGSV,3,2,12,12,09,231,07,13,60,183,13,15,32,217,18,19,08,156,*70
$GPGSV,3,3,12,20,46,310,27,25,04,264,,29,24,316,32,30,20,094,19*72
$GPGLL,2457.95484,N,12111.65731,E,101931.00,A,A*66
$GPRMC,101932.00,A,2457.95485,N,12111.65798,E,1.515,,080621,,,A*73
$GPVTG,,T,,M,1.515,N,2.806,K,A*2F
$GPGGA,101932.00,2457.95485,N,12111.65798,E,1,08,1.16,128.4,M,16.4,M,,*50
$GPGSA,A,3,02,13,05,20,06,15,29,30,,,,,2.38,1.16,2.08*0A
$GPGSV,3,1,12,02,65,065,17,05,51,317,34,06,33,103,13,07,08,059,08*72
$GPGSV,3,2,12,12,09,231,06,13,60,183,13,15,32,217,18,19,08,156,*71
$GPGSV,3,3,12,20,46,310,27,25,03,263,,29,24,316,31,30,20,094,19*71
$GPGLL,2457.95485,N,12111.65798,E,101932.00,A,A*67
$GPRMC,101933.00,A,2457.95498,N,12111.65819,E,1.268,,080621,,,A*75
$GPVTG,,T,,M,1.268,N,2.348,K,A*23
$GPGGA,101933.00,2457.95498,N,12111.65819,E,1,07,1.10,128.8,M,16.4,M,,*5E
$GPGSA,A,3,02,13,05,20,15,29,30,,,,,,2.14,1.10,1.83*04
$GPGSV,3,1,12,02,65,065,18,05,51,317,34,06,33,103,,07,08,059,07*70
$GPGSV,3,2,12,12,09,231,05,13,60,183,13,15,32,217,19,19,08,156,*73
$GPGSV,3,3,12,20,46,310,27,25,03,263,,29,24,316,31,30,20,094,19*71
$GPGLL,2457.95498,N,12111.65819,E,101933.00,A,A*6C
$GPRMC,101934.00,A,2457.95546,N,12111.65886,E,0.902,,080621,,,A*70
$GPVTG,,T,,M,0.902,N,1.670,K,A*28
$GPGGA,101934.00,2457.95546,N,12111.65886,E,1,08,1.10,129.0,M,16.4,M,,*5B
$GPGSA,A,3,02,13,05,20,06,15,29,30,,,,,2.14,1.10,1.83*02
$GPGSV,3,1,12,02,65,065,21,05,51,317,32,06,33,103,17,07,08,059,07*7A
$GPGSV,3,2,12,12,09,231,05,13,60,183,15,15,32,217,19,19,08,156,*75
$GPGSV,3,3,12,20,46,310,29,25,03,263,,29,24,316,32,30,20,094,20*76
$GPGLL,2457.95546,N,12111.65886,E,101934.00,A,A*6F
$GPRMC,101935.00,A,2457.95586,N,12111.65920,E,0.619,,080621,,,A*75
$GPVTG,,T,,M,0.619,N,1.146,K,A*2F
$GPGGA,101935.00,2457.95586,N,12111.65920,E,1,08,1.10,129.3,M,16.4,M,,*58
$GPGSA,A,3,02,13,05,20,06,15,29,30,,,,,2.14,1.10,1.83*02
$GPGSV,3,1,12,02,65,065,18,05,51,317,32,06,33,103,14,07,08,059,07*73
$GPGSV,3,2,12,12,09,231,05,13,60,183,14,15,32,217,18,19,08,156,*75
$GPGSV,3,3,12,20,46,310,30,25,03,263,,29,24,316,31,30,20,094,21*7C
$GPGLL,2457.95586,N,12111.65920,E,101935.00,A,A*6F
$GPRMC,101936.00,A,2457.95577,N,12111.65981,E,1.223,,080621,,,A*7F
$GPVTG,,T,,M,1.223,N,2.266,K,A*21
$GPGGA,101936.00,2457.95577,N,12111.65981,E,1,08,1.10,129.5,M,16.4,M,,*58
$GPGSA,A,3,02,13,05,20,06,15,29,30,,,,,2.14,1.10,1.83*02
$GPGSV,3,1,12,02,65,065,17,05,51,317,33,06,33,103,13,07,08,059,07*7A
$GPGSV,3,2,12,12,09,231,05,13,60,183,13,15,32,217,19,19,08,156,*73
$GPGSV,3,3,12,20,46,310,30,25,03,263,,29,25,316,31,30,20,094,21*7D
$GPGLL,2457.95577,N,12111.65981,E,101936.00,A,A*69
$GPRMC,101937.00,A,2457.95591,N,12111.66027,E,1.130,,080621,,,A*71
$GPVTG,,T,,M,1.130,N,2.093,K,A*28
$GPGGA,101937.00,2457.95591,N,12111.66027,E,1,08,1.10,129.4,M,16.4,M,,*56
$GPGSA,A,3,02,13,05,20,06,15,29,30,,,,,2.14,1.10,1.83*02
$GPGSV,3,1,12,02,65,065,17,05,51,317,33,06,33,103,14,07,08,059,07*7D
$GPGSV,3,2,12,12,09,231,05,13,60,183,13,15,32,217,19,19,08,156,*73
$GPGSV,3,3,12,20,46,310,30,25,03,263,,29,25,316,31,30,20,094,20*7C
$GPGLL,2457.95591,N,12111.66027,E,101937.00,A,A*66
$GPRMC,101938.00,A,95663,N,12111.66119,E,1.182,,080621,,,A*75
$GPVTG,,T,,M,1.182,N,2.188,K,A*2A
$GPGGA,101938.00,2457.95663,N,12111.66119,E,1,09,0.99,129.2,M,16.4,M,,*5C
$GPGSA,A,3,02,13,05,20,06,15,29,30,07,,,,1.84,0.99,1.55*04
$GPGSV,3,1,12,02,65,065,18,05,51,317,33,06,33,103,14,07,08,059,08*7D
$GPGSV,3,2,12,12,09,231,06,13,60,183,12,15,32,217,20,19,08,156,*7B
$GPGSV,3,3,12,20,46,310,30,25,03,263,,29,25,316,31,30,20,094,20*7C
$GPGLL,2457.95663,N,12111.66119,E,101938.00,A,A*6B
$GPRMC,101939.00,A,2457.95705,N,12111.66197,E,1.572,,080621,,,A*78
$GPVTG,,T,,M,1.572,N,2.912,K,A*2A
$GPGGA,101939.00,2457.95705,N,12111.66197,E,1,09,0.99,128.8,M,16.4,M,,*51
$GPGSA,A,3,02,13,05,20,06,15,29,30,07,,,,1.84,0.99,1.55*04
$GPGSV,3,1,12,02,65,065,18,05,51,317,32,06,33,103,13,07,08,059,08*7B
$GPGSV,3,2,12,12,09,231,06,13,60,183,12,15,32,217,20,19,08,156,*7B
$GPGSV,3,3,12,20,46,310,30,25,03,263,,29,25,316,31,30,20,094,20*7C
$GPGLL,2457.95705,N,12111.66197,E,101939.00,A,A*6D
$GPRMC,101940.00,A,2457.95772,N,12111.66309,E,1.888,,080621,,,A*7B
$GPVTG,,T,,M,1.888,N,3.496,K,A*22
$GPGGA,101940.00,2457.95772,N,12111.66309,E,1,09,1.03,128.4,M,16.4,M,,*54
$GPGSA,A,3,02,13,05,20,06,15,29,30,07,,,,1.86,1.03,1.55*04
$GPGSV,3,1,12,02,65,065,20,05,51,317,32,06,33,103,13,07,08,059,08*70
$GPGSV,3,2,12,12,09,231,,13,60,183,14,15,32,217,19,19,08,156,*71
$GPGSV,3,3,12,20,46,310,30,25,03,263,,29,25,316,31,30,20,094,20*7C
$GPGLL,2457.95772,N,12111.66309,E,101940.00,A,A*66
$GPRMC,101941.00,A,2457.95857,N,12111.66369,E,1.805,,080621,,,A*71
$GPVTG,,T,,M,1.805,N,3.343,K,A*28
$GPGGA,101941.00,2457.95857,N,12111.66369,E,1,09,0.99,128.3,M,16.4,M,,*5E
$GPGSA,A,3,02,13,05,20,06,15,29,30,07,,,,1.84,0.99,1.55*04
$GPGSV,3,1,12,02,65,065,20,05,51,317,32,06,33,103,14,07,08,059,08*77
$GPGSV,3,2,12,12,09,231,,13,60,183,14,15,32,217,20,19,08,156,*7B
$GPGSV,3,3,12,20,46,310,30,25,03,263,,29,25,316,31,30,20,094,21*7D
$GPGLL,2457.95857,N,12111.66369,E,101941.00,A,A*69
$GPRMC,101942.00,A,2457.95915,N,12111.66443,E,1.906,,080621,,,A*78
$GPVTG,,T,,M,1.906,N,3.530,K,A*28
$GPGGA,101942.00,2457.95915,N,12111.66443,E,1,09,0.99,127.7,M,16.4,M,,*5E
$GPGSA,A,3,02,13,05,20,06,15,29,30,07,,,,1.84,0.99,1.55*04
$GPGSV,3,1,12,02,65,065,22,05,51,317,33,06,33,103,13,07,08,059,08*73
$GPGSV,3,2,12,12,09,231,,13,60,183,15,15,32,217,21,19,08,156,*7B
$GPGSV,3,3,12,20,46,310,30,25,03,263,,29,25,316,32,30,20,094,20*7F
$GPGLL,2457.95915,N,12111.66443,E,101942.00,A,A*62
$GPRMC,101943.00,A,2457.95968,N,12111.66528,E,2.232,,080621,,,A*70
$GPVTG,,T,,M,2.232,N,4.133,K,A*27
$GPGGA,101943.00,2457.95968,N,12111.66528,E,1,09,0.99,127.3,M,16.4,M,,*5D
$GPGSA,A,3,02,13,05,20,06,15,29,30,07,,,,1.84,0.99,1.55*04
$GPGSV,3,1,12,02,65,065,22,05,51,317,33,06,33,103,13,07,08,059,08*73
$GPGSV,3,2,12,12,09,231,,13,60,183,16,15,32,217,21,19,08,156,*78
$GPGSV,3,3,12,20,46,310,30,25,03,263,,29,25,316,32,30,20,094,20*7F
$GPGLL,2457.95968,N,12111.66528,E,101943.00,A,A*65
$GPRMC,101944.00,A,2457.95997,N,12111.66545,E,1.631,,080621,,,A*78
$GPVTG,,T,,M,1.631,N,3.021,K,A*26
$GPGGA,101944.00,2457.95997,N,12111.66545,E,1,08,1.05,127.4,M,16.4,M,,*53
$GPGSA,A,3,02,13,05,20,06,15,29,30,,,,,2.10,1.05,1.82*03
$GPGSV,3,1,12,02,65,065,23,05,51,317,32,06,33,103,13,07,08,059,06*7D
$GPGSV,3,2,12,12,09,231,,13,60,183,17,15,32,217,20,19,08,156,*78
$GPGSV,3,3,12,20,46,310,30,25,03,263,,29,25,316,32,30,20,094,20*7F
$GPGLL,2457.95997,N,12111.66545,E,101944.00,A,A*69
$GPRMC,101945.00,A,2457.96032,N,12111.66559,E,1.321,,080621,,,A*75
$GPVTG,,T,,M,1.321,N,2.447,K,A*27
$GPGGA,101945.00,2457.96032,N,12111.66559,E,1,08,1.05,127.4,M,16.4,M,,*5A
$GPGSA,A,3,02,13,05,20,06,15,29,30,,,,,2.10,1.05,1.82*03
$GPGSV,3,1,12,02,65,065,23,05,51,317,32,06,33,103,15,07,08,059,06*7B
$GPGSV,3,2,12,12,09,231,,13,60,183,16,15,32,217,20,19,08,156,*79
$GPGSV,3,3,12,20,46,310,31,25,03,263,,29,25,316,32,30,20,094,20*7E
$GPGLL,2457.96032,N,12111.66559,E,101945.00,A,A*60
$GPRMC,101946.00,A,2457.96045,N,12111.66588,E,1.311,,080621,,,A*79
$GPVTG,,T,,M,1.311,N,2.427,K,A*22
$GPGGA,101946.00,2457.96045,N,12111.66588,E,1,08,1.05,127.2,M,16.4,M,,*53
$GPGSA,A,3,02,13,05,20,06,15,29,30,,,,,2.10,1.05,1.82*03
$GPGSV,3,1,12,02,65,065,22,05,51,317,33,06,33,103,15,07,08,059,*7D
$GPGSV,3,2,12,12,09,231,05,13,60,183,16,15,32,217,21,19,08,156,*7D
$GPGSV,3,3,12,20,46,310,31,25,03,263,,29,25,316,32,30,20,094,21*7F
$GPGLL,2457.96045,N,12111.66588,E,101946.00,A,A*6F
$GPRMC,101947.00,A,2457.96078,N,12111.66619,E,1.310,,080621,,,A*7C
$GPVTG,,T,,M,1.310,N,2.426,K,A*22
$GPGGA,101947.00,2457.96078,N,12111.66619,E,1,08,1.05,127.1,M,16.4,M,,*54
$GPGSA,A,3,02,13,05,20,06,15,29,30,,,,,2.10,1.05,1.82*03
$GPGSV,3,1,12,02,65,065,22,05,51,317,32,06,33,103,15,07,08,059,*7C
$GPGSV,3,2,12,12,09,231,07,13,60,183,17,15,32,217,20,19,08,156,*7F
$GPRMC,101950.00,A,2457.96106,N,12111.66620,E,0.277,,080621,,,A*79
$GPVTG,,T,,M,0.277,N,0.513,K,A*26
$GPGGA,101950.00,2457.96106,N,12111.66620,E,1,09,1.05,126.8,M,16.4,M,,*59
$GPGSA,A,3,02,13,05,20,06,15,29,30,12,,,,2.10,1.05,1.82*00
$GPGSV,3,1,12,02,65,065,22,05,51,317,32,06,33,103,14,07,08,059,13*7F
$GPGSV,3,2,12,12,09,231,11,13,60,183,15,15,32,217,20,19,08,156,*7A
$GPGSV,3,3,12,20,46,310,31,25,03,263,,29,25,316,31,30,20,094,21*7C
$GPGLL,2457.96106,N,12111.66620,E,101950.00,A,A*6F
$GPRMC,101951.00,A,2457.96118,N,12111.66645,E,0.830,,080621,,,A*7D
$GPVTG,,T,,M,0.830,N,1.536,K,A*29
$GPGGA,101951.00,2457.96118,N,12111.66645,E,1,09,0.93,126.7,M,16.4,M,,*55
$GPGSA,A,3,02,13,05,20,06,15,29,30,12,,,,1.73,0.93,1.46*00
$GPGSV,3,1,12,02,65,065,21,05,51,317,31,06,33,103,14,07,08,059,15*79
$GPGSV,3,2,12,12,09,231,11,13,60,183,17,15,32,217,21,19,08,156,*79
$GPGSV,3,3,12,20,46,310,31,25,03,263,,29,25,316,31,30,20,094,21*7C
$GPGLL,2457.96118,N,12111.66645,E,101951.00,A,A*62
$GPRMC,101952.00,A,2457.96127,N,12111.66606,E,0.353,,080621,,,A*7B
$GPVTG,,T,,M,0.353,N,0.654,K,A*21
$GPGGA,101952.00,2457.96127,N,12111.66606,E,1,09,0.99,127.4,M,16.4,M,,*55
$GPGSA,A,3,02,13,05,20,06,15,29,30,07,,,,1.84,0.99,1.55*04
$GPGSV,3,1,12,02,65,065,20,05,51,317,31,06,33,103,13,07,08,059,16*7C
$GPGSV,3,2,12,12,09,231,09,13,60,183,17,15,32,217,21,19,08,156,*70
$GPGSV,3,3,12,20,46,310,31,25,03,263,,29,25,316,31,30,20,094,21*7C
$GPGLL,2457.96127,N,12111.66606,E,101952.00,A,A*6A
$GPRMC,101953.00,A,2457.96096,N,12111.66564,E,0.585,,080621,,,A*7B
$GPVTG,,T,,M,0.585,N,1.084,K,A*26
$GPGGA,101953.00,2457.96096,N,12111.66564,E,1,09,0.99,127.9,M,16.4,M,,*55
$GPGSA,A,3,02,13,05,20,06,15,29,30,07,,,,1.84,0.99,1.55*04
$GPGSV,3,1,12,02,65,065,20,05,51,317,32,06,33,103,14,07,08,059,16*78
$GPGSV,3,2,12,12,09,231,09,13,60,183,17,15,32,217,22,19,08,156,*73
$GPGSV,3,3,12,20,46,310,31,25,03,263,,29,25,316,31,30,20,094,21*7C
$GPGLL,2457.96096,N,12111.66564,E,101953.00,A,A*67
$GPRMC,101954.00,A,2457.96096,N,12111.66554,E,0.667,,080621,,,A*70
$GPVTG,,T,,M,0.667,N,1.235,K,A*21
$GPGGA,101954.00,2457.96096,N,12111.66554,E,1,10,0.99,128.1,M,16.4,M,,*5E
$GPGSA,A,3,02,13,05,20,06,15,29,30,12,07,,,1.84,0.99,1.55*07
$GPGSV,3,1,12,02,65,065,20,05,51,317,31,06,33,103,13,07,08,059,15*7F
$GPGSV,3,2,12,12,09,231,10,13,60,183,17,15,32,217,22,19,08,156,*7B
$GPGSV,3,3,12,20,46,310,31,25,03,263,,29,25,316,31,30,20,094,20*7D
$GPGLL,2457.96096,N,12111.66554,E,101954.00,A,A*63
$GPRMC,101955.00,A,2457.96101,N,12111.66517,E,0.342,,080621,,,A*7B
$GPVTG,,T,,M,0.342,N,0.634,K,A*27
$GPGGA,101955.00,2457.96101,N,12111.66517,E,1,09,0.99,128.9,M,16.4,M,,*57
$GPGSA,A,3,02,13,05,20,06,15,29,30,07,,,,1.84,0.99,1.55*04
$GPGSV,3,1,12,02,65,065,19,05,51,317,31,06,33,103,13,07,08,059,17*77
$GPGSV,3,2,12,12,09,231,08,13,60,183,17,15,32,217,22,19,08,156,*72
$GPGSV,3,3,12,20,46,310,31,25,03,263,,29,25,316,31,30,20,094,20*7D
$GPGLL,2457.96101,N,12111.66517,E,101955.00,A,A*6A
$GPRMC,101956.00,A,2457.96123,N,12111.66485,E,0.231,,080621,,,A*77
$GPVTG,,T,,M,0.231,N,0.427,K,A*22
$GPGGA,101956.00,2457.96123,N,12111.66485,E,1,09,0.99,129.5,M,16.4,M,,*53
$GPGSA,A,3,02,13,05,20,06,15,29,30,07,,,,1.84,0.99,1.55*04
$GPGSV,3,1,12,02,65,065,18,05,51,317,31,06,33,103,11,07,08,059,17*74
$GPGSV,3,2,12,12,09,231,08,13,60,183,16,15,32,217,21,19,08,156,*70
$GPGSV,3,3,12,20,46,310,32,25,03,263,,29,25,316,31,30,20,094,20*7E
$GPGLL,2457.96123,N,12111.66485,E,101956.00,A,A*63
$GPRMC,101957.00,A,2457.96123,N,12111.66512,E,0.879,,080621,,,A*7F
$GPVTG,,T,,M,0.879,N,1.628,K,A*28
$GPGGA,101957.00,2457.96123,N,12111.66512,E,1,09,0.99,130.0,M,16.4,M,,*50
$GPGSA,A,3,02,13,05,20,06,15,29,30,07,,,,1.84,0.99,1.55*04
$GPGSV,3,1,12,02,65,065,17,05,51,317,31,06,33,103,12,07,08,059,17*78
$GPGSV,3,2,12,12,09,231,08,13,60,183,15,15,32,217,21,19,08,156,*73
$GPGSV,3,3,12,20,46,310,32,25,03,263,,29,25,316,29,30,20,094,21*76
$GPGLL,2457.96123,N,12111.66512,E,101957.00,A,A*6D
$GPRMC,101958.00,A,2457.96119,N,12111.66507,E,0.752,,080621,,,A*7B
$GPVTG,,T,,M,0.752,N,1.392,K,A*2A
$GPGGA,101958.00,2457.96119,N,12111.66507,E,1,09,0.99,130.5,M,16.4,M,,*57
$GPGSA,A,3,02,13,05,20,06,15,29,30,07,,,,1.84,0.99,1.55*04
$GPGSV,3,1,12,02,65,065,16,05,51,317,29,06,33,103,10,07,08,059,17*72
$GPGSV,3,2,12,12,09,231,08,13,60,183,15,15,32,217,21,19,08,156,*73
$GPGSV,3,3,12,20,46,310,32,25,03,263,,29,25,316,30,30,20,094,21*7E
$GPGLL,2457.96119,N,12111.66507,E,101958.00,A,A*6F
$GPRMC,101959.00,A,2457.96113,N,12111.66515,E,0.780,,080621,,,A*7C
$GPRMC,102002.00,A,2457.96104,N,12111.66504,E,0.732,,080621,,,A*77
$GPVTG,,T,,M,0.732,N,1.355,K,A*27
$GPGGA,102002.00,2457.96104,N,12111.66504,E,1,08,1.03,132.1,M,16.4,M,,*58
$GPGSA,A,3,02,13,05,20,15,29,30,07,,,,,1.87,1.03,1.56*00
$GPGSV,3,1,12,02,65,065,17,05,51,317,29,06,33,103,08,07,08,059,16*7B
$GPGSV,3,2,12,12,09,231,06,13,60,183,14,15,32,217,22,19,08,156,*7F
$GPGSV,3,3,12,20,46,310,32,25,03,263,,29,25,316,31,30,20,094,22*7C
$GPGLL,2457.96104,N,12111.66504,E,102002.00,A,A*65
$GPRMC,102003.00,A,2457.96113,N,12111.66489,E,0.460,,080621,,,A*70
$GPVTG,,T,,M,0.460,N,0.852,K,A*2E
$GPGGA,102003.00,2457.96113,N,12111.66489,E,1,08,1.03,132.8,M,16.4,M,,*52
$GPGSA,A,3,02,13,05,20,15,29,30,07,,,,,1.87,1.03,1.56*00
$GPGSV,3,1,12,02,65,065,16,05,51,317,29,06,33,103,08,07,08,059,17*7B
$GPGSV,3,2,12,12,09,231,06,13,60,183,14,15,32,217,21,19,08,156,*7C
$GPGSV,3,3,12,20,46,310,32,25,03,263,,29,25,316,30,30,20,094,23*7C
$GPGLL,2457.96113,N,12111.66489,E,102003.00,A,A*66
$GPRMC,102004.00,A,2457.96150,N,12111.66495,E,0.204,,080621,,,A*79
$GPVTG,,T,,M,0.204,N,0.379,K,A*28
$GPGGA,102004.00,2457.96150,N,12111.66495,E,1,08,1.03,133.3,M,16.4,M,,*55
$GPGSA,A,3,02,13,05,20,15,29,30,07,,,,,1.87,1.03,1.56*00
$GPGSV,3,1,12,02,65,065,16,05,51,317,29,06,33,103,08,07,08,059,18*74
$GPGSV,3,2,12,12,09,231,06,13,60,183,15,15,32,217,21,19,08,156,*7D
$GPGSV,3,3,12,20,46,310,31,25,03,263,,29,25,316,31,30,20,094,23*7E
$GPGLL,2457.96150,N,12111.66495,E,102004.00,A,A*6B
$GPRMC,102005.00,A,2457.96159,N,12111.66491,E,0.308,,080621,,,A*78
$GPVTG,,T,,M,0.308,N,0.571,K,A*2B
$GPGGA,102005.00,2457.96159,N,12111.66491,E,1,08,1.03,133.7,M,16.4,M,,*5D
$GPGSA,A,3,02,13,05,20,15,29,30,07,,,,,1.87,1.03,1.56*00
$GPGSV,3,1,12,02,65,065,16,05,51,317,29,06,33,103,08,07,08,059,17*7B
$GPGSV,3,2,12,12,09,231,06,13,60,183,16,15,32,217,20,19,08,156,*7F
$GPGSV,3,3,12,20,46,310,32,25,03,263,,29,25,316,31,30,20,094,23*7D
$GPGLL,2457.96159,N,12111.66491,E,102005.00,A,A*67
$GPRMC,102006.00,A,2457.96196,N,12111.66521,E,0.750,,080621,,,A*7B
$GPVTG,,T,,M,0.750,N,1.389,K,A*22
$GPGGA,102006.00,2457.96196,N,12111.66521,E,1,08,1.03,134.4,M,16.4,M,,*53
$GPGSA,A,3,02,13,05,20,15,29,30,07,,,,,1.87,1.03,1.56*00
$GPGSV,3,1,12,02,65,065,15,05,51,317,29,06,33,103,08,07,08,059,17*78
$GPGSV,3,2,12,12,09,231,06,13,60,183,15,15,32,217,20,19,08,156,*7C
$GPGSV,3,3,12,20,46,310,32,25,03,263,,29,25,316,30,30,20,094,23*7C
$GPGLL,2457.96196,N,12111.66521,E,102006.00,A,A*6D
$GPRMC,102007.00,A,2457.96204,N,12111.66532,E,0.784,,080621,,,A*79
$GPVTG,,T,,M,0.784,N,1.451,K,A*29
$GPGGA,102007.00,2457.96204,N,12111.66532,E,1,09,1.03,134.7,M,16.4,M,,*5A
$GPGSA,A,3,02,13,05,20,15,29,30,12,07,,,,1.87,1.03,1.56*03
$GPGSV,3,1,12,02,65,065,16,05,51,317,29,06,33,103,,07,08,059,17*73
$GPGSV,3,2,12,12,09,231,19,13,60,183,17,15,32,217,20,19,08,156,*70
$GPGSV,3,3,12,20,46,310,32,25,03,263,,29,25,316,30,30,20,094,24*7B
$GPGLL,2457.96204,N,12111.66532,E,102007.00,A,A*66
$GPRMC,102008.00,A,2457.96266,N,12111.66577,E,1.210,,080621,,,A*7A
$GPVTG,,T,,M,1.210,N,2.241,K,A*24
$GPGGA,102008.00,2457.96266,N,12111.66577,E,1,09,1.03,135.5,M,16.4,M,,*53
$GPGSA,A,3,02,13,05,20,15,29,30,12,07,,,,1.87,1.03,1.56*03
$GPGSV,3,1,12,02,65,065,16,05,51,317,29,06,33,103,,07,08,059,18*7C
$GPGSV,3,2,12,12,09,231,17,13,60,183,17,15,32,217,19,19,08,156,*74
$GPGSV,3,3,12,20,46,310,31,25,03,263,,29,25,316,30,30,20,094,24*78
$GPGLL,2457.96266,N,12111.66577,E,102008.00,A,A*6C
$GPRMC,102009.00,A,2457.96287,N,12111.66580,E,0.833,,080621,,,A*76
$GPVTG,,T,,M,0.833,N,1.542,K,A*29
$GPGGA,102009.00,2457.96287,N,12111.66580,E,1,09,1.03,136.0,M,16.4,M,,*53
$GPGSA,A,3,02,13,05,20,15,29,30,12,07,,,,1.87,1.03,1.56*03
$GPGSV,3,1,12,02,65,065,15,05,51,317,30,06,33,103,,07,08,059,18*77
$GPGSV,3,2,12,12,09,231,14,13,60,183,18,15,32,217,19,19,*78
$GPGSV,3,3,12,20,46,310,31,25,03,263,,29,25,316,30,30,20,094,24*78
$GPGLL,2457.96287,N,12111.66580,E,102009.00,A,A*6A
$GPRMC,102010.00,A,2457.96264,N,12111.66577,E,0.698,,080621,,,A*74
$GPVTG,,T,,M,0.698,N,1.292,K,A*2C
$GPGGA,102010.00,2457.96264,N,12111.66577,E,1,09,1.03,136.5,M,16.4,M,,*5B
$GPGSA,A,3,02,13,05,20,15,29,30,12,07,,,,1.87,1.03,1.56*03
$GPGSV,3,1,12,02,65,065,15,05,51,317,29,06,33,103,,07,08,059,18*7F
$GPGSV,3,2,12,12,09,231,14,13,60,183,17,15,32,217,19,19,08,156,*77
$GPGSV,3,3,12,20,46,310,31,25,03,263,,29,25,316,30,30,20,094,24*78
$GPGLL,2457.96264,N,12111.66577,E,102010.00,A,A*67
$GPRMC,102011.00,A,2457.96265,N,12111.66556,E,0.231,,080621,,,A*70
$GPVTG,,T,,M,0.231,N,0.428,K,A*2D
$GPGGA,102011.00,2457.96265,N,12111.66556,E,1,08,1.03,137.0,M,16.4,M,,*5D
$GPGSA,A,3,02,13,05,20,15,29,30,07,,,,,1.87,1.03,1.56*00
$GPGSV,3,1,12,02,65,065,16,05,51,317,29,06,33,103,,07,08,059,18*7C
$GPGSV,3,2,12,12,09,231,14,13,60,183,17,15,32,217,19,19,08,156,*77
$GPGSV,3,3,12,20,46,310,31,25,03,263,,29,25,316,30,30,20,094,24*78
$GPGLL,2457.96265,N,12111.66556,E,102011.00,A,A*64
$GPRMC,102012.00,A,2457.96254,N,12111.66526,E,0.434,,080621,,,A*75
$GPVTG,,T,,M,0.434,N,0.805,K,A*2D
$GPGGA,102012.00,2457.96254,N,12111.66526,E,1,09,1.03,137.3,M,16.4,M,,*59
$GPGSA,A,3,02,13,05,20,15,29,30,12,07,,,,1.87,1.03,1.56*03
$GPGSV,3,1,12,02,65,065,17,05,51,317,29,06,33,103,,07,08,059,18*7D
$GPGSV,3,2,12,12,09,231,14,13,60,183,17,15,32,217,20,19,08,156,*7D
$GPGSV,3,3,12,20,46,310,31,25,03,263,,29,25,316,30,30,20,094,25*79
$GPGLL,2457.96254,N,12111.66526,E,102012.00,A,A*62
$GPRMC,102013.00,A,2457.96269,N,12111.66524,E,0.614,,080621,,,A*78
$GPVTG,,T,,M,0.614,N,1.138,K,A*2B
$GPGGA,102013.00,2457.96269,N,12111.66524,E,1,09,0.88,138.1,M,16.4,M,,*5B
$GPGSA,A,3,02,13,05,20,15,29,30,12,07,,,,1.49,0.88,1.20*02
$GPGSV,3,1,12,02,65,065,19,05,51,317,29,06,33,103,06,07,08,059,18*75
$GPGSV,3,2,12,12,09,231,13,13,60,183,17,15,32,217,19,19,08,156,*70
$GPGSV,3,3,12,20,46,310,31,25,03,263,,29,25,316,30,30,20,094,25*79
$GPGLL,2457.96269,N,12111.66524,E,102013.00,A,A*6F
$GPRMC,102014.00,A,2457.96350,N,12111.66546,E,0.126,,080621,,,A*76
$GPVTG,,T,,M,0.126,N,0.233,K,A*24
$GPGGA,102014.00,2457.96350,N,12111.66546,E,1,09,0.88,139.4,M,16.4,M,,*57
$GPGSA,A,3,02,13,05,20,15,29,30,12,07,,,,1.49,0.88,1.20*02
$GPGSV,3,1,12,02,65,065,18,05,51,317,30,06,33,103,07,07,08,059,19*7C
$GPGSV,3,2,12,12,09,231,14,13,60,183,17,15,32,217,19,19,08,156,*77
$GPGSV,3,3,12,20,46,310,31,25,03,263,,29,25,316,30,30,20,094,24*78
$GPGLL,2457.96350,N,12111.66546,E,102014.00,A,A*67
$GPRMC,102015.00,A,2457.96338,N,12111.66530,E,0.542,,080621,,,A*7E
$GPVTG,,T,,M,0.542,N,1.004,K,A*25
$GPGGA,102015.00,2457.96338,N,12111.66530,E,1,09,0.88,140.1,M,16.4,M,,*52
$GPGSA,A,3,02,13,05,20,15,29,30,12,07,,,,1.49,0.88,1.20*02
$GPGSV,3,1,12,02,65,065,18,05,51,317,30,06,33,103,07,07,08,059,19*7C
$GPGSV,3,2,12,12,09,231,14,13,60,183,15,15,32,217,20,19,08,156,*7F
