$GPRMC,093239.00,A,2458.10733,N,12111.32246,E,0.400,,280521,,,A74
$GPVTG,,T,,M,0.400,N,0.741,K,A25
$GPGGA,093239.00,2458.10733,N,12111.32246,E,1,05,3.25,131.6,M,16.4,M,,57
$GPGSA,A,3,02,06,05,12,20,,,,,,,,6.48,3.25,5.610E
$GPGSV,4,1,13,02,51,348,35,05,37,258,38,06,47,047,27,07,01,095,7D
$GPGSV,4,2,13,09,24,048,,12,26,270,30,13,17,187,,17,25,144,197D
$GPGSV,4,3,13,19,48,141,,20,20,255,31,25,09,302,,28,01,172,7C
$GPGSV,4,4,13,30,04,131,4F
$GPGLL,2458.10733,N,12111.32246,E,093239.00,A,A65
$GPRMC,093240.00,A,2458.10275,N,12111.32607,E,0.653,,280521,,,A78
$GPVTG,,T,,M,0.653,N,1.210,K,A21
$GPGGA,093240.00,2458.10275,N,12111.32607,E,1,06,2.04,133.9,M,16.4,M,,53
$GPGSA,A,3,02,06,05,12,17,20,,,,,,,5.97,2.04,5.610B
$GPGSV,4,1,13,02,51,348,35,05,37,258,33,06,47,047,27,07,01,095,76
$GPGSV,4,2,13,09,24,048,,12,26,270,30,13,17,187,,17,25,144,2077
$GPGSV,4,3,13,19,48,141,,20,20,255,29,25,09,302,,28,01,172,75
$GPGSV,4,4,13,30,04,131,4F
$GPGLL,2458.10275,N,12111.32607,E,093240.00,A,A6D
$GPRMC,093241.00,A,2458.10154,N,12111.32700,E,0.440,,280521,,,A7F
$GPVTG,,T,,M,0.440,N,0.816,K,A2C
$GPGGA,093241.00,2458.10154,N,12111.32700,E,1,06,2.04,135.6,M,16.4,M,,5D
$GPGSA,A,3,02,06,05,12,17,20,,,,,,,5.97,2.04,5.610B
$GPGSV,4,1,13,02,51,348,34,05,37,258,33,06,47,047,27,07,01,095,77
$GPGSV,4,2,13,09,24,048,,12,26,270,30,13,17,187,,17,25,144,197D
$GPGSV,4,3,13,19,48,141,,20,20,255,21,25,09,302,,28,01,172,7D
$GPGSV,4,4,13,30,04,131,4F
$GPGLL,2458.10154,N,12111.32700,E,093241.00,A,A6A
$GPRMC,093242.00,A,2458.10186,N,12111.32864,E,0.262,,280521,,,A78
$GPVTG,,T,,M,0.262,N,0.485,K,A2C
$GPGGA,093242.00,2458.10186,N,12111.32864,E,1,06,2.04,133.2,M,16.4,M,,5E
$GPGSA,A,3,02,06,05,12,17,20,,,,,,,5.97,2.04,5.610B
$GPGSV,4,1,13,02,51,348,36,05,37,258,37,06,47,047,27,07,01,095,71
$GPGSV,4,2,13,09,24,048,,12,26,270,30,13,17,187,,17,25,144,187C
$GPGSV,4,3,13,19,48,141,,20,20,255,30,25,09,302,,28,01,172,7D
$GPGSV,4,4,13,30,04,131,4F
$GPGLL,2458.10186,N,12111.32864,E,093242.00,A,A6B
$GPRMC,093243.00,A,2458.10158,N,12111.32917,E,0.275,,280521,,,A79
$GPVTG,,T,,M,0.275,N,0.509,K,A2F
$GPGGA,093243.00,2458.10158,N,12111.32917,E,1,07,2.04,134.4,M,16.4,M,,59
$GPGSA,A,3,02,19,06,05,12,17,20,,,,,,5.97,2.04,5.6103
$GPGSV,4,1,13,02,51,348,33,05,37,258,36,06,47,047,27,07,01,095,2077
$GPGSV,4,2,13,09,24,048,,12,26,270,31,13,17,187,,17,25,144,1772
$GPGSV,4,3,13,19,48,141,26,20,20,255,29,25,09,302,,28,01,172,71
$GPGSV,4,4,13,30,04,131,4F
$GPGLL,2458.10158,N,12111.32917,E,093243.00,A,A6C
$GPRMC,093244.00,A,2458.10177,N,12111.32905,E,0.382,,280521,,,A79
$GPVTG,,T,,M,0.382,N,0.707,K,A2A
$GPGGA,093244.00,2458.10177,N,12111.32905,E,1,07,2.04,133.2,M,16.4,M,,51
$GPGSA,A,3,02,19,06,05,12,17,20,,,,,,5.97,2.04,5.6103
$GPGSV,4,1,13,02,51,348,34,05,37,258,33,06,47,047,27,07,01,095,2075
$GPGSV,4,2,13,09,24,048,,12,26,270,30,13,17,187,,17,25,144,1773
$GPGSV,4,3,13,19,48,141,23,20,20,255,28,25,09,302,,28,01,172,75
$GPGSV,4,4,13,30,04,131,4F
$GPGLL,2458.10177,N,12111.32905,E,093244.00,A,A65
$GPRMC,093245.00,A,2458.10165,N,12111.32913,E,0.362,,280521,,,A72
$GPVTG,,T,,M,0.362,N,0.671,K,A24
$GPGGA,093245.00,2458.10165,N,12111.32913,E,1,07,2.04,133.5,M,16.4,M,,53
$GPGSA,A,3,02,19,06,05,12,17,20,,,,,,5.97,2.04,5.6103
$GPGSV,4,1,13,02,51,348,34,05,37,258,34,06,47,047,27,07,01,095,2072
$GPGSV,4,2,13,09,24,048,,12,26,270,28,13,17,187,,17,25,144,1875
$GPGSV,4,3,13,19,48,141,18,20,20,255,28,25,09,302,,28,01,172,7D
$GPGSV,4,4,13,30,04,131,4F
$GPGLL,2458.10165,N,12111.32913,E,093245.00,A,A60
$GPRMC,093246.00,A,2458.10143,N,12111.32927,E,0.134,,280521,,,A73
$GPVTG,,T,,M,0.134,N,0.247,K,A24
$GPGGA,093246.00,2458.10143,N,12111.32927,E,1,07,2.04,134.2,M,16.4,M,,53
$GPGSA,A,3,02,19,06,05,12,17,20,,,,,,5.97,2.04,5.6103
$GPGSV,4,1,13,02,51,348,31,05,37,258,34,06,47,047,25,07,01,095,187E
$GPGSV,4,2,13,09,24,048,,12,26,270,28,13,17,187,,17,25,144,177A
$GPGSV,4,3,13,19,48,141,17,20,20,255,27,25,09,302,,28,01,172,7D
$GPGSV,4,4,13,30,04,131,4F
$GPGLL,2458.10143,N,12111.32927,E,093246.00,A,A60
$GPRMC,093247.00,A,2458.10166,N,12111.32900,E,0.956,,280521,,,A7C
$GPVTG,,T,,M,0.956,N,1.771,K,A29
$GPGGA,093247.00,2458.10166,N,12111.32900,E,1,07,1.40,134.1,M,16.4,M,,50
$GPGSA,A,3,02,19,06,05,12,17,20,,,,,,3.90,1.40,3.6402
$GPGSV,4,1,13,02,51,348,32,05,37,258,30,06,47,047,25,07,01,095,1574
$GPGSV,4,2,13,09,24,048,,12,26,270,26,13,17,187,,17,25,144,187B
$GPGSV,4,3,13,19,48,141,16,20,20,255,27,25,09,302,,28,01,172,7C
$GPGSV,4,4,13,30,04,131,4F
$GPGLL,2458.10166,N,12111.32900,E,093247.00,A,A63
$GPRMC,093248.00,A,2458.10223,N,12111.32858,E,0.608,,280521,,,A79
$GPVTG,,T,,M,0.608,N,1.126,K,A29
$GPGGA,093248.00,2458.10223,N,12111.32858,E,1,06,1.72,133.2,M,16.4,M,,55
$GPGSA,A,3,02,19,06,05,12,20,,,,,,,5.31,1.72,5.030F
$GPGSV,4,1,13,02,51,348,34,05,37,258,35,06,47,047,25,07,01,095,1371
$GPGSV,4,2,13,09,24,048,,12,26,270,27,13,17,187,,17,25,144,73
$GPGSV,4,3,13,19,48,141,18,20,20,255,28,25,09,302,,28,01,172,7D
$GPGSV,4,4,13,30,04,131,4F
$GPGLL,2458.10223,N,12111.32858,E,093248.00,A,A62
$GPRMC,093249.00,A,2458.10289,N,12111.32818,E,0.392,,280521,,,A7A
$GPVTG,,T,,M,0.392,N,0.726,K,A28
$GPGGA,093249.00,2458.10289,N,12111.32818,E,1,08,1.72,131.6,M,16.4,M,,58
$GPGSA,A,3,02,19,06,05,12,17,09,20,,,,,5.31,1.72,5.0201
$GPGSV,4,1,13,02,51,348,34,05,37,258,35,06,47,047,23,07,01,095,097C
$GPGSV,4,2,13,09,24,048,23,12,26,270,28,13,17,187,,17,25,144,227D
$GPGSV,4,3,13,19,48,141,19,20,20,255,29,25,09,302,,28,01,172,7D
$GPGSV,4,4,13,30,04,131,4F
$GPGLL,2458.10289,N,12111.32818,E,093249.00,A,A67
$GPRMC,093250.00,A,2458.10342,N,12111.32767,E,0.056,,280521,,,A78
$GPVTG,,T,,M,0.056,N,0.104,K,A25
$GPGGA,093250.00,2458.10342,N,12111.32767,E,1,08,1.72,130.7,M,16.4,M,,51
$GPGSA,A,3,02,19,06,05,12,17,09,20,,,,,5.31,1.72,5.0201
$GPGSV,4,1,13,02,51,348,34,05,37,258,34,06,47,047,23,07,01,095,097D
$GPGSV,4,2,13,09,24,048,21,12,26,270,29,13,17,187,,17,25,144,217D
$GPGSV,4,3,13,19,48,141,20,20,20,255,29,25,09,302,,28,01,172,77
$GPGSV,4,4,13,30,04,131,4F
$GPGLL,2458.10342,N,12111.32767,E,093250.00,A,A6E
$GPRMC,093251.00,A,2458.10335,N,12111.32809,E,2.705,114.24,280521,,,A61
$GPVTG,114.24,T,,M,2.705,N,5.010,K,A3B
$GPGGA,093251.00,2458.10335,N,12111.32809,E,1,08,1.72,129.9,M,16.4,M,,51
$GPGSA,A,3,02,19,06,05,12,17,09,20,,,,,5.31,1.72,5.0201
$GPGSV,4,1,13,02,51,348,31,05,37,258,30,06,47,047,21,07,01,095,097E
$GPGSV,4,2,13,09,24,048,19,12,26,270,23,13,17,187,,17,25,144,1977
$GPGSV,4,3,13,19,48,141,21,20,20,255,30,25,09,302,,28,01,172,7E
$GPGSV,4,4,13,30,04,131,4F
$GPGLL,2458.10335,N,12111.32809,E,093251.00,A,A68
$GPRMC,093252.00,A,2458.10388,N,12111.32762,E,2.358,122.97,280521,,,A67
$GPVTG,122.97,T,,M,2.358,N,4.367,K,A38
$GPGGA,093252.00,2458.10388,N,12111.32762,E,1,08,0.95,129.4,M,16.4,M,,53
$GPGSA,A,3,02,19,06,05,12,17,09,20,,,,,2.51,0.95,2.320C
$GPGSV,4,1,13,02,51,348,33,05,37,258,32,06,47,047,23,07,01,095,1175
$GPGSV,4,2,13,09,24,048,19,12,26,270,30,13,17,187,,17,25,144,1874
$GPGSV,4,3,13,19,47,141,22,20,20,255,30,25,09,302,,28,01,172,72
$GPGSV,4,4,13,30,04,131,4F
$GPGLL,2458.10388,N,12111.32762,E,093252.00,A,A6F
$GPRMC,093253.00,A,2458.10425,N,12111.32694,E,0.360,,280521,,,A76
$GPVTG,,T,,M,0.360,N,0.667,K,A21
$GPGGA,093253.00,2458.10425,N,12111.32694,E,1,08,0.95,130.9,M,16.4,M,,5F
$GPGSA,A,3,02,19,06,05,12,17,09,20,,,,,2.51,0.95,2.320C
$GPGSV,4,1,13,02,51,348,34,05,37,258,34,06,47,047,22,07,01,095,1276
$GPGSV,4,2,13,09,24,048,19,12,26,270,29,13,17,187,,17,25,144,187C
$GPGSV,4,3,13,19,47,141,23,20,20,255,29,25,09,302,,28,01,172,7B
$GPGSV,4,4,13,30,04,131,4F
$GPGLL,2458.10425,N,12111.32694,E,093253.00,A,A66
$GPRMC,093254.00,A,2458.10459,N,12111.32650,E,0.215,,280521,,,A71
$GPVTG,,T,,M,0.215,N,0.398,K,A27
$GPGGA,093254.00,2458.10459,N,12111.32650,E,1,08,0.95,131.0,M,16.4,M,,53
$GPGSA,A,3,02,19,06,05,12,17,09,20,,,,,2.51,0.95,2.320C
$GPGSV,4,1,13,02,51,348,37,05,37,258,34,06,47,047,29,07,01,095,127E
$GPGSV,4,2,13,09,24,048,23,12,26,270,33,13,17,187,,17,25,144,2075
$GPGSV,4,3,13,19,47,141,22,20,20,255,29,25,09,302,,28,01,172,7A
$GPGSV,4,4,13,30,04,131,4F
$GPGLL,2458.10459,N,12111.32650,E,093254.00,A,A62
$GPRMC,093255.00,A,2458.10470,N,12111.32589,E,1.050,,280521,,,A7E
$GPVTG,,T,,M,1.050,N,1.945,K,A2E
$GPGGA,093255.00,2458.10470,N,12111.32589,E,1,08,0.95,132.7,M,16.4,M,,5A
$GPGSA,A,3,02,19,06,05,12,17,09,20,,,,,2.51,0.95,2.320C
$GPGSV,4,1,13,02,51,348,31,05,37,258,30,06,47,047,28,07,01,095,117E
$GPGSV,4,2,13,09,24,048,22,12,26,270,27,13,17,187,,17,25,144,2071
$GPGSV,4,3,13,19,47,141,20,20,20,255,28,25,09,302,,28,01,172,79
$GPGSV,4,4,13,30,04,131,4F
$GPGLL,2458.10470,N,12111.32589,E,093255.00,A,A6F
$GPRMC,093256.00,A,2458.10465,N,12111.32539,E,1.044,,280521,,,A77
$GPVTG,,T,,M,1.044,N,1.934,K,A2D
$GPGGA,093256.00,2458.10465,N,12111.32539,E,1,08,0.95,134.3,M,16.4,M,,54
$GPGSA,A,3,02,19,06,05,12,17,09,20,,,,,2.51,0.95,2.320C
$GPGSV,4,1,13,02,51,348,30,05,37,258,25,06,47,047,28,07,01,095,7B
$GPGSV,4,2,13,09,24,048,20,12,26,270,27,13,17,187,,17,25,144,1979
$GPGSV,4,3,13,19,47,141,17,20,20,255,27,25,09,302,,28,01,172,72
$GPGSV,4,4,13,30,04,131,4F
$GPGLL,2458.10465,N,12111.32539,E,093256.00,A,A63
$GPRMC,093257.00,A,2458.10459,N,12111.32531,E,0.877,,280521,,,A78
$GPVTG,,T,,M,0.877,N,1.624,K,A2A
$GPGGA,093257.00,2458.10459,N,12111.32531,E,1,08,0.95,134.6,M,16.4,M,,57
$GPGSA,A,3,02,19,06,05,12,17,09,20,,,,,2.51,0.95,2.320C
$GPGSV,4,1,13,02,51,348,34,05,37,258,27,06,47,047,30,07,01,095,74
$GPGSV,4,2,13,09,24,048,21,12,26,270,28,13,17,187,,17,25,144,217C
$GPGSV,4,3,13,19,47,141,20,20,20,255,26,25,09,302,,28,01,172,77
$GPGSV,4,4,13,30,04,131,4F
$GPGLL,2458.10459,N,12111.32531,E,093257.00,A,A65
$GPRMC,093258.00,A,2458.10466,N,12111.32514,E,0.346,,280521,,,A75
$GPVTG,,T,,M,0.346,N,0.641,K,A21
$GPGGA,093258.00,2458.10466,N,12111.32514,E,1,08,0.95,135.0,M,16.4,M,,54
$GPGSA,A,3,02,19,06,05,12,17,09,20,,,,,2.51,0.95,2.320C
$GPGSV,4,1,13,02,51,348,32,05,37,258,27,06,47,047,32,07,01,095,70
$GPGSV,4,2,13,09,24,048,20,12,26,270,29,13,17,187,,17,25,144,217C
$GPGSV,4,3,13,19,47,141,20,20,20,255,24,25,09,302,,28,01,172,75
$GPGSV,4,4,13,30,04,131,4F
$GPGLL,2458.10466,N,12111.32514,E,093258.00,A,A61
$GPRMC,093259.00,A,2458.10510,N,12111.32499,E,0.423,,280521,,,A74
$GPVTG,,T,,M,0.423,N,0.783,K,A2A
$GPGGA,093259.00,2458.10510,N,12111.32499,E,1,08,0.95,133.9,M,16.4,M,,5E
$GPGSA,A,3,02,19,06,05,12,17,09,20,,,,,2.51,0.95,2.320C
$GPGSV,4,1,13,02,51,348,30,05,37,258,27,06,47,047,32,07,01,095,72
$GPGSV,4,2,13,09,24,048,17,12,26,270,27,13,17,187,,17,25,144,2374
$GPGSV,4,3,13,19,47,141,20,20,20,255,22,25,09,302,,28,01,172,73
$GPGSV,4,4,13,30,04,131,4F
$GPGLL,2458.10510,N,12111.32499,E,093259.00,A,A64
$GPRMC,093300.00,A,2458.10535,N,12111.32473,E,0.641,,280521,,,A7C
$GPVTG,,T,,M,0.641,N,1.187,K,A2F
$GPGGA,093300.00,2458.10535,N,12111.32473,E,1,08,0.95,133.7,M,16.4,M,,5E
$GPGSA,A,3,02,19,06,05,12,17,09,20,,,,,2.51,0.95,2.320C
$GPGSV,4,1,13,02,51,348,32,05,37,258,26,06,47,047,29,07,01,095,7B
$GPGSV,4,2,13,09,24,048,15,12,26,270,28,13,17,187,,17,25,144,2278
$GPGSV,4,3,13,19,47,141,19,20,20,255,22,25,09,302,,28,01,172,79
$GPGSV,4,4,13,30,04,131,4F
$GPGLL,2458.10535,N,12111.32473,E,093300.00,A,A6A
$GPRMC,093301.00,A,2458.10543,N,12111.32480,E,0.593,,280521,,,A7C
$GPVTG,,T,,M,0.593,N,1.097,K,A23
$GPGGA,093301.00,2458.10543,N,12111.32480,E,1,08,0.95,132.9,M,16.4,M,,5D
$GPGSA,A,3,02,19,06,05,12,17,09,20,,,,,2.51,0.95,2.320C
$GPGSV,4,1,13,02,51,348,31,05,37,258,27,06,47,047,30,07,01,095,71
$GPGSV,4,2,13,09,24,048,15,12,26,270,28,13,17,187,,17,25,144,2278
$GPGSV,4,3,13,19,47,141,17,20,20,255,23,25,09,302,,28,01,172,76
$GPGSV,4,4,13,30,04,131,4F
$GPGLL,2458.10543,N,12111.32480,E,093301.00,A,A66
$GPRMC,093302.00,A,2458.10570,N,12111.32483,E,0.124,,280521,,,A74
$GPVTG,,T,,M,0.124,N,0.230,K,A25
$GPGGA,093302.00,2458.10570,N,12111.32483,E,1,08,0.95,131.7,M,16.4,M,,50
$GPGSA,A,3,02,19,06,05,12,17,09,20,,,,,2.51,0.95,2.320C
$GPGSV,4,1,13,02,51,348,31,05,37,258,27,06,47,047,30,07,01,095,71
$GPGSV,4,2,13,09,24,048,15,12,26,270,29,13,17,187,,17,25,144,2279
$GPGSV,4,3,13,19,47,141,16,20,20,255,22,25,09,302,,28,01,172,76
$GPGSV,4,4,13,30,04,131,4F
$GPGLL,2458.10570,N,12111.32483,E,093302.00,A,A66
$GPRMC,093303.00,A,2458.10591,N,12111.32483,E,0.108,,280521,,,A74
$GPVTG,,T,,M,0.108,N,0.201,K,A29
$GPGGA,093303.00,2458.10591,N,12111.32483,E,1,08,0.95,131.1,M,16.4,M,,58
$GPGSA,A,3,02,19,06,05,12,17,09,20,,,,,2.51,0.95,2.320C
$GPGSV,4,1,13,02,51,348,32,05,37,258,27,06,47,047,30,07,01,095,72
$GPGSV,4,2,13,09,24,048,15,12,26,270,30,13,17,187,,17,25,144,2271
$GPGSV,4,3,13,19,47,141,17,20,20,255,23,25,09,302,,28,01,172,76
$GPGSV,4,4,13,30,04,131,4F
$GPGLL,2458.10591,N,12111.32483,E,093303.00,A,A68
$GPRMC,093304.00,A,2458.10590,N,12111.32493,E,0.273,,280521,,,A7C
$GPVTG,,T,,M,0.273,N,0.505,K,A25
$GPGGA,093304.00,2458.10590,N,12111.32493,E,1,08,0.95,130.9,M,16.4,M,,56
$GPGSA,A,3,02,19,06,05,12,17,09,20,,,,,2.51,0.95,2.320C
$GPGSV,4,1,13,02,51,348,32,05,37,258,27,06,47,047,32,07,01,095,70
$GPGSV,4,2,13,09,24,048,17,12,26,270,31,13,17,187,,17,25,144,2171
$GPGSV,4,3,13,19,47,141,18,20,20,255,26,25,09,302,,28,01,172,7C
$GPGSV,4,4,13,30,04,131,4F
$GPGLL,2458.10590,N,12111.32493,E,093304.00,A,A6F
$GPRMC,093305.00,A,2458.10647,N,12111.32502,E,0.299,,280521,,,A79
$GPVTG,,T,,M,0.299,N,0.554,K,A25
$GPGGA,093305.00,2458.10647,N,12111.32502,E,1,08,0.95,128.7,M,16.4,M,,50
$GPGSA,A,3,02,19,06,05,12,17,09,20,,,,,2.51,0.95,2.320C
$GPGSV,4,1,13,02,51,348,32,05,37,258,26,06,47,047,31,07,01,095,72
$GPGSV,4,2,13,09,24,048,20,12,26,270,31,13,17,187,,17,25,144,2276
$GPGSV,4,3,13,19,47,141,17,20,20,255,26,25,09,302,,28,01,172,73
$GPGSV,4,4,13,30,04,131,4F
$GPGLL,2458.10647,N,12111.32502,E,093305.00,A,A6E
$GPRMC,093306.00,A,2458.10663,N,12111.32501,E,0.271,,280521,,,A79
$GPVTG,,T,,M,0.271,N,0.501,K,A23
$GPGGA,093306.00,2458.10663,N,12111.32501,E,1,08,0.95,128.6,M,16.4,M,,57
$GPGSA,A,3,02,19,06,05,12,17,09,20,,,,,2.51,0.95,2.320C
$GPGSV,4,1,13,02,51,348,32,05,37,258,26,06,47,047,32,07,01,095,71
$GPGSV,4,2,13,09,24,048,22,12,26,270,31,13,17,187,,17,25,144,2472
$GPGSV,4,3,13,19,47,141,18,20,20,255,25,25,09,302,,28,01,172,7F
$GPGSV,4,4,13,30,04,131,4F
$GPGLL,2458.10663,N,12111.32501,E,093306.00,A,A68
$GPRMC,093307.00,A,2458.10662,N,12111.32516,E,0.124,,280521,,,A7C
$GPVTG,,T,,M,0.124,N,0.230,K,A25
$GPGGA,093307.00,2458.10662,N,12111.32516,E,1,08,0.95,129.0,M,16.4,M,,56
$GPGSA,A,3,02,19,06,05,12,17,09,20,,,,,2.51,0.95,2.320C
$GPGSV,4,1,13,02,51,348,32,05,37,258,26,06,47,047,35,07,01,095,76
$GPGSV,4,2,13,09,24,048,21,12,26,270,30,13,17,187,,17,25,144,2377
$GPGSV,4,3,13,19,47,141,17,20,20,255,25,25,09,302,22,28,01,172,70
$GPGSV,4,4,13,30,04,131,4F
$GPGLL,2458.10662,N,12111.32516,E,093307.00,A,A6E
$GPRMC,093308.00,A,2458.10668,N,12111.32529,E,0.096,,280521,,,A7D
$GPVTG,,T,,M,0.096,N,0.177,K,A2D
$GPGGA,093308.00,2458.10668,N,12111.32529,E,1,08,0.95,128.5,M,16.4,M,,5B
$GPGSA,A,3,02,19,06,05,12,17,09,20,,,,,2.51,0.95,2.320C
$GPGSV,4,1,13,02,51,348,32,05,37,258,28,06,47,047,33,07,01,095,7E
$GPGSV,4,2,13,09,24,048,21,12,26,270,29,13,17,187,,17,25,144,2478
$GPGSV,4,3,13,19,47,141,17,20,20,255,24,25,09,302,21,28,01,172,72
$GPGSV,4,4,13,30,04,131,4F
$GPGLL,2458.10668,N,12111.32529,E,093308.00,A,A67
$GPRMC,093309.00,A,2458.10662,N,12111.32527,E,0.051,,280521,,,A73
$GPVTG,,T,,M,0.051,N,0.095,K,A2B
$GPGGA,093309.00,2458.10662,N,12111.32527,E,1,08,0.95,129.3,M,16.4,M,,59
$GPGSA,A,3,02,19,06,05,12,17,09,20,,,,,2.51,0.95,2.320C
$GPGSV,4,1,13,02,51,348,31,05,37,258,28,06,47,047,31,07,01,095,7F
$GPGSV,4,2,13,09,24,048,20,12,26,270,30,13,17,187,,17,25,144,2570
$GPGSV,4,3,13,19,47,141,18,20,20,255,21,25,09,302,17,28,01,172,7D
$GPGSV,4,4,13,30,04,131,4F
$GPGLL,2458.10662,N,12111.32527,E,093309.00,A,A62
$GPRMC,093310.00,A,2458.10646,N,12111.32524,E,0.345,,280521,,,A78
$GPVTG,,T,,M,0.345,N,0.639,K,A2D
$GPGGA,093310.00,2458.10646,N,12111.32524,E,1,08,0.95,129.8,M,16.4,M,,5F
$GPGSA,A,3,02,19,06,05,12,17,09,20,,,,,2.51,0.95,2.320C
$GPGSV,4,1,13,02,51,348,31,05,37,258,28,06,47,047,27,07,01,095,78
$GPGSV,4,2,13,09,24,048,20,12,26,270,24,13,17,187,,17,25,144,2474
$GPGSV,4,3,13,19,47,141,18,20,20,255,20,25,09,302,14,28,01,172,7F
$GPGSV,4,4,13,30,04,131,4F
$GPGLL,2458.10646,N,12111.32524,E,093310.00,A,A6F
$GPRMC,093311.00,A,2458.10663,N,12111.32517,E,0.235,,280521,,,A78
$GPVTG,,T,,M,0.235,N,0.435,K,A25
$GPGGA,093311.00,2458.10663,N,12111.32517,E,1,08,0.95,129.4,M,16.4,M,,55
$GPGSA,A,3,02,19,06,05,12,17,09,20,,,,,2.50,0.95,2.320D
$GPGSV,4,1,13,02,51,348,32,05,37,258,27,06,47,047,34,07,01,095,76
$GPGSV,4,2,13,09,24,048,20,12,26,270,26,13,17,187,,17,25,144,2371
$GPGSV,4,3,13,19,47,141,18,20,20,255,19,25,09,302,12,28,01,172,73
$GPGSV,4,4,13,30,04,131,4F
$GPGLL,2458.10663,N,12111.32517,E,093311.00,A,A69
$GPRMC,093312.00,A,2458.10709,N,12111.32513,E,0.549,,280521,,,A7E
$GPVTG,,T,,M,0.549,N,1.017,K,A2C
$GPGGA,093312.00,2458.10709,N,12111.32513,E,1,08,0.95,128.0,M,16.4,M,,5A
$GPGSA,A,3,02,19,06,05,12,17,09,20,,,,,2.50,0.95,2.320D
$GPGSV,4,1,13,02,51,348,33,05,37,258,26,06,47,047,29,07,01,095,7A
$GPGSV,4,2,13,09,24,048,19,12,26,270,26,13,17,187,,17,25,144,2179
$GPGSV,4,3,13,19,47,141,21,20,20,255,20,25,09,302,13,28,01,172,72
$GPGSV,4,4,13,30,04,131,4F
$GPGLL,2458.10709,N,12111.32513,E,093312.00,A,A63
$GPRMC,093313.00,A,2458.10720,N,12111.32513,E,0.269,,280521,,,A71
$GPVTG,,T,,M,0.269,N,0.498,K,A2B
$GPGGA,093313.00,2458.10720,N,12111.32513,E,1,08,0.95,127.1,M,16.4,M,,5E
$GPGSA,A,3,02,19,06,05,12,17,09,20,,,,,2.50,0.95,2.320D
$GPGSV,4,1,13,02,51,348,33,05,37,258,27,06,47,047,29,07,01,095,7B
$GPGSV,4,2,13,09,24,048,20,12,26,270,26,13,17,187,,17,25,144,2072
$GPGSV,4,3,13,19,47,141,22,20,20,255,21,25,09,302,12,28,01,172,71
$GPGSV,4,4,13,30,04,131,4F
$GPGLL,2458.10720,N,12111.32513,E,093313.00,A,A69
$GPRMC,093314.00,A,2458.10736,N,12111.32513,E,0.260,,280521,,,A78
$GPVTG,,T,,M,0.260,N,0.482,K,A29
$GPGGA,093314.00,2458.10736,N,12111.32513,E,1,08,0.95,126.9,M,16.4,M,,57
$GPGSA,A,3,02,19,06,05,12,17,09,20,,,,,2.50,0.95,2.320D
$GPGSV,4,1,13,02,51,348,28,05,37,258,27,06,47,047,28,07,01,095,70
$GPGSV,4,2,13,09,24,048,18,12,26,270,26,13,17,187,,17,25,144,227B
$GPGSV,4,3,13,19,47,141,21,20,20,255,21,25,09,302,,28,01,172,71
$GPGSV,4,4,13,30,04,131,4F
$GPGLL,2458.10736,N,12111.32513,E,093314.00,A,A69
$GPRMC,093315.00,A,2458.10752,N,12111.32515,E,0.167,,280521,,,A79
$GPVTG,,T,,M,0.167,N,0.310,K,A21
$GPGGA,093315.00,2458.10752,N,12111.32515,E,1,08,0.95,126.0,M,16.4,M,,5B
$GPGSA,A,3,02,19,06,05,12,17,09,20,,,,,2.50,0.95,2.320D
$GPGSV,4,1,13,02,51,348,36,05,37,258,29,06,47,047,29,07,01,095,70
$GPGSV,4,2,13,09,24,048,17,12,26,270,31,13,17,187,,17,25,144,2373
$GPGSV,4,3,13,19,47,141,22,20,20,255,21,25,09,302,,28,01,172,72
$GPGSV,4,4,13,30,04,131,4F
$GPGLL,2458.10752,N,12111.32515,E,093315.00,A,A6C
$GPRMC,093316.00,A,2458.10768,N,12111.32520,E,0.249,,280521,,,A7A
$GPVTG,,T,,M,0.249,N,0.460,K,A2E
$GPGGA,093316.00,2458.10768,N,12111.32520,E,1,08,0.95,125.2,M,16.4,M,,56
$GPGSA,A,3,02,19,06,05,12,17,09,20,,,,,2.50,0.95,2.320D
$GPGSV,4,1,13,02,51,348,34,05,37,258,29,06,47,047,29,07,01,095,72
$GPGSV,4,2,13,09,24,048,18,12,26,270,30,13,17,187,,17,25,144,247A
$GPGSV,4,3,13,19,47,141,22,20,20,255,22,25,09,302,,28,01,172,71
$GPGSV,4,4,13,30,04,131,4F
$GPGLL,2458.10768,N,12111.32520,E,093316.00,A,A60
$GPRMC,093317.00,A,2458.10787,N,12111.32528,E,0.435,,280521,,,A7F
$GPVTG,,T,,M,0.435,N,0.805,K,A2C
$GPGGA,093317.00,2458.10787,N,12111.32528,E,1,08,0.95,124.6,M,16.4,M,,5B
$GPGSA,A,3,02,19,06,05,12,17,09,20,,,,,2.50,0.95,2.320D
$GPGSV,4,1,13,02,51,348,25,05,37,258,28,06,47,047,22,07,01,095,78
$GPGSV,4,2,13,09,24,048,18,12,26,270,28,13,17,187,,17,25,144,2473
$GPGSV,4,3,13,19,47,141,22,20,20,255,22,25,09,302,,28,01,172,71
$GPGSV,4,4,13,30,04,131,4F
$GPGLL,2458.10787,N,12111.32528,E,093317.00,A,A68
$GPRMC,093318.00,A,2458.10794,N,12111.32530,E,0.411,,280521,,,A7D
$GPVTG,,T,,M,0.411,N,0.760,K,A26
$GPGGA,093318.00,2458.10794,N,12111.32530,E,1,08,0.95,124.6,M,16.4,M,,5F
$GPGSA,A,3,02,19,06,05,12,17,09,20,,,,,2.50,0.95,2.320D
$GPGSV,4,1,13,02,51,348,33,05,37,258,28,06,47,047,30,07,01,095,7C
$GPGSV,4,2,13,09,24,048,19,12,26,270,28,13,17,187,,17,25,144,2472
$GPGSV,4,3,13,19,47,141,21,20,20,255,23,25,09,302,,28,01,172,73
$GPGSV,4,4,13,30,04,131,4F
$GPGLL,2458.10794,N,12111.32530,E,093318.00,A,A6C
$GPRMC,093319.00,A,2458.10800,N,12111.32528,E,0.251,,280521,,,A75
$GPVTG,,T,,M,0.251,N,0.465,K,A22
$GPGGA,093319.00,2458.10800,N,12111.32528,E,1,08,0.95,124.3,M,16.4,M,,50
$GPGSA,A,3,02,19,06,05,12,17,09,20,,,,,2.50,0.95,2.320D
$GPGSV,4,1,13,02,51,348,35,05,37,258,29,06,47,047,34,07,01,095,7F
$GPGSV,4,2,13,09,24,048,20,12,26,270,27,13,17,187,,17,25,144,2576
$GPGSV,4,3,13,19,47,141,18,20,20,255,24,25,09,302,,28,01,172,7E
$GPGSV,4,4,13,30,04,131,4F
$GPGLL,2458.10800,N,12111.32528,E,093319.00,A,A66
$GPRMC,093320.00,A,2458.10787,N,12111.32518,E,0.133,,280521,,,A7B
$GPVTG,,T,,M,0.133,N,0.246,K,A22
$GPGGA,093320.00,2458.10787,N,12111.32518,E,1,08,0.95,125.3,M,16.4,M,,58
$GPGSA,A,3,02,19,06,05,12,17,09,20,,,,,2.50,0.95,2.320D
$GPGSV,4,1,13,02,51,348,34,05,37,258,29,06,47,047,32,07,01,095,78
$GPGSV,4,2,13,09,24,048,20,12,26,270,28,13,17,187,,17,25,144,2579
$GPGSV,4,3,13,19,47,141,17,20,20,255,22,25,09,302,,28,01,172,77
$GPGSV,4,4,13,30,04,131,4F
$GPGLL,2458.10787,N,12111.32518,E,093320.00,A,A6F
$GPRMC,093321.00,A,2458.10785,N,12111.32529,E,0.280,,280521,,,A71
$GPVTG,,T,,M,0.280,N,0.518,K,A25
$GPGGA,093321.00,2458.10785,N,12111.32529,E,1,08,0.95,125.1,M,16.4,M,,5B
$GPGSA,A,3,02,19,06,05,12,17,09,20,,,,,2.50,0.95,2.320D
$GPGSV,4,1,13,02,51,348,34,05,37,258,29,06,47,047,32,07,01,095,78
$GPGSV,4,2,13,09,24,048,18,12,26,270,28,13,17,187,,17,25,144,2572
$GPGSV,4,3,13,19,47,141,17,20,20,255,24,25,09,302,,28,01,172,71
$GPGSV,4,4,13,30,04,131,4F
$GPGLL,2458.10785,N,12111.32529,E,093321.00,A,A6E
$GPRMC,093322.00,A,2458.10775,N,12111.32538,E,0.325,,280521,,,A73
$GPVTG,,T,,M,0.325,N,0.602,K,A23
$GPGGA,093322.00,2458.10775,N,12111.32538,E,1,08,0.95,125.4,M,16.4,M,,52
$GPGSA,A,3,02,19,06,05,12,17,09,20,,,,,2.50,0.95,2.320D
$GPGSV,4,1,13,02,51,348,31,05,37,258,28,06,47,047,28,07,01,095,77
$GPGSV,4,2,13,09,24,048,19,12,26,270,28,13,17,187,,17,25,144,2472
$GPGSV,4,3,13,19,47,141,15,20,20,255,23,25,09,302,,28,01,172,74
$GPGSV,4,4,13,30,04,131,4F
$GPGLL,2458.10775,N,12111.32538,E,093322.00,A,A62
$GPRMC,093323.00,A,2458.10763,N,12111.32536,E,0.300,,280521,,,A7C
$GPVTG,,T,,M,0.300,N,0.556,K,A26
$GPGGA,093323.00,2458.10763,N,12111.32536,E,1,08,0.95,125.4,M,16.4,M,,5A
$GPGSA,A,3,02,19,06,05,12,17,09,20,,,,,2.50,0.95,2.320D
$GPGSV,4,1,13,02,51,348,32,05,37,258,29,06,47,047,31,07,01,095,7D
$GPGSV,4,2,13,09,24,048,19,12,26,270,28,13,17,187,,17,25,144,2573
$GPGSV,4,3,13,19,47,141,16,20,20,255,23,25,09,302,,28,01,172,77
$GPGSV,4,4,13,30,04,131,4F
$GPGLL,2458.10763,N,12111.32536,E,093323.00,A,A6A
$GPRMC,093324.00,A,2458.10769,N,12111.32536,E,0.218,,280521,,,A79
$GPVTG,,T,,M,0.218,N,0.403,K,A2F
$GPGGA,093324.00,2458.10769,N,12111.32536,E,1,08,0.95,125.4,M,16.4,M,,57
$GPGSA,A,3,02,19,06,05,12,17,09,20,,,,,2.50,0.95,2.320D
$GPGSV,4,1,13,02,51,348,33,05,37,258,30,06,47,047,32,07,01,095,77
$GPGSV,4,2,13,09,24,048,20,12,26,270,28,13,17,187,,17,25,144,2579
$GPGSV,4,3,13,19,47,141,16,20,20,255,25,25,09,302,,28,01,172,71
$GPGSV,4,4,13,30,04,131,4F
$GPGLL,2458.10769,N,12111.32536,E,093324.00,A,A67
$GPRMC,093325.00,A,2458.10756,N,12111.32540,E,0.134,,280521,,,A78
$GPVTG,,T,,M,0.134,N,0.248,K,A2B
$GPGGA,093325.00,2458.10756,N,12111.32540,E,1,08,0.95,125.9,M,16.4,M,,56
$GPGSA,A,3,02,19,06,05,12,17,09,20,,,,,2.50,0.95,2.320D
$GPGSV,4,1,13,02,51,348,34,05,37,258,31,06,47,047,32,07,01,095,71
$GPGSV,4,2,13,09,24,048,20,12,26,270,29,13,17,187,,17,25,144,2578
$GPGSV,4,3,13,19,47,141,15,20,20,255,25,25,09,302,,28,01,172,72
$GPGSV,4,4,13,30,04,131,4F
$GPGLL,2458.10756,N,12111.32540,E,093325.00,A,A6B
$GPRMC,093326.00,A,2458.10763,N,12111.32534,E,0.047,,280521,,,A7B
$GPVTG,,T,,M,0.047,N,0.088,K,A*20
$GPGGA,093326.00,2458.10763,N,12111.32534,E,1,08,0.95,125.7,M,16.4,M,,5E
$GPGSA,A,3,02,19,06,05,12,17,09,20,,,,,2.50,0.95,2.310E
$GPGSV,4,1,13,02,51,348,33,05,37,258,35,06,47,047,32,07,01,095,72
$GPGSV,4,2,13,09,24,048,21,12,26,270,30,13,17,187,,17,25,144,2571
$GPGSV,4,3,13,19,47,141,16,20,20,255,25,25,09,302,,28,01,172,71
$GPGSV,4,4,13,30,04,131,4F
$GPGLL,2458.10763,N,12111.32534,E,093326.00,A,A6D
$GPRMC,093327.00,A,2458.10723,N,12111.32549,E,0.703,,280521,,,A73
$GPVTG,,T,,M,0.70
