$GPRMC,095143.00,A,2458.22399,N,12111.71788,E,0.694,,080621,,,A*77
$GPVTG,,T,,M,0.694,N,1.285,K,A*26
$GPRMC,095144.00,A,2458.22424,N,12111.71822,E,0.715,,080621,,,A*76
$GPVTG,,T,,M,0.715,N,1.323,K,A*23
$GPGGA,095144.00,2458.22424,N,12111.71822,E,1,08,1.01,164.5,M,16.4,M,,*59
$GPGSA,A,3,02,05,13,20,06,15,19,29,,,,,2.01,1.01,1.74*05
$GPGSV,4,1,13,02,63,035,28,05,49,297,30,06,40,088,20,07,08,070,06*7C
$GPGSV,4,2,13,09,03,037,,12,15,242,,13,45,184,33,15,20,212,31*7B
$GPGSV,4,3,13,19,20,155,17,20,42,292,33,25,07,275,,29,14,321,13*70
$GPRMC,095145.00,A,2458.22433,N,12111.71829,E,0.439,,080621,,,A*77
$GPVTG,,T,,M,0.439,N,0.812,K,A*26
$GPGGA,095145.00,2458.22433,N,12111.71829,E,1,08,1.40,164.1,M,16.4,M,,*54
$GPGSA,A,3,02,05,13,20,06,15,19,29,,,,,3.45,1.40,3.15*04
$GPGSV,4,1,13,02,63,035,28,05,49,297,31,06,40,088,19,07,08,070,06*77
$GPGSV,4,2,13,09,03,037,,12,15,242,,13,45,184,33,15,20,212,32*78
$GPGSV,4,3,13,19,20,155,18,20,42,292,33,25,07,275,,29,14,321,12*7E
$GPGSV,4,4,13,30,15,107,*4A
$GPGLL,2458.22433,N,12111.71829,E,095145.00,A,A*6D
$GPRMC,095146.00,A,2458.22444,N,12111.71844,E,0.522,,080621,,,A*74
$GPVTG,,T,,M,0.522,N,0.966,K,A*2F
$GPGGA,095146.00,2458.22444,N,12111.71844,E,1,08,1.40,163.7,M,16.4,M,,*5D
$GPGSA,A,3,02,05,13,20,06,15,19,29,,,,,3.44,1.40,3.15*05
$GPGSV,4,1,13,02,63,035,29,05,49,297,34,06,40,088,20,07,08,070,*7F
$GPGSV,4,2,13,09,03,037,,12,15,242,,13,45,184,37,15,20,212,33*7D
$GPGSV,4,3,13,19,20,155,18,20,42,292,36,25,07,275,,29,14,321,10*79
$GPGSV,4,4,13,30,15,107,*4A
$GPGLL,2458.22444,N,12111.71844,E,095146.00,A,A*65
$GPRMC,095147.00,A,2458.22457,N,12111.71864,E,0.539,,080621,,,A*7F
$GPVTG,,T,,M,0.539,N,0.999,K,A*25
$GPGGA,095147.00,2458.22457,N,12111.71864,E,1,07,1.40,162.8,M,16.4,M,,*5D
$GPGSA,A,3,02,05,13,20,06,15,19,,,,,,3.44,1.40,3.14*0F
$GPGSV,4,1,13,02,63,035,29,05,49,297,30,06,40,088,22,07,08,070,*79
$GPGSV,4,2,13,09,03,037,,12,15,241,,13,45,184,35,15,20,212,32*7D
$GPGSV,4,3,13,19,20,155,20,20,42,292,36,25,07,275,,29,14,321,08*7B
$GPGSV,4,4,13,30,15,107,*4A
$GPGLL,2458.22457,N,12111.71864,E,095147.00,A,A*64
$GPRMC,095148.00,A,2458.22462,N,12111.71867,E,0.389,,080621,,,A*78
$GPVTG,,T,,M,0.389,N,0.720,K,A*24
$GPGGA,095148.00,2458.22462,N,12111.71867,E,1,07,1.40,162.4,M,16.4,M,,*5B
$GPGSA,A,3,02,05,13,20,06,15,19,,,,,,3.44,1.40,3.14*0F
$GPGSV,4,1,13,02,63,035,32,05,49,297,35,06,40,088,22,07,08,070,*76
$GPGSV,4,2,13,09,03,037,,12,15,241,,13,46,184,37,15,20,212,35*7B
$GPGSV,4,3,13,19,20,155,20,20,42,292,38,25,07,275,,29,14,321,08*75
$GPGSV,4,4,13,30,15,107,*4A
$GPGLL,2458.22462,N,12111.71867,E,095148.00,A,A*6E
$GPRMC,095149.00,A,2458.22469,N,12111.71874,E,0.362,,080621,,,A*75
$GPVTG,,T,,M,0.362,N,0.670,K,A*25
$GPGGA,095149.00,2458.22469,N,12111.71874,E,1,07,1.40,162.0,M,16.4,M,,*57
$GPGSA,A,3,02,05,13,20,06,15,19,,,,,,3.44,1.40,3.14*0F
$GPGSV,4,1,13,02,63,035,31,05,49,297,35,06,40,088,21,07,08,070,*76
$GPGSV,4,2,13,09,03,037,,12,15,241,,13,46,184,37,15,20,212,35*7B
$GPGSV,4,3,13,19,20,155,21,20,42,292,36,25,07,275,,29,14,321,08*7A
$GPGSV,4,4,13,30,15,107,*4A
$GPGLL,2458.22469,N,12111.71874,E,095149.00,A,A*66
$GPRMC,095150.00,A,2458.22492,N,12111.71900,E,0.317,,080621,,,A*79
$GPVTG,,T,,M,0.317,N,0.587,K,A*2C
$GPGGA,095150.00,2458.22492,N,12111.71900,E,1,08,1.01,160.2,M,16.4,M,,*53
$GPGSA,A,3,02,05,13,20,06,15,19,29,,,,,2.01,1.01,1.74*05
$GPGSV,4,1,13,02,63,035,30,05,49,297,30,06,40,088,19,07,08,070,*79
$GPGSV,4,2,13,09,03,037,,12,15,241,,13,46,184,32,15,20,212,27*7D
$GPGSV,4,3,13,19,20,155,20,20,42,292,34,25,07,275,,29,14,321,07*76
$GPGSV,4,4,13,30,15,107,*4A
$GPGLL,2458.22492,N,12111.71900,E,095150.00,A,A*68
$GPRMC,095151.00,A,2458.22531,N,12111.71951,E,0.640,,080621,,,A*73
$GPVTG,,T,,M,0.640,N,1.186,K,A*2F
$GPGGA,095151.00,2458.22531,N,12111.71951,E,1,08,1.01,157.8,M,16.4,M,,*50
$GPGSA,A,3,02,05,13,20,06,15,19,29,,,,,2.01,1.01,1.74*05
$GPGSV,4,1,13,02,63,035,30,05,49,297,30,06,40,088,18,07,08,070,*78
$GPGSV,4,2,13,09,03,037,,12,15,241,,13,46,184,35,15,20,212,32*7E
$GPGSV,4,3,13,19,20,155,20,20,42,292,33,25,07,275,,29,14,321,07*71
$GPGSV,4,4,13,30,15,107,*4A
$GPGLL,2458.22531,N,12111.71951,E,095151.00,A,A*65
$GPRMC,095152.00,A,2458.22546,N,12111.71979,E,0.666,,080621,,,A*7E
$GPVTG,,T,,M,0.666,N,1.234,K,A*21
$GPGGA,095152.00,2458.22546,N,12111.71979,E,1,08,1.40,156.8,M,16.4,M,,*5D
$GPGSA,A,3,02,05,13,20,06,15,19,29,,,,,3.44,1.40,3.14*04
$GPGSV,4,1,13,02,63,035,30,05,49,297,30,06,40,088,17,07,08,070,*77
$GPGSV,4,2,13,09,03,037,,12,15,241,,13,46,184,34,15,20,212,31*7C
$GPGSV,4,3,13,19,20,155,20,20,42,292,34,25,07,275,,29,14,321,08*79
$GPGSV,4,4,13,30,15,107,*4A
$GPGLL,2458.22546,N,12111.71979,E,095152.00,A,A*6C
$GPRMC,095153.00,A,2458.22555,N,12111.71991,E,0.515,,080621,,,A*7C
$GPVTG,,T,,M,0.515,N,0.954,K,A*2A
$GPGGA,095153.00,2458.22555,N,12111.71991,E,1,09,1.40,156.2,M,16.4,M,,*53
$GPGSA,A,3,02,05,13,20,06,15,19,30,29,,,,3.44,1.40,3.14*07
$GPGSV,4,1,13,02,63,035,29,05,49,297,31,06,40,088,16,07,08,070,*7F
$GPGSV,4,2,13,09,03,037,,12,15,241,,13,46,184,34,15,20,212,31*7C
$GPGSV,4,3,13,19,20,155,19,20,42,292,37,25,07,275,,29,14,321,08*70
$GPGSV,4,4,13,30,15,107,20*48
$GPGLL,2458.22555,N,12111.71991,E,095153.00,A,A*69
$GPRMC,095154.00,A,2458.22562,N,12111.72003,E,0.401,,080621,,,A*7A
$GPVTG,,T,,M,0.401,N,0.742,K,A*27
$GPGGA,095154.00,2458.22562,N,12111.72003,E,1,09,1.40,155.8,M,16.4,M,,*58
$GPGSA,A,3,02,05,13,20,06,15,19,30,29,,,,3.44,1.40,3.14*07
$GPGSV,4,1,13,02,63,035,28,05,49,297,31,06,40,088,16,07,08,070,*7E
$GPGSV,4,2,13,09,03,037,,12,15,241,,13,46,184,33,15,20,212,30*7A
$GPGSV,4,3,13,19,19,155,18,20,42,292,34,25,07,275,,29,14,321,08*78
$GPGSV,4,4,13,30,15,107,17*4C
$GPGLL,2458.22562,N,12111.72003,E,095154.00,A,A*6B
$GPRMC,095155.00,A,2458.22583,N,12111.72047,E,0.832,,080621,,,A*78
$GPVTG,,T,,M,0.832,N,1.541,K,A*2B
$GPGGA,095155.00,2458.22583,N,12111.72047,E,1,09,1.40,154.5,M,16.4,M,,*5A
$GPGSA,A,3,02,05,13,20,06,15,19,30,29,,,,3.44,1.40,3.14*07
$GPGSV,4,1,13,02,63,035,28,05,49,297,28,06,40,088,16,07,08,070,*76
$GPGSV,4,2,13,09,03,037,,12,15,241,,13,46,184,32,15,20,212,28*72
$GPGSV,4,3,13,19,19,155,18,20,42,293,30,25,07,275,,29,14,321,07*72
$GPGSV,4,4,13,30,15,107,14*4F
$GPGLL,2458.22583,N,12111.72047,E,095155.00,A,A*65
$GPRMC,095156.00,A,2458.22596,N,12111.72069,E,0.864,56.03,080621,,,A*5E
$GPVTG,56.03,T,,M,0.864,N,1.599,K,A*03
$GPGGA,095156.00,2458.22596,N,12111.72069,E,1,09,1.40,153.7,M,16.4,M,,*54
$GPGSA,A,3,02,05,13,20,06,15,19,30,29,,,,3.44,1.40,3.14*07
$GPGSV,4,1,13,02,63,035,29,05,49,297,33,06,40,088,16,07,08,070,*7D
$GPGSV,4,2,13,09,03,037,,12,15,241,,13,46,184,36,15,20,212,32*7D
$GPGSV,4,3,13,19,19,155,18,20,42,293,37,25,07,275,,29,14,321,08*7A
$GPGSV,4,4,13,30,15,107,10*4B
$GPGLL,2458.22596,N,12111.72069,E,095156.00,A,A*6E
$GPRMC,095157.00,A,2458.22600,N,12111.72073,E,0.601,,080621,,,A*7B
$GPVTG,,T,,M,0.601,N,1.112,K,A*27
$GPGGA,095157.00,2458.22600,N,12111.72073,E,1,08,1.40,153.2,M,16.4,M,,*56
$GPGSA,A,3,02,05,13,20,06,15,19,29,,,,,3.44,1.40,3.14*04
$GPGSV,4,1,13,02,63,035,29,05,49,297,35,06,40,088,17,07,08,070,*7A
$GPGSV,4,2,13,09,03,037,,12,15,241,,13,46,184,38,15,20,212,34*75
$GPGSV,4,3,13,19,19,155,20,20,42,293,39,25,07,275,,29,14,321,08*7F
$GPGSV,4,4,13,30,15,107,08*42
$GPGLL,2458.22600,N,12111.72073,E,095157.00,A,A*68
$GPRMC,095158.00,A,2458.22613,N,12111.72096,E,0.694,,080621,,,A*71
$GPVTG,,T,,M,0.694,N,1.286,K,A*25
$GPGGA,095158.00,2458.22613,N,12111.72096,E,1,08,1.40,152.3,M,16.4,M,,*50
$GPRMC,095205.00,A,2458.22645,N,12111.72144,E,0.383,,080621,,,A*74
$GPVTG,,T,,M,0.383,N,0.710,K,A*2D
$GPGGA,095205.00,2458.22645,N,12111.72144,E,1,09,1.40,146.8,M,16.4,M,,*59
$GPGSA,A,3,02,05,13,20,06,15,19,30,12,,,,3.43,1.40,3.13*0F
$GPGSV,4,1,13,02,63,035,31,05,49,297,31,06,40,088,21,07,08,070,*72
$GPGSV,4,2,13,09,03,037,,12,15,241,15,13,46,184,34,15,20,212,28*70
$GPGSV,4,3,13,19,19,155,19,20,42,293,34,25,07,274,,29,15,321,*70
$GPGSV,4,4,13,30,16,106,07*4F
$GPGLL,2458.22645,N,12111.72144,E,095205.00,A,A*68
$GPRMC,095206.00,A,2458.22643,N,12111.72134,E,0.241,,080621,,,A*79
$GPVTG,,T,,M,0.241,N,0.447,K,A*23
$GPGGA,095206.00,2458.22643,N,12111.72134,E,1,09,1.40,146.2,M,16.4,M,,*51
$GPGSA,A,3,02,05,13,20,06,15,19,30,12,,,,3.43,1.40,3.13*0F
$GPGSV,4,1,13,02,63,035,31,05,49,297,36,06,40,088,22,07,08,070,*76
$GPGSV,4,2,13,09,03,037,,12,15,241,16,13,46,184,39,15,20,212,29*7F
$GPGSV,4,3,13,19,19,155,19,20,42,293,38,25,07,274,,29,15,321,*7C
$GPGSV,4,4,13,30,16,106,07*4F
$GPGLL,2458.22643,N,12111.72134,E,095206.00,A,A*6A
$GPRMC,095207.00,A,2458.22635,N,12111.72118,E,0.147,,080621,,,A*72
$GPVTG,,T,,M,0.147,N,0.273,K,A*27
$GPGGA,095207.00,2458.22635,N,12111.72118,E,1,09,1.40,145.9,M,16.4,M,,*57
$GPGSA,A,3,02,05,13,20,06,15,19,12,29,,,,3.43,1.40,3.13*07
$GPGSV,4,1,13,02,63,035,31,05,49,297,33,06,40,088,23,07,08,070,*72
$GPGSV,4,2,13,09,03,037,,12,15,241,18,13,46,184,37,15,20,212,31*76
$GPGSV,4,3,13,19,19,155,19,20,42,293,34,25,07,274,,29,15,321,14*75
$GPGSV,4,4,13,30,16,106,*48
$GPGLL,2458.22635,N,12111.72118,E,095207.00,A,A*64
$GPRMC,095208.00,A,2458.22637,N,12111.72122,E,0.200,,080621,,,A*76
$GPVTG,,T,,M,0.200,N,0.370,K,A*25
$GPGGA,095208.00,2458.22637,N,12111.72122,E,1,08,1.40,145.0,M,16.4,M,,*5B
$GPGSA,A,3,02,05,13,20,06,15,19,12,,,,,3.43,1.40,3.13*0C
$GPGSV,4,1,13,02,63,035,26,05,49,297,29,06,40,088,23,07,08,070,*7F
$GPGSV,4,2,13,09,03,037,,12,15,241,16,13,46,184,30,15,20,212,27*78
$GPGSV,4,3,13,19,19,155,19,20,42,293,29,25,07,274,,29,15,321,14*79
$GPGSV,4,4,13,30,16,106,*48
$GPGLL,2458.22637,N,12111.72122,E,095208.00,A,A*60
$GPRMC,095209.00,A,2458.22639,N,12111.72118,E,0.294,,080621,,,A*7D
$GPVTG,,T,,M,0.294,N,0.544,K,A*29
$GPGGA,095209.00,2458.22639,N,12111.72118,E,1,08,1.40,144.2,M,16.4,M,,*5E
$GPGSA,A,3,02,05,13,20,06,15,19,12,,,,,3.43,1.40,3.13*0C
$GPGSV,4,1,13,02,63,035,32,05,49,297,34,06,40,088,23,07,08,070,*76
$GPGSV,4,2,13,09,03,037,,12,15,241,16,13,46,184,38,15,20,212,30*76
$GPGSV,4,3,13,19,19,155,19,20,42,293,38,25,07,274,,29,15,321,15*78
$GPGSV,4,4,13,30,16,106,*48
$GPGLL,2458.22639,N,12111.72118,E,095209.00,A,A*66
$GPRMC,095210.00,A,2458.22633,N,12111.72100,E,0.182,,080621,,,A*72
$GPVTG,,T,,M,0.182,N,0.337,K,A*2F
$GPGGA,095210.00,2458.22633,N,12111.72100,E,1,09,1.40,143.8,M,16.4,M,,*59
$GPGSA,A,3,02,05,13,20,06,15,19,12,29,,,,3.43,1.40,3.13*07
$GPGSV,4,1,13,02,63,035,32,05,49,297,33,06,40,088,24,07,08,070,*76
$GPGSV,4,2,13,09,03,037,,12,15,241,16,13,46,184,37,15,20,212,30*79
$GPRMC,095211.00,A,2458.22634,N,12111.72091,E,0.418,,080621,,,A*7B
$GPVTG,,T,,M,0.418,N,0.774,K,A*2A
$GPGGA,095211.00,2458.22634,N,12111.72091,E,1,09,1.40,143.3,M,16.4,M,,*5D
$GPRMC,095212.00,A,2458.22625,N,12111.72079,E,0.398,,080621,,,A*71
$GPVTG,,T,,M,0.398,N,0.738,K,A*2D
$GPGGA,095212.00,2458.22625,N,12111.72079,E,1,09,1.01,143.5,M,16.4,M,,*5B
$GPRMC,095213.00,A,2458.22627,N,12111.72077,E,0.372,,080621,,,A*78
$GPVTG,,T,,M,0.372,N,0.690,K,A*2A
$GPGGA,095213.00,2458.22627,N,12111.72077,E,1,08,1.40,143.0,M,16.4,M,,*57
$GPGSA,A,3,02,05,13,20,06,15,19,12,,,,,3.42,1.40,3.12*0C
$GPGSV,4,1,13,02,63,035,28,05,49,297,29,06,40,088,21,07,08,070,*73
$GPGSV,4,2,13,09,03,037,,12,15,241,16,13,46,184,33,15,20,212,27*7B
$GPGSV,4,3,13,19,19,155,16,20,42,293,33,25,07,274,,29,15,321,*78
$GPGSV,4,4,13,30,16,106,*48
$GPRMC,095214.00,A,2458.22628,N,12111.72071,E,0.315,,080621,,,A*77
$GPVTG,,T,,M,0.315,N,0.583,K,A*2A
$GPGGA,095214.00,2458.22628,N,12111.72071,E,1,08,1.33,142.9,M,16.4,M,,*55
$GPRMC,095216.00,A,2458.22622,N,12111.72048,E,0.183,,080621,,,A*78
$GPVTG,,T,,M,0.183,N,0.340,K,A*2E
$GPGGA,095216.00,2458.22622,N,12111.72048,E,1,08,1.40,142.2,M,16.4,M,,*58
$GPGSA,A,3,02,05,13,20,06,15,19,12,,,,,3.42,1.40,3.12*0C
$GPGSV,4,1,13,02,63,035,27,05,49,297,29,06,40,088,22,07,08,070,*7F
$GPGSV,4,2,13,09,03,037,,12,15,241,13,13,46,184,32,15,20,212,31*78
$GPGSV,4,3,13,19,19,155,16,20,42,293,33,25,07,274,,29,15,321,*78
$GPRMC,095217.00,A,2458.22620,N,12111.72038,E,0.104,,080621,,,A*73
$GPVTG,,T,,M,0.104,N,0.193,K,A*2D
$GPGGA,095217.00,2458.22620,N,12111.72038,E,1,08,1.40,142.0,M,16.4,M,,*5E
$GPGSA,A,3,02,05,13,20,06,15,19,12,,,,,3.42,1.40,3.12*0C
$GPGSV,4,1,13,02,63,035,29,05,49,297,33,06,40,088,21,07,08,070,*79
$GPGSV,4,2,13,09,03,037,,12,15,241,12,13,46,184,34,15,20,212,31*7F
$GPGSV,4,3,13,19,19,155,17,20,42,293,33,25,07,274,,29,15,321,*79
$GPRMC,095218.00,A,2458.22620,N,12111.72030,E,0.256,,080621,,,A*70
$GPVTG,,T,,M,0.256,N,0.475,K,A*24
$GPGGA,095218.00,2458.22620,N,12111.72030,E,1,09,1.40,141.8,M,16.4,M,,*53
$GPGSA,A,3,02,05,13,20,06,15,19,12,29,,,,3.42,1.40,3.12*07
$GPRMC,095219.00,A,2458.22618,N,12111.72021,E,0.081,,080621,,,A*72
$GPRMC,095220.00,A,2458.22613,N,12111.72007,E,0.167,,080621,,,A*7E
$GPVTG,,T,,M,0.167,N,0.310,K,A*21
$GPGGA,095220.00,2458.22613,N,12111.72007,E,1,09,1.40,141.3,M,16.4,M,,*57
$GPGSA,A,3,02,05,13,20,06,15,19,12,29,,,,3.42,1.40,3.12*07
$GPRMC,095221.00,A,2458.22622,N,12111.72010,E,0.161,,080621,,,A*7D
$GPVTG,,T,,M,0.161,N,0.299,K,A*27
$GPGGA,095221.00,2458.22622,N,12111.72010,E,1,07,1.40,140.9,M,16.4,M,,*57
$GPGSA,A,3,02,05,13,20,06,15,19,,,,,,3.42,1.40,3.12*0F
$GPGSV,4,1,13,02,63,035,28,05,49,297,33,06,40,088,17,07,08,070,*7D
$GPGSV,4,2,13,09,03,037,,12,15,241,,13,46,184,33,15,20,212,31*7B
$GPRMC,095222.00,A,2458.22628,N,12111.72016,E,0.171,,080621,,,A*73
$GPVTG,,T,,M,0.171,N,0.316,K,A*20
$GPGGA,095222.00,2458.22628,N,12111.72016,E,1,07,1.40,140.6,M,16.4,M,,*57
$GPRMC,095223.00,A,2458.22633,N,12111.72019,E,0.172,,080621,,,A*74
$GPVTG,,T,,M,0.172,N,0.318,K,A*2D
$GPGGA,095223.00,2458.22633,N,12111.72019,E,1,07,1.40,140.4,M,16.4,M,,*51
$GPGSA,A,3,02,05,13,20,06,15,19,,,,,,3.42,1.40,3.12*0F
$GPRMC,095224.00,A,2458.22633,N,12111.72015,E,0.043,,080621,,,A*7C
$GPVTG,,T,,M,0.043,N,0.079,K,A*2A
$GPRMC,095225.00,A,2458.22642,N,12111.72027,E,0.251,,080621,,,A*7B
$GPVTG,,T,,M,0.251,N,0.465,K,A*22
$GPGGA,095225.00,2458.22642,N,12111.72027,E,1,07,1.40,139.7,M,16.4,M,,*51
$GPRMC,095226.00,A,2458.22646,N,12111.72038,E,0.560,,080621,,,A*77
$GPVTG,,T,,M,0.560,N,1.036,K,A*24
$GPRMC,095227.00,A,2458.22645,N,12111.72032,E,0.384,,080621,,,A*73
$GPVTG,,T,,M,0.384,N,0.711,K,A*2B
$GPRMC,095228.00,A,2458.22651,N,12111.72040,E,0.598,,080621,,,A*77
$GPVTG,,T,,M,0.598,N,1.108,K,A*2F
$GPGGA,095228.00,2458.22651,N,12111.72040,E,1,09,1.01,140.9,M,16.4,M,,*54
$GPRMC,095229.00,A,2458.22648,N,12111.72044,E,0.490,,080621,,,A*73
$GPVTG,,T,,M,0.490,N,0.907,K,A*20
$GPRMC,095230.00,A,2458.22655,N,12111.72052,E,0.558,,080621,,,A*75
$GPVTG,,T,,M,0.558,N,1.033,K,A*2A
$GPGGA,095230.00,2458.22655,N,12111.72052,E,1,10,1.01,141.1,M,16.4,M,,*5B
$GPGSA,A,3,02,05,13,20,06,15,19,30,12,29,,,2.01,1.01,1.74*05
$GPRMC,095231.00,A,2458.22662,N,12111.72065,E,0.513,,080621,,,A*7B
$GPVTG,,T,,M,0.513,N,0.949,K,A*20
$GPGGA,095231.00,2458.22662,N,12111.72065,E,1,10,0.96,141.3,M,16.4,M,,*57
$GPGSA,A,3,02,05,13,20,06,15,19,30,12,29,,,1.93,0.96,1.68*0F
$GPRMC,095232.00,A,2458.22668,N,12111.72067,E,0.367,,080621,,,A*75
$GPVTG,,T,,M,0.367,N,0.679,K,A*29
$GPGGA,095232.00,2458.22668,N,12111.72067,E,1,10,0.96,141.7,M,16.4,M,,*58
$GPGSA,A,3,02,05,13,20,06,15,19,30,12,29,,,1.93,0.96,1.68*0F
$GPRMC,095233.00,A,2458.22679,N,12111.72071,E,0.418,,080621,,,A*7C
$GPVTG,,T,,M,0.418,N,0.774,K,A*2A
$GPGGA,095233.00,2458.22679,N,12111.72071,E,1,10,0.96,141.6,M,16.4,M,,*5F
$GPGSA,A,3,02,05,13,20,06,15,19,30,12,29,,,1.93,0.96,1.68*0F
$GPGSV,4,1,13,02,63,035,26,05,49,297,29,06,40,088,14,07,08,070,*7B
$GPGSV,4,2,13,09,03,037,,12,15,241,18,13,46,184,33,15,20,212,28*7A
$GPRMC,095234.00,A,2458.22686,N,12111.72094,E,0.383,,080621,,,A*75
$GPVTG,,T,,M,0.383,N,0.709,K,A*25
$GPGGA,095234.00,2458.22686,N,12111.72094,E,1,09,1.33,141.3,M,16.4,M,,*50
$GPRMC,095235.00,A,2458.22689,N,12111.72111,E,0.353,,080621,,,A*7A
$GPVTG,,T,,M,0.353,N,0.654,K,A*21
$GPRMC,095236.00,A,2458.22699,N,12111.72110,E,0.277,,080621,,,A*7E
$GPVTG,,T,,M,0.277,N,0.513,K,A*26
$GPGGA,095236.00,2458.22699,N,12111.72110,E,1,09,1.33,141.4,M,16.4,M,,*56
$GPGSA,A,3,02,05,13,20,06,15,19,12,07,,,,2.92,1.33,2.60*07
$GPGSV,4,1,13,02,63,035,26,05,49,297,30,06,40,088,16,07,08,070,11*71
$GPRMC,095237.00,A,2458.22708,N,12111.72126,E,0.251,,080621,,,A*77
$GPVTG,,T,,M,0.251,N,0.466,K,A*21
$GPGGA,095237.00,2458.22708,N,12111.72126,E,1,08,1.33,141.1,M,16.4,M,,*5F
$GPGSA,A,3,02,05,13,20,06,15,19,12,,,,,2.92,1.33,2.60*00
$GPGSV,4,1,13,02,63,035,26,05,49,297,30,06,40,088,17,07,08,070,08*78
$GPRMC,095238.00,A,2458.22716,N,12111.72141,E,0.276,,080621,,,A*73
$GPVTG,,T,,M,0.276,N,0.511,K,A*25
$GPRMC,095239.00,A,2458.22722,N,12111.72144,E,0.197,,080621,,,A*7C
$GPVTG,,T,,M,0.197,N,0.364,K,A*2D
$GPGGA,095239.00,2458.22722,N,12111.72144,E,1,10,1.40,140.8,M,16.4,M,,*58
$GPGSA,A,3,02,05,13,20,06,15,19,30,12,29,,,3.40,1.40,3.10*04
$GPGSV,4,1,13,02,63,035,27,05,49,297,34,06,40,088,20,07,08,070,09*78
$GPGSV,4,2,13,09,03,037,,12,15,241,18,13,46,184,36,15,20,212,30*76
$GPGSV,4,3,13,19,19,155,23,20,42,293,34,25,07,274,,29,15,321,09*70
$GPRMC,095240.00,A,2458.22719,N,12111.72143,E,0.200,,080621,,,A*70
$GPVTG,,T,,M,0.200,N,0.370,K,A*25
$GPGGA,095240.00,2458.22719,N,12111.72143,E,1,09,1.01,141.3,M,16.4,M,,*5E
$GPGSA,A,3,02,05,13,20,06,15,19,12,29,,,,2.01,1.01,1.74*06
$GPRMC,095241.00,A,2458.22709,N,12111.72136,E,0.151,,080621,,,A*75
$GPVTG,,T,,M,0.151,N,0.279,K,A*2A
$GPGGA,095241.00,2458.22709,N,12111.72136,E,1,09,0.96,142.2,M,16.4,M,,*51
$GPGSA,A,3,02,05,13,20,06,15,19,12,29,,,,1.93,0.96,1.68*0C
$GPGSV,4,1,13,02,63,035,27,05,49,297,31,06,40,088,22,07,08,070,*76
$GPGSV,4,2,13,09,03,037,,12,15,241,18,13,46,184,34,15,20,212,31*75
$GPRMC,095242.00,A,2458.22697,N,12111.72125,E,0.060,,080621,,,A*71
$GPVTG,,T,,M,0.060,N,0.111,K,A*24
$GPGGA,095242.00,2458.22697,N,12111.72125,E,1,09,0.96,143.2,M,16.4,M,,*57
$GPGSA,A,3,02,05,13,20,06,15,19,12,29,,,,1.93,0.96,1.68*0C
$GPRMC,095244.00,A,2458.22651,N,12111.72086,E,0.366,,080621,,,A*70
$GPVTG,,T,,M,0.366,N,0.678,K,A*29
$GPGGA,095244.00,2458.22651,N,12111.72086,E,1,09,0.96,145.4,M,16.4,M,,*53
$GPGSA,A,3,02,05,13,20,06,15,19,12,29,,,,1.93,0.96,1.68*0C
$GPGSV,4,1,13,02,63,035,26,05,49,297,30,06,40,088,23,07,08,070,*77
$GPGSV,4,2,13,09,03,037,,12,15,241,18,13,46,184,32,15,20,212,25*76
$GPGSV,4,3,13,19,19,155,25,20,42,293,30,25,07,274,,29,15,321,08*73
$GPGSV,4,4,13,30,16,106,*48
$GPGLL,2458.22651,N,12111.72086,E,095244.00,A,A*67
$GPRMC,095245.00,A,2458.22617,N,12111.72043,E,0.637,,080621,,,A*7B
$GPVTG,,T,,M,0.637,N,1.180,K,A*29
$GPGGA,095245.00,2458.22617,N,12111.72043,E,1,09,0.96,146.7,M,16.4,M,,*59
$GPGSA,A,3,02,05,13,20,06,15,19,12,29,,,,1.93,0.96,1.68*0C
$GPGSV,4,1,13,02,63,035,25,05,49,297,32,06,40,088,22,07,08,070,*77
$GPRMC,095246.00,A,2458.22624,N,12111.72026,E,0.324,,080621,,,A*7C
$GPVTG,,T,,M,0.324,N,0.600,K,A*20
$GPGGA,095246.00,2458.22624,N,12111.72026,E,1,09,1.40,146.5,M,16.4,M,,*51
$GPGSA,A,3,02,05,13,20,06,15,19,12,29,,,,3.40,1.40,3.10*07
$GPGSV,4,1,13,02,63,035,25,05,49,297,36,06,40,088,23,07,08,070,*72
$GPGSV,4,2,13,09,03,037,,12,15,241,16,13,46,184,38,15,20,212,29*7E
$GPRMC,095247.00,A,2458.22621,N,12111.72015,E,0.239,,080621,,,A*75
$GPVTG,,T,,M,0.239,N,0.443,K,A*28
$GPRMC,095248.00,A,2458.22616,N,12111.71999,E,0.179,,080621,,,A*77
$GPVTG,,T,,M,0.179,N,0.332,K,A*2E
$GPRMC,095249.00,A,2458.22619,N,12111.71981,E,0.162,,080621,,,A*7A
$GPVTG,,T,,M,0.162,N,0.300,K,A*25
$GPGGA,095249.00,2458.22619,N,12111.71981,E,1,08,1.40,146.4,M,16.4,M,,*57
$GPRMC,095250.00,A,2458.22614,N,12111.71962,E,0.241,,080621,,,A*70
$GPVTG,,T,,M,0.241,N,0.446,K,A*22
$GPGGA,095250.00,2458.22614,N,12111.71962,E,1,08,1.40,146.1,M,16.4,M,,*5A
$GPGSA,A,3,02,05,13,20,06,15,19,29,,,,,3.39,1.40,3.09*02
$GPRMC,095251.00,A,2458.22614,N,12111.71947,E,0.083,,080621,,,A*7A
$GPVTG,,T,,M,0.083,N,0.154,K,A*28
$GPGGA,095251.00,2458.22614,N,12111.71947,E,1,08,1.39,145.9,M,16.4,M,,*59
$GPGSA,A,3,02,05,13,20,06,15,19,29,,,,,3.39,1.39,3.09*0C
$GPGSV,4,1,13,02,64,036,28,05,49,298,35,06,40,088,25,07,08,070,*71
$GPGSV,4,2,13,09,03,037,,12,15,241,,13,46,184,39,15,20,212,28*79
$GPGSV,4,3,13,19,19,155,26,20,42,293,35,25,07,274,,29,15,321,07*7A
$GPRMC,095252.00,A,2458.22605,N,12111.71919,E,0.286,,080621,,,A*75
$GPVTG,,T,,M,0.286,N,0.529,K,A*21
$GPGGA,095252.00,2458.22605,N,12111.71919,E,1,07,1.39,145.8,M,16.4,M,,*5F
$GPGSA,A,3,02,05,13,20,06,15,19,,,,,,3.39,1.39,3.09*07
$GPGSV,4,1,13,02,64,036,27,05,49,298,31,06,39,089,24,07,08,070,*74
$GPGSV,4,2,13,09,03,037,,12,15,241,,13,46,184,34,15,20,212,27*7B
$GPGSV,4,3,13,19,19,155,25,20,42,293,32,25,07,274,,29,15,321,*79
$GPGSV,4,4,13,30,16,106,*48
$GPGLL,2458.22605,N,12111.71919,E,095252.00,A,A*6D
$GPRMC,095253.00,A,2458.22596,N,12111.71890,E,0.427,,080621,,,A*70
$GPVTG,,T,,M,0.427,N,0.792,K,A*2E
$GPGGA,095253.00,2458.22596,N,12111.71890,E,1,08,1.39,145.6,M,16.4,M,,*56
$GPRMC,095254.00,A,2458.22593,N,12111.71870,E,0.313,,080621,,,A*7C
$GPVTG,,T,,M,0.313,N,0.580,K,A*2F
$GPGGA,095254.00,2458.22593,N,12111.71870,E,1,08,1.39,145.3,M,16.4,M,,*5F
$GPGSA,A,3,02,05,13,20,06,15,19,07,,,,,3.39,1.39,3.09*00
$GPRMC,095255.00,A,2458.22588,N,12111.71862,E,0.079,,080621,,,A*7B
$GPVTG,,T,,M,0.079,N,0.146,K,A*2E
$GPGGA,095255.00,2458.22588,N,12111.71862,E,1,08,1.39,145.1,M,16.4,M,,*55
$GPGSA,A,3,02,05,13,20,06,15,19,07,,,,,3.39,1.39,3.09*00
$GPRMC,095256.00,A,2458.22582,N,12111.71850,E,0.035,,080621,,,A*7B
$GPVTG,,T,,M,0.035,N,0.065,K,A*26
$GPGSA,A,3,02,05,13,20,06,15,19,12,,,,,2.90,1.32,2.58*08
$GPGSV,4,1,13,02,64,036,26,05,49,298,30,06,39,089,18,07,08,069,*73
$GPGSV,4,2,13,09,02,037,,12,14,241,09,13,47,184,32,15,21,212,31*73
$GPGSV,4,3,13,19,19,155,21,20,42,294,30,25,07,274,,29,15,321,*78
$GPGSV,4,4,13,30,16,106,*48
$GPGLL,2458.22600,N,12111.71895,E,095314.00,A,A*6E
$GPRMC,095315.00,A,2458.22602,N,12111.71896,E,0.159,,080621,,,A*77
$GPVTG,,T,,M,0.159,N,0.294,K,A*21
$GPGGA,095315.00,2458.22602,N,12111.71896,E,1,07,1.39,146.6,M,16.4,M,,*51
$GPGSA,A,3,02,05,13,20,06,15,19,,,,,,3.37,1.39,3.07*07
$GPGSV,4,1,13,02,64,036,26,05,49,298,30,06,39,089,18,07,08,069,*73
$GPGSV,4,2,13,09,02,037,,12,14,241,,13,47,184,34,15,21,212,34*79
$GPGSV,4,3,13,19,19,155,21,20,42,294,29,25,07,274,,29,15,321,*70
$GPGSV,4,4,13,30,16,106,*48
$GPGLL,2458.22602,N,12111.71896,E,095315.00,A,A*6E
$GPRMC,095316.00,A,2458.22607,N,12111.71902,E,0.029,,080621,,,A*7B
$GPVTG,,T,,M,0.029,N,0.053,K,A*2E
$GPGGA,095316.00,2458.22607,N,12111.71902,E,1,07,1.39,146.9,M,16.4,M,,*54
$GPGSA,A,3,02,05,13,20,06,15,19,,,,,,3.37,1.39,3.07*07
$GPGSV,4,1,13,02,64,036,27,05,49,298,35,06,39,089,19,07,08,069,*76
$GPGSV,4,2,13,09,02,037,,12,14,241,,13,47,184,36,15,21,212,35*7A
$GPGSV,4,3,13,19,19,155,22,20,42,294,34,25,07,274,,29,15,321,*7F
$GPGSV,4,4,13,30,16,106,*48
$GPGLL,2458.22607,N,12111.71902,E,095316.00,A,A*64
$GPRMC,095317.00,A,2458.22616,N,12111.71914,E,0.073,,080621,,,A*72
$GPVTG,,T,,M,0.073,N,0.136,K,A*23
$GPGGA,095317.00,2458.22616,N,12111.71914,E,1,07,1.39,147.0,M,16.4,M,,*5A
$GPGSA,A,3,02,05,13,20,06,15,19,,,,,,3.37,1.39,3.07*07
$GPGSV,4,1,13,02,64,036,29,05,49,298,32,06,39,089,21,07,08,069,*74
$GPGSV,4,2,13,09,02,037,,12,14,241,,13,47,184,34,15,21,212,35*78
$GPGSV,4,3,13,19,19,155,24,20,42,294,34,25,07,274,,29,15,321,*79
$GPGSV,4,4,13,30,16,106,*48
$GPGLL,2458.22616,N,12111.71914,E,095317.00,A,A*62
$GPRMC,095318.00,A,2458.22617,N,12111.71916,E,0.056,,080621,,,A*79
$GPVTG,,T,,M,0.056,N,0.103,K,A*22
$GPGGA,095318.00,2458.22617,N,12111.71916,E,1,07,1.39,147.1,M,16.4,M,,*57
$GPGSA,A,3,02,05,13,20,06,15,19,,,,,,3.37,1.39,3.07*07
$GPGSV,4,1,13,02,64,036,28,05,49,298,31,06,39,089,21,07,08,069,*76
$GPGSV,4,2,13,09,02,037,,12,14,241,,13,47,184,33,15,21,212,32*78
$GPGSV,4,3,13,19,19,155,25,20,42,294,30,25,07,274,,29,15,321,*7C
$GPGSV,4,4,13,30,16,106,*48
$GPGLL,2458.22617,N,12111.71916,E,095318.00,A,A*6E
$GPRMC,095319.00,A,2458.22618,N,12111.71919,E,0.129,,080621,,,A*71
$GPVTG,,T,,M,0.129,N,0.239,K,A*21
$GPGGA,095319.00,2458.22618,N,12111.71919,E,1,07,1.39,147.1,M,16.4,M,,*56
$GPGSA,A,3,02,05,13,20,06,15,19,,,,,,3.37,1.39,3.07*07
$GPGSV,4,1,13,02,64,036,27,05,49,298,32,06,39,089,20,07,08,069,*7B
$GPGSV,4,2,13,09,02,037,,12,14,241,,13,47,184,36,15,21,212,32*7D
$GPGSV,4,3,13,19,19,155,24,20,42,294,34,25,07,274,,29,15,321,*79
$GPGSV,4,4,13,30,16,106,*48
$GPGLL,2458.22618,N,12111.71919,E,095319.00,A,A*6F
$GPRMC,095320.00,A,2458.22620,N,12111.71916,E,0.395,,080621,,,A*7A
$GPVTG,,T,,M,0.395,N,0.731,K,A*29
$GPGGA,095320.00,2458.22620,N,12111.71916,E,1,07,1.39,147.2,M,16.4,M,,*5B
$GPGSA,A,3,02,05,13,20,06,15,19,,,,,,3.37,1.39,3.07*07
$GPGSV,4,1,13,02,64,036,26,05,49,298,30,06,39,089,18,07,08,069,*73
$GPGSV,4,2,13,09,02,037,,12,14,241,,13,47,184,32,15,21,212,31*7A
$GPGSV,4,3,13,19,19,155,22,20,42,294,30,25,07,274,,29,15,321,*7B
$GPGSV,4,4,13,30,16,106,*48
$GPGLL,2458.22620,N,12111.71916,E,095320.00,A,A*61
$GPRMC,095321.00,A,2458.22629,N,12111.71924,E,0.154,,080621,,,A*7C
$GPVTG,,T,,M,0.154,N,0.285,K,A*2C
$GPGGA,095321.00,2458.22629,N,12111.71924,E,1,08,1.39,147.2,M,16.4,M,,*5D
$GPGSA,A,3,02,05,13,20,06,15,19,12,,,,,3.37,1.39,3.07*04
$GPGSV,4,1,13,02,64,036,26,05,49,298,32,06,39,089,17,07,08,069,*7E
$GPGSV,4,2,13,09,02,037,,12,14,241,18,13,47,184,33,15,21,212,31*72
$GPGSV,4,3,13,19,19,155,21,20,42,294,31,25,07,274,,29,15,321,*79
$GPGSV,4,4,13,30,16,106,*48
$GPGLL,2458.22629,N,12111.71924,E,095321.00,A,A*68
$GPRMC,095322.00,A,2458.22642,N,12111.71943,E,0.400,,080621,,,A*77
$GPVTG,,T,,M,0.400,N,0.740,K,A*24
$GPGGA,095322.00,2458.22642,N,12111.71943,E,1,08,1.39,146.9,M,16.4,M,,*58
$GPGSA,A,3,02,05,13,20,06,15,19,12,,,,,3.37,1.39,3.07*04
$GPGSV,4,1,13,02,64,036,26,05,49,298,32,06,39,089,17,07,08,069,*7E
$GPRMC,095324.00,A,2458.22659,N,12111.71967,E,0.543,,080621,,,A*7B
$GPVTG,,T,,M,0.543,N,1.006,K,A*26
$GPGGA,095324.00,2458.22659,N,12111.71967,E,1,08,1.39,146.7,M,16.4,M,,*5C
$GPGSA,A,3,02,05,13,20,06,15,19,12,,,,,3.37,1.39,3.07*04
$GPGSV,4,1,13,02,64,036,27,05,49,298,34,06,39,089,20,07,08,069,*7D
$GPGSV,4,2,13,09,02,037,,12,14,241,13,13,47,184,35,15,21,212,32*7C
$GPGSV,4,3,13,19,19,155,24,20,42,294,34,25,07,274,,29,15,321,*79
$GPRMC,095325.00,A,2458.22665,N,12111.71961,E,0.334,,080621,,,A*75
$GPVTG,,T,,M,0.334,N,0.619,K,A*29
$GPGGA,095325.00,2458.22665,N,12111.71961,E,1,08,1.32,145.4,M,16.4,M,,*5F
$GPGSA,A,3,02,05,13,20,06,15,19,12,,,,,2.89,1.32,2.57*0F
$GPGSV,4,1,13,02,64,036,26,05,49,298,31,06,39,089,19,07,08,069,*73
$GPRMC,095326.00,A,2458.22660,N,12111.71951,E,0.184,,080621,,,A*79
$GPVTG,,T,,M,0.184,N,0.341,K,A*28
$GPGGA,095326.00,2458.22660,N,12111.71951,E,1,07,1.39,145.6,M,16.4,M,,*5C
$GPGSA,A,3,02,05,13,20,06,15,19,,,,,,3.37,1.39,3.07*07
$GPGSV,4,1,13,02,64,036,25,05,49,298,30,06,39,089,19,07,08,069,*71
$GPRMC,095327.00,A,2458.22661,N,12111.71954,E,0.351,,080621,,,A*76
$GPVTG,,T,,M,0.351,N,0.650,K,A*27
$GPGGA,095327.00,2458.22661,N,12111.71954,E,1,07,1.39,145.6,M,16.4,M,,*59
$GPRMC,095328.00,A,2458.22665,N,12111.71966,E,0.694,,080621,,,A*70
$GPVTG,,T,,M,0.694,N,1.285,K,A*26
$GPGGA,095328.00,2458.22665,N,12111.71966,E,1,07,1.39,145.2,M,16.4,M,,*57
$GPGSA,A,3,02,05,13,20,06,15,19,,,,,,3.36,1.39,3.06*07
$GPGSV,4,1,13,02,64,036,25,05,49,298,31,06,39,089,18,07,08,069,*71
$GPRMC,095329.00,A,2458.22660,N,12111.71962,E,0.338,,080621,,,A*73
$GPVTG,,T,,M,0.338,N,0.626,K,A*29
$GPGGA,095329.00,2458.22660,N,12111.71962,E,1,07,1.39,145.0,M,16.4,M,,*55
$GPGSA,A,3,02,05,13,20,06,15,19,,,,,,3.36,1.39,3.06*07
$GPGSV,4,1,13,02,64,036,25,05,49,298,32,06,39,089,20,07,08,069,*79
$GPRMC,095330.00,A,2458.22659,N,12111.71961,E,0.545,,080621,,,A*7E
$GPVTG,,T,,M,0.545,N,1.009,K,A*2F
$GPGGA,095330.00,2458.22659,N,12111.71961,E,1,07,1.39,144.7,M,16.4,M,,*52
$GPGSA,A,3,02,05,13,20,06,15,19,,,,,,3.36,1.39,3.06*07
$GPGSV,4,1,13,02,64,036,25,05,49,298,31,06,39,089,19,07,08,069,*70
$GPGSV,4,2,13,09,02,037,,12,14,241,06,13,47,184,32,15,21,212,27*7B
$GPRMC,095332.00,A,2458.22645,N,12111.71950,E,0.088,,080621,,,A*77
$GPVTG,,T,,M,0.088,N,0.164,K,A*20
$GPGGA,095332.00,2458.22645,N,12111.71950,E,1,07,1.39,144.3,M,16.4,M,,*5B
$GPGSA,A,3,02,05,13,20,06,15,19,,,,,,3.36,1.39,3.06*07
$GPGSV,4,1,13,02,64,036,27,05,49,298,35,06,39,089,22,07,08,069,*7E
$GPGSV,4,2,13,09,02,037,,12,14,241,,13,47,184,33,15,21,212,27*7C
$GPRMC,095333.00,A,2458.22640,N,12111.71947,E,0.302,,080621,,,A*74
$GPVTG,,T,,M,0.302,N,0.558,K,A*2A
$GPGGA,095333.00,2458.22640,N,12111.71947,E,1,07,1.39,143.8,M,16.4,M,,*55
$GPGSA,A,3,02,05,13,20,06,15,19,,,,,,3.36,1.39,3.06*07
$GPGSV,4,1,13,02,64,036,26,05,49,298,32,06,39,089,20,07,08,069,*7A
$GPRMC,095334.00,A,2458.22625,N,12111.71928,E,0.091,,080621,,,A*70
$GPVTG,,T,,M,0.091,N,0.168,K,A*24
$GPGGA,095334.00,2458.22625,N,12111.71928,E,1,07,1.39,143.9,M,16.4,M,,*59
$GPGSA,A,3,02,05,13,20,06,15,19,,,,,,3.36,1.39,3.06*07
$GPGSV,4,1,13,02,64,036,27,05,49,298,35,06,39,089,21,07,08,069,*7D
$GPGSV,4,2,13,09,02,037,,12,14,241,,13,47,184,36,15,21,212,26*78
$GPGSV,4,3,13,19,19,155,25,20,42,294,35,25,07,274,,29,15,321,*79
$GPGSV,4,4,13,30,16,106,*48
$GPRMC,095335.00,A,2458.22614,N,12111.71911,E,0.086,,080621,,,A*7F
$GPRMC,095336.00,A,2458.22603,N,12111.71901,E,0.008,,080621,,,A*7D
$GPVTG,,T,,M,0.008,N,0.016,K,A*2C
$GPGGA,095336.00,2458.22603,N,12111.71901,E,1,07,1.39,143.6,M,16.4,M,,*5B
$GPGSA,A,3,02,05,13,20,06,15,19,,,,,,3.36,1.39,3.06*07
$GPRMC,095337.00,A,2458.22599,N,12111.71896,E,0.214,,080621,,,A*7C
$GPVTG,,T,,M,0.214,N,0.396,K,A*28
$GPRMC,095338.00,A,2458.22590,N,12111.71886,E,0.025,,080621,,,A*7B
$GPVTG,,T,,M,0.025,N,0.047,K,A*27
$GPGGA,095338.00,2458.22590,N,12111.71886,E,1,07,1.39,142.9,M,16.4,M,,*5C
$GPGSA,A,3,02,05,13,20,06,15,19,,,,,,3.36,1.39,3.06*07
$GPGSV,4,1,13,02,64,036,28,05,49,298,35,06,39,089,22,07,08,069,*71
$GPRMC,095339.00,A,2458.22576,N,12111.71868,E,0.261,,080621,,,A*70
$GPVTG,,T,,M,0.261,N,0.484,K,A*2E
$GPGGA,095339.00,2458.22576,N,12111.71868,E,1,07,1.39,142.7,M,16.4,M,,*5B
$GPGSA,A,3,02,05,13,20,06,15,19,,,,,,3.36,1.39,3.06*07
$GPGSV,4,1,13,02,64,036,28,05,49,298,35,06,39,089,23,07,08,069,*70
$GPRMC,095340.00,A,2458.22566,N,12111.71857,E,0.435,,080621,,,A*74
$GPVTG,,T,,M,0.435,N,0.806,K,A*2F
$GPGGA,095340.00,2458.22566,N,12111.71857,E,1,07,1.39,142.4,M,16.4,M,,*5B
$GPGSA,A,3,02,05,13,20,06,15,19,,,,,,3.35,1.39,3.05*07
$GPGSV,4,1,13,02,64,036,27,05,49,298,31,06,39,089,22,07,08,069,*7A
$GPGSV,4,2,13,09,02,037,,12,14,241,,13,47,184,32,15,21,212,25*7F
$GPRMC,095341.00,A,2458.22563,N,12111.71854,E,0.137,,080621,,,A*74
$GPVTG,,T,,M,0.137,N,0.254,K,A*25
$GPRMC,095342.00,A,2458.22552,N,12111.71843,E,0.244,,080621,,,A*74
$GPVTG,,T,,M,0.244,N,0.451,K,A*21
$GPGGA,095342.00,2458.22552,N,12111.71843,E,1,07,1.39,142.0,M,16.4,M,,*5F
$GPGSA,A,3,02,05,13,20,06,15,19,,,,,,3.35,1.39,3.05*07
$GPGSV,4,1,13,02,64,036,27,05,49,298,36,06,39,089,23,07,08,069,*7C
$GPRMC,095344.00,A,2458.22537,N,12111.71818,E,0.356,,080621,,,A*7D
$GPVTG,,T,,M,0.356,N,0.660,K,A*23
$GPGGA,095344.00,2458.22537,N,12111.71818,E,1,07,1.39,141.6,M,16.4,M,,*51
$GPGSA,A,3,02,05,13,20,06,15,19,,,,,,3.35,1.39,3.05*07
$GPGSV,4,1,13,02,64,036,27,05,49,298,32,06,39,089,22,07,08,069,*79
$GPGSV,4,2,13,09,02,037,,12,14,241,,13,47,184,33,15,21,212,27*7C
$GPRMC,095345.00,A,2458.22530,N,12111.71806,E,0.293,,080621,,,A*7C
$GPVTG,,T,,M,0.293,N,0.542,K,A*28
$GPGGA,095345.00,2458.22530,N,12111.71806,E,1,07,1.39,141.5,M,16.4,M,,*5B
$GPGSA,A,3,02,05,13,20,06,15,19,,,,,,3.35,1.39,3.05*07
$GPGSV,4,1,13,02,64,036,27,05,49,298,34,06,39,089,22,07,08,069,*7F
$GPRMC,095346.00,A,2458.22521,N,12111.71787,E,0.476,,080621,,,A*74
$GPVTG,,T,,M,0.476,N,0.881,K,A*27
$GPGGA,095346.00,2458.22521,N,12111.71787,E,1,07,1.39,141.7,M,16.4,M,,*5C
$GPGSA,A,3,02,05,13,20,06,15,19,,,,,,3.35,1.39,3.05*07
$GPRMC,095347.00,A,2458.22521,N,12111.71776,E,0.032,,080621,,,A*7F
$GPVTG,,T,,M,0.032,N,0.058,K,A*2F
$GPGGA,095347.00,2458.22521,N,12111.71776,E,1,07,1.39,141.8,M,16.4,M,,*5C
$GPGSA,A,3,02,05,13,20,06,15,19,,,,,,3.35,1.39,3.05*07
$GPRMC,095348.00,A,2458.22520,N,12111.71773,E,0.183,,080621,,,A*7F
$GPVTG,,T,,M,0.183,N,0.339,K,A*20
$GPRMC,095349.00,A,2458.22507,N,12111.71744,E,0.636,,080621,,,A*76
$GPVTG,,T,,M,0.636,N,1.178,K,A*2F
$GPGGA,095349.00,2458.22507,N,12111.71744,E,1,08,1.39,143.0,M,16.4,M,,*52
$GPGSA,A,3,02,05,13,20,06,15,19,29,,,,,3.35,1.39,3.05*0C
$GPGSV,4,1,13,02,64,036,25,05,49,298,31,06,39,089,21,07,08,069,*7B
$GPGSV,4,2,13,09,02,037,,12,14,241,,13,47,184,33,15,21,212,29*72
$GPRMC,095350.00,A,2458.22513,N,12111.71743,E,0.253,,080621,,,A*7B
$GPVTG,,T,,M,0.253,N,0.469,K,A*2C
$GPGGA,095350.00,2458.22513,N,12111.71743,E,1,08,1.39,143.3,M,16.4,M,,*5B
$GPGSA,A,3,02,05,13,20,06,15,19,29,,,,,3.35,1.39,3.05*0C
$GPGSV,4,1,13,02,64,036,25,05,49,298,32,06,39,089,21,07,08,069,*78
$GPRMC,095351.00,A,2458.22529,N,12111.71753,E,0.013,,080621,,,A*74
$GPVTG,,T,,M,0.013,N,0.024,K,A*27
$GPGGA,095351.00,2458.22529,N,12111.71753,E,1,08,1.39,143.8,M,16.4,M,,*59
$GPGSA,A,3,02,05,13,20,06,15,19,12,,,,,3.35,1.39,3.05*04
$GPRMC,095352.00,A,2458.22550,N,12111.71769,E,0.119,,080621,,,A*7B
$GPVTG,,T,,M,0.119,N,0.220,K,A*2A
$GPGGA,095352.00,2458.22550,N,12111.71769,E,1,09,1.01,144.3,M,16.4,M,,*5B
$GPGSA,A,3,02,05,13,20,06,15,19,12,29,,,,2.01,1.01,1.74*06
$GPRMC,095353.00,A,2458.22556,N,12111.71775,E,0.169,,080621,,,A*76
$GPVTG,,T,,M,0.169,N,0.313,K,A*2C
$GPRMC,095354.00,A,2458.22587,N,12111.71800,E,0.249,,080621,,,A*71
$GPVTG,,T,,M,0.249,N,0.461,K,A*2F
$GPGGA,095354.00,2458.22587,N,12111.71800,E,1,09,1.01,146.2,M,16.4,M,,*54
$GPGSA,A,3,02,05,13,20,06,15,19,12,29,,,,2.01,1.01,1.74*06
$GPGSV,4,1,13,02,64,036,27,05,49,298,37,06,39,089,23,07,08,069,*7D
$GPGSV,4,2,13,09,02,037,,12,14,241,13,13,47,184,39,15,21,212,37*75
$GPGSV,4,3,13,19,19,155,25,20,42,294,37,25,07,274,,29,15,321,11*7B
$GPGSV,4,4,13,30,16,106,*48
$GPGLL,2458.22587,N,12111.71800,E,095354.00,A,A*6A
$GPRMC,095355.00,A,2458.22614,N,12111.71823,E,0.271,,080621,,,A*73
$GPVTG,,T,,M,0.271,N,0.502,K,A*20
$GPGGA,095355.00,2458.22614,N,12111.71823,E,1,09,0.96,147.9,M,16.4,M,,*58
$GPGSA,A,3,02,05,13,20,06,15,19,12,29,,,,1.93,0.96,1.67*03
$GPGSV,4,1,13,02,64,036,28,05,49,298,37,06,39,089,23,07,08,069,*72
$GPGSV,4,2,13,09,02,037,,12,14,241,13,13,47,184,39,15,21,212,36*74
$GPGSV,4,3,13,19,19,155,25,20,42,294,37,25,07,274,,29,15,321,13*79
$GPGSV,4,4,13,30,16,106,*48
$GPGLL,2458.22614,N,12111.71823,E,095355.00,A,A*63
$GPRMC,095356.00,A,2458.22617,N,12111.71821,E,0.586,,080621,,,A*7E
$GPVTG,,T,,M,0.586,N,1.085,K,A*24
$GPGGA,095356.00,2458.22617,N,12111.71821,E,1,09,0.96,149.5,M,16.4,M,,*58
$GPGSA,A,3,02,05,13,20,06,15,19,12,29,,,,1.93,0.96,1.67*03
$GPGSV,4,1,13,02,64,036,28,05,49,298,35,06,39,089,24,07,08,069,*77
$GPGSV,4,2,13,09,02,037,,12,14,241,12,13,47,184,37,15,21,212,35*78
$GPRMC,095400.00,A,2458.22686,N,12111.71912,E,0.391,,080621,,,A*73
$GPVTG,,T,,M,0.391,N,0.724,K,A*29
$GPGGA,095400.00,2458.22686,N,12111.71912,E,1,09,1.39,152.3,M,16.4,M,,*5D
$GPRMC,095401.00,A,2458.22702,N,12111.71943,E,0.203,,080621,,,A*71
$GPVTG,,T,,M,0.203,N,0.375,K,A*23
$GPGGA,095401.00,2458.22702,N,12111.71943,E,1,08,1.39,152.2,M,16.4,M,,*55
$GPGSA,A,3,02,05,13,20,06,15,19,29,,,,,3.34,1.39,3.04*0C
$GPGSV,4,1,13,02,64,037,30,05,49,298,39,06,39,089,25,07,08,069,*72
$GPGSV,4,2,13,09,02,037,,12,14,241,,13,47,184,40,15,21,212,37*79
$GPGSV,4,3,13,19,19,155,26,20,42,294,37,25,07,274,18,29,15,321,17*77
$GPGSV,4,4,13,30,16,106,*48
$GPGLL,2458.22702,N,12111.71943,E,095401.00,A,A*64
$GPRMC,095402.00,A,2458.22699,N,12111.71951,E,0.209,,080621,,,A*78
$GPVTG,,T,,M,0.209,N,0.386,K,A*25
$GPGGA,095402.00,2458.22699,N,12111.71951,E,1,08,1.01,153.6,M,16.4,M,,*58
$GPGSA,A,3,02,05,13,20,06,15,19,29,,,,,2.01,1.01,1.74*05
$GPGSV,4,1,13,02,64,037,31,05,49,298,38,06,39,089,25,07,08,069,*72
$GPGSV,4,2,13,09,02,037,,12,14,241,,13,47,184,40,15,21,212,38*76
$GPGSV,4,3,13,19,19,155,26,20,42,294,37,25,07,274,19,29,15,321,18*79
$GPGSV,4,4,13,30,16,106,*48
$GPGLL,2458.22699,N,12111.71951,E,095402.00,A,A*67
$GPVTG,,T,,M,0.427,N,0.791,K,A*2D
$GPGGA,095403.00,2458.22700,N,12111.71976,E,1,08,1.01,154.1,M,16.4,M,,*5D
$GPGSA,A,3,02,05,13,20,06,15,19,29,,,,,2.01,1.01,1.74*05
$GPGSV,4,1,13,02,64,037,30,05,49,298,38,06,39,089,24,07,08,069,*72
$GPGSV,4,2,13,09,02,037,,12,14,241,16,13,47,184,38,15,21,212,36*70
$GPGSV,4,3,13,19,19,155,25,20,42,294,35,25,07,274,18,29,15,321,17*76
$GPGSV,4,4,13,30,16,106,*48
$GPGLL,2458.22700,N,12111.71976,E,095403.00,A,A*62
$GPRMC,095404.00,A,2458.22700,N,12111.71982,E,0.149,,080621,,,A*76
$GPVTG,,T,,M,0.149,N,0.276,K,A*2C
$GPGGA,095404.00,2458.22700,N,12111.71982,E,1,09,1.01,154.9,M,16.4,M,,*58
$GPGSA,A,3,02,05,13,20,06,15,19,12,29,,,,2.01,1.01,1.74*06
$GPGSV,4,1,13,02,64,037,30,05,49,298,35,06,39,089,23,07,08,069,*78
$GPGSV,4,2,13,09,02,037,,12,14,241,16,13,47,184,38,15,21,212,36*70
$GPGSV,4,3,13,19,19,155,25,20,42,294,35,25,07,274,17,29,15,321,17*79
$GPGSV,4,4,13,30,16,106,*48
$GPGLL,2458.22700,N,12111.71982,E,095404.00,A,A*6E
$GPRMC,095405.00,A,2458.22697,N,12111.71986,E,0.041,,080621,,,A*75
$GPVTG,,T,,M,0.041,N,0.075,K,A*24
$GPGGA,095405.00,2458.22697,N,12111.71986,E,1,09,1.01,155.1,M,16.4,M,,*5B
$GPRMC,095406.00,A,2458.22678,N,12111.71968,E,0.183,,080621,,,A*78
$GPRMC,095407.00,A,2458.22662,N,12111.71950,E,0.035,,080621,,,A*75
$GPVTG,,T,,M,0.035,N,0.065,K,A*26
$GPRMC,095408.00,A,2458.22664,N,12111.71956,E,0.031,,080621,,,A*7E
$GPVTG,,T,,M,0.031,N,0.057,K,A*23
$GPGGA,095408.00,2458.22664,N,12111.71956,E,1,10,1.38,156.8,M,16.4,M,,*5F
$GPGSA,A,3,02,05,13,20,06,15,19,30,12,29,,,3.33,1.38,3.03*0D
$GPRMC,095409.00,A,2458.22671,N,12111.71964,E,0.055,,080621,,,A*78
$GPVTG,,T,,M,0.055,N,0.101,K,A*23
$GPGGA,095409.00,2458.22671,N,12111.71964,E,1,10,1.38,156.5,M,16.4,M,,*56
$GPGSA,A,3,02,05,13,20,06,15,19,30,12,29,,,3.33,1.38,3.03*0D
$GPRMC,095410.00,A,2458.22668,N,12111.71958,E,0.342,,080621,,,A*72
$GPVTG,,T,,M,0.342,N,0.632,K,A*21
$GPGGA,095410.00,2458.22668,N,12111.71958,E,1,10,1.38,156.4,M,16.4,M,,*58
$GPGSA,A,3,02,05,13,20,06,15,19,30,12,29,,,3.33,1.38,3.03*0D
$GPRMC,095412.00,A,2458.22657,N,12111.71933,E,0.169,,080621,,,A*7A
$GPVTG,,T,,M,0.169,N,0.313,K,A*2C
$GPGGA,095412.00,2458.22657,N,12111.71933,E,1,10,1.38,156.5,M,16.4,M,,*5A
$GPRMC,095413.00,A,2458.22642,N,12111.71905,E,0.270,,080621,,,A*71
$GPVTG,,T,,M,0.270,N,0.500,K,A*23
$GPGGA,095413.00,2458.22642,N,12111.71905,E,1,10,1.38,156.6,M,16.4,M,,*59
$GPGSA,A,3,02,05,13,20,06,15,19,30,12,29,,,3.33,1.38,3.03*0D
$GPRMC,095414.00,A,2458.22623,N,12111.71868,E,0.560,,080621,,,A*7D
$GPVTG,,T,,M,0.560,N,1.037,K,A*25
$GPGGA,095414.00,2458.22623,N,12111.71868,E,1,10,1.38,157.0,M,16.4,M,,*54
$GPGSA,A,3,02,05,13,20,06,15,19,30,12,29,,,3.33,1.38,3.03*0D
$GPGSV,4,1,13,02,64,037,34,05,49,298,37,06,39,089,21,07,08,069,*7C
$GPRMC,095415.00,A,2458.22619,N,12111.71858,E,0.111,,080621,,,A*74
$GPVTG,,T,,M,0.111,N,0.205,K,A*25
$GPGGA,095415.00,2458.22619,N,12111.71858,E,1,10,1.38,156.6,M,16.4,M,,*58
$GPGSA,A,3,02,05,13,20,06,15,19,30,12,29,,,3.33,1.38,3.03*0D
$GPGSV,4,1,13,02,64,037,32,05,49,298,35,06,39,089,21,07,08,069,*78
$GPRMC,095417.00,A,2458.22585,N,12111.71797,E,0.149,,080621,,,A*71
$GPVTG,,T,,M,0.149,N,0.275,K,A*2F
$GPGGA,095417.00,2458.22585,N,12111.71797,E,1,10,1.38,156.4,M,16.4,M,,*52
$GPRMC,095418.00,A,2458.22573,N,12111.71780,E,0.105,,080621,,,A*79
$GPVTG,,T,,M,0.105,N,0.194,K,A*2B
$GPGGA,095418.00,2458.22573,N,12111.71780,E,1,10,1.38,156.2,M,16.4,M,,*54
$GPGSA,A,3,02,05,13,20,06,15,19,30,12,29,,,3.33,1.38,3.02*0C
$GPRMC,095419.00,A,2458.22553,N,12111.71743,E,0.071,,080621,,,A*77
$GPVTG,,T,,M,0.071,N,0.132,K,A*25
$GPGGA,095419.00,2458.22553,N,12111.71743,E,1,10,1.38,156.0,M,16.4,M,,*5A
$GPGSA,A,3,02,05,13,20,06,15,19,30,12,29,,,3.32,1.38,3.02*0D
$GPRMC,095420.00,A,2458.22550,N,12111.71739,E,0.136,,080621,,,A*71
$GPVTG,,T,,M,0.136,N,0.251,K,A*21
$GPGGA,095420.00,2458.22550,N,12111.71739,E,1,09,1.38,155.7,M,16.4,M,,*52
$GPGSA,A,3,02,05,13,20,06,15,19,30,29,,,,3.32,1.38,3.02*0E
$GPRMC,095421.00,A,2458.22545,N,12111.71732,E,0.164,,080621,,,A*78
$GPVTG,,T,,M,0.164,N,0.304,K,A*27
$GPGGA,095421.00,2458.22545,N,12111.71732,E,1,09,1.38,155.5,M,16.4,M,,*5E
$GPRMC,095422.00,A,2458.22538,N,12111.71722,E,0.361,,080621,,,A*77
$GPVTG,,T,,M,0.361,N,0.668,K,A*2F
$GPGGA,095422.00,2458.22538,N,12111.71722,E,1,10,1.38,155.3,M,16.4,M,,*58
$GPGSA,A,3,02,05,13,20,06,15,19,30,12,29,,,3.32,1.38,3.02*0D
$GPRMC,095423.00,A,2458.22535,N,12111.71715,E,0.094,,080621,,,A*76
$GPVTG,,T,,M,0.094,N,0.174,K,A*2C
$GPRMC,095424.00,A,2458.22535,N,12111.71716,E,0.155,,080621,,,A*7E
$GPVTG,,T,,M,0.155,N,0.287,K,A*2F
$GPGGA,095424.00,2458.22535,N,12111.71716,E,1,10,1.38,154.3,M,16.4,M,,*55
$GPGSA,A,3,02,05,13,20,06,15,19,30,12,29,,,3.32,1.38,3.02*0D
$GPRMC,095426.00,A,2458.22534,N,12111.71710,E,0.225,,080621,,,A*7F
$GPVTG,,T,,M,0.225,N,0.417,K,A*24
$GPGGA,095426.00,2458.22534,N,12111.71710,E,1,10,1.38,153.4,M,16.4,M,,*50
$GPGSA,A,3,02,05,13,20,06,15,19,30,12,29,,,3.32,1.38,3.02*0D
$GPGSV,4,1,14,02,64,037,30,05,49,298,31,06,39,089,22,07,08,069,*7A
$GPRMC,095427.00,A,2458.22525,N,12111.71689,E,0.788,,080621,,,A*7D
$GPVTG,,T,,M,0.788,N,1.459,K,A*2D
$GPGGA,095427.00,2458.22525,N,12111.71689,E,1,10,1.38,153.1,M,16.4,M,,*55
$GPGSA,A,3,02,05,13,20,06,15,19,30,12,29,,,3.32,1.38,3.02*0D
$GPGSV,4,1,14,02,64,037,33,05,49,298,34,06,39,089,20,07,08,069,*7E
$GPGSV,4,2,14,09,02,037,,12,14,240,14,13,47,184,39,15,21,212,33*70
$GPRMC,095428.00,A,2458.22525,N,12111.71684,E,0.340,,080621,,,A*7F
$GPVTG,,T,,M,0.340,N,0.630,K,A*21
$GPRMC,095429.00,A,2458.22529,N,12111.71680,E,0.111,,080621,,,A*70
$GPVTG,,T,,M,0.111,N,0.205,K,A*25
$GPRMC,095431.00,A,2458.22536,N,12111.71677,E,0.460,,080621,,,A*7C
$GPVTG,,T,,M,0.460,N,0.852,K,A*2E
$GPGGA,095431.00,2458.22536,N,12111.71677,E,1,10,1.38,150.2,M,16.4,M,,*51
$GPGSA,A,3,02,05,13,20,06,15,19,30,12,29,,,3.32,1.38,3.01*0E
$GPGSV,4,1,14,02,64,037,33,05,49,298,37,06,39,089,22,07,08,069,*7F
$GPGSV,4,2,14,09,02,037,,12,14,240,16,13,47,184,41,15,21,212,33*7D
$GPGSV,4,3,14,19,18,155,27,20,42,295,39,25,07,273,17,29,16,321,22*72
$GPRMC,095432.00,A,2458.22550,N,12111.71693,E,0.014,,080621,,,A*72
$GPVTG,,T,,M,0.014,N,0.026,K,A*22
$GPGGA,095432.00,2458.22550,N,12111.71693,E,1,10,1.38,148.9,M,16.4,M,,*5A
$GPGSA,A,3,02,05,13,20,06,15,19,30,12,29,,,3.31,1.38,3.01*0D
$GPGSV,4,1,14,02,64,037,33,05,49,298,35,06,39,089,23,07,08,069,*7C
$GPGSV,4,2,14,09,02,037,,12,14,240,18,13,47,184,39,15,21,212,33*7C
$GPRMC,095433.00,A,2458.22562,N,12111.71706,E,0.066,,080621,,,A*7A
$GPVTG,,T,,M,0.066,N,0.122,K,A*22
$GPGGA,095433.00,2458.22562,N,12111.71706,E,1,10,1.38,147.8,M,16.4,M,,*59
$GPGSA,A,3,02,05,13,20,06,15,19,30,12,29,,,3.31,1.38,3.01*0D
$GPGSV,4,1,13,02,64,037,33,05,49,298,37,06,39,089,23,07,08,069,*79
$GPRMC,095434.00,A,2458.22574,N,12111.71721,E,0.032,,080621,,,A*7E
$GPVTG,,T,,M,0.032,N,0.060,K,A*24
$GPGGA,095434.00,2458.22574,N,12111.71721,E,1,10,1.38,146.9,M,16.4,M,,*5C
$GPRMC,095436.00,A,2458.22590,N,12111.71744,E,0.375,,080621,,,A*75
$GPVTG,,T,,M,0.375,N,0.695,K,A*28
$GPGGA,095436.00,2458.22590,N,12111.71744,E,1,10,1.38,145.3,M,16.4,M,,*5E
$GPGSA,A,3,02,05,13,20,06,15,19,30,12,29,,,3.31,1.38,3.01*0D
$GPGSV,4,1,13,02,64,037,26,05,49,298,29,06,39,089,21,07,08,069,*70
$GPGSV,4,2,13,09,02,037,,12,14,240,18,13,47,184,33,15,21,212,27*74
$GPGSV,4,3,13,19,18,155,26,20,42,295,28,25,07,273,19,29,16,321,23*7B
$GPGSV,4,4,13,30,16,105,14*4E
$GPRMC,095437.00,A,2458.22601,N,12111.71751,E,0.108,,080621,,,A*73
$GPVTG,,T,,M,0.108,N,0.199,K,A*2B
$GPGGA,095437.00,2458.22601,N,12111.71751,E,1,09,1.38,144.5,M,16.4,M,,*5F
$GPGSA,A,3,02,05,13,20,06,15,19,12,29,,,,3.31,1.38,3.01*0E
$GPGSV,4,1,14,02,64,037,31,05,49,298,36,06,39,089,20,07,08,069,*7E
$GPGSV,4,2,14,09,02,037,,12,14,240,17,13,47,184,39,15,21,212,32*72
$GPGSV,4,3,14,19,18,155,25,20,42,295,37,25,07,273,16,29,16,321,23*7E
$GPRMC,095438.00,A,2458.22616,N,12111.71769,E,0.196,,080621,,,A*76
$GPVTG,,T,,M,0.196,N,0.362,K,A*2A
$GPGGA,095438.00,2458.22616,N,12111.71769,E,1,09,1.38,143.6,M,16.4,M,,*59
$GPGSA,A,3,02,05,13,20,06,15,19,12,29,,,,3.31,1.38,3.01*0E
$GPGSV,4,1,14,02,64,037,31,05,49,298,36,06,39,089,20,07,08,069,*7E
$GPRMC,095439.00,A,2458.22630,N,12111.71787,E,0.113,,080621,,,A*7E
$GPRMC,095441.00,A,2458.22642,N,12111.71807,E,0.070,,080621,,,A*77
$GPVTG,,T,,M,0.070,N,0.131,K,A*27
$GPGGA,095441.00,2458.22642,N,12111.71807,E,1,09,1.38,141.5,M,16.4,M,,*50
$GPGSA,A,3,02,05,13,20,06,15,19,12,29,,,,3.31,1.38,3.01*0E
$GPGSV,4,1,13,02,64,037,31,05,49,298,36,06,39,089,23,07,08,069,*7A
$GPRMC,095442.00,A,2458.22645,N,12111.71812,E,0.078,,080621,,,A*7F
$GPVTG,,T,,M,0.078,N,0.144,K,A*2D
$GPGGA,095442.00,2458.22645,N,12111.71812,E,1,09,1.38,140.9,M,16.4,M,,*5D
$GPGSA,A,3,02,05,13,20,06,15,19,12,29,,,,3.31,1.38,3.01*0E
$GPGSV,4,1,13,02,64,037,33,05,49,298,36,06,39,089,24,07,08,069,*7F
$GPRMC,095443.00,A,2458.22650,N,12111.71823,E,0.096,,080621,,,A*78
$GPVTG,,T,,M,0.096,N,0.177,K,A*2D
$GPGGA,095443.00,2458.22650,N,12111.71823,E,1,09,1.38,140.4,M,16.4,M,,*57
$GPGSA,A,3,02,05,13,20,06,15,19,12,29,,,,3.31,1.38,3.00*0F
$GPGSV,4,1,13,02,64,037,28,05,49,298,31,06,39,089,24,07,08,069,*72
$GPGSV,4,2,13,09,02,037,,12,14,240,24,13,47,184,34,15,21,212,29*72
$GPRMC,095444.00,A,2458.22657,N,12111.71837,E,0.322,,080621,,,A*71
$GPVTG,,T,,M,0.322,N,0.597,K,A*2B
$GPGGA,095444.00,2458.22657,N,12111.71837,E,1,09,1.38,140.2,M,16.4,M,,*54
$GPGSA,A,3,02,05,13,20,06,15,19,12,29,,,,3.31,1.38,3.00*0F
$GPGSV,4,1,13,02,64,037,27,05,49,298,30,06,39,089,22,07,08,069,*7A
$GPRMC,095445.00,A,2458.22643,N,12111.71828,E,0.091,,080621,,,A*70
$GPVTG,,T,,M,0.091,N,0.169,K,A*25
$GPRMC,095446.00,A,2458.22628,N,12111.71814,E,0.123,,080621,,,A*79
$GPRMC,095448.00,A,2458.22612,N,12111.71806,E,0.127,,080621,,,A*79
$GPVTG,,T,,M,0.127,N,0.235,K,A*23
$GPGGA,095448.00,2458.22612,N,12111.71806,E,1,09,0.96,143.5,M,16.4,M,,*5A
$GPGSA,A,3,02,05,13,20,06,15,19,12,29,,,,1.93,0.96,1.67*03
$GPGSV,4,1,13,02,64,037,30,05,49,298,32,06,39,089,18,07,08,069,07*70
$GPRMC,095449.00,A,2458.22602,N,12111.71812,E,0.555,,080621,,,A*7D
$GPVTG,,T,,M,0.555,N,1.028,K,A*2D
$GPGGA,095449.00,2458.22602,N,12111.71812,E,1,09,0.96,144.7,M,16.4,M,,*5A
$GPGSA,A,3,02,05,13,20,06,15,19,12,29,,,,1.93,0.96,1.67*03
$GPGSV,4,1,13,02,64,037,29,05,49,298,31,06,39,089,16,07,08,069,*72
$GPGSV,4,2,13,09,02,037,,12,14,240,20,13,47,184,33,15,21,212,31*78
$GPGSV,4,3,13,19,18,155,24,20,42,295,31,25,07,273,15,29,16,321,22*7C
$GPRMC,095450.00,A,2458.22607,N,12111.71830,E,0.285,,080621,,,A*7A
$GPVTG,,T,,M,0.285,N,0.527,K,A*2C
$GPGGA,095450.00,2458.22607,N,12111.71830,E,1,09,1.31,144.7,M,16.4,M,,*5B
$GPGSA,A,3,02,05,13,20,06,15,19,12,29,,,,2.84,1.31,2.51*0C
$GPGSV,4,1,13,02,64,037,31,05,49,298,35,06,39,089,17,07,08,069,*7E
$GPRMC,095451.00,A,2458.22602,N,12111.71822,E,0.122,,080621,,,A*73
$GPVTG,,T,,M,0.122,N,0.225,K,A*27
$GPGGA,095451.00,2458.22602,N,12111.71822,E,1,10,1.38,144.4,M,16.4,M,,*5E
$GPRMC,095452.00,A,2458.22607,N,12111.71833,E,0.205,,080621,,,A*73
$GPVTG,,T,,M,0.205,N,0.379,K,A*29
$GPRMC,095453.00,A,2458.22609,N,12111.71839,E,0.027,,080621,,,A*74
$GPVTG,,T,,M,0.027,N,0.049,K,A*2B
$GPGGA,095453.00,2458.22609,N,12111.71839,E,1,11,1.38,143.8,M,16.4,M,,*57
$GPRMC,095454.00,A,2458.22606,N,12111.71838,E,0.019,,080621,,,A*70
$GPVTG,,T,,M,0.019,N,0.036,K,A*2E
$GPGGA,095454.00,2458.22606,N,12111.71838,E,1,11,1.38,143.9,M,16.4,M,,*5F
$GPGSA,A,3,02,05,13,20,06,15,19,30,12,29,07,,3.30,1.38,3.00*0A
$GPGSV,4,1,13,02,64,037,34,05,49,298,37,06,39,089,19,07,08,069,17*71
$GPGSV,4,2,13,09,02,037,,12,14,240,19,13,47,184,41,15,21,212,39*7F
$GPGSV,4,3,13,19,18,155,31,20,42,295,40,25,07,273,20,29,16,321,25*7F
$GPRMC,095455.00,A,2458.22612,N,12111.71852,E,0.200,,080621,,,A*72
$GPVTG,,T,,M,0.200,N,0.371,K,A*24
$GPGGA,095455.00,2458.22612,N,12111.71852,E,1,10,1.38,143.4,M,16.4,M,,*5B
$GPGSA,A,3,02,05,13,20,06,15,19,30,12,29,,,3.30,1.38,2.99*0C
$GPGSV,4,1,13,02,64,037,31,05,49,298,34,06,39,089,20,07,08,069,16*7C
$GPGSV,4,2,13,09,02,037,,12,14,240,18,13,47,184,36,15,21,212,34*73
$GPRMC,095456.00,A,2458.22604,N,12111.71841,E,0.243,,080621,,,A*73
$GPVTG,,T,,M,0.243,N,0.451,K,A*26
$GPGGA,095456.00,2458.22604,N,12111.71841,E,1,11,1.38,143.5,M,16.4,M,,*5D
$GPGSA,A,3,02,05,13,20,06,15,19,30,12,29,07,,3.30,1.38,2.99*0B
$GPGSV,4,1,13,02,64,037,35,05,49,298,36,06,39,089,20,07,08,069,16*7A
$GPGSV,4,2,13,09,02,037,,12,14,240,18,13,47,184,40,15,21,212,38*7E
$GPRMC,095457.00,A,2458.22609,N,12111.71851,E,0.153,,080621,,,A*7C
$GPVTG,,T,,M,0.153,N,0.284,K,A*2A
$GPGGA,095457.00,2458.22609,N,12111.71851,E,1,11,1.38,143.2,M,16.4,M,,*57
$GPRMC,095509.00,A,2458.22676,N,12111.71921,E,0.102,,080621,,,A*7C
$GPVTG,,T,,M,0.102,N,0.189,K,A*20
$GPGGA,095509.00,2458.22676,N,12111.71921,E,1,10,1.38,140.5,M,16.4,M,,*56
$GPGSA,A,3,02,05,13,20,06,15,19,30,12,29,,,3.29,1.38,2.98*05
$GPGSV,4,1,13,02,64,037,31,05,49,298,37,06,39,089,21,07,08,069,*79
$GPGSV,4,2,13,09,02,037,,12,14,240,12,13,47,184,38,15,21,212,35*76
$GPGSV,4,3,13,19,18,155,29,20,42,295,38,25,07,273,20,29,16,321,21*7D
$GPGSV,4,4,13,30,16,105,14*4E
$GPGLL,2458.22676,N,12111.71921,E,095509.00,A,A*6B
$GPRMC,095510.00,A,2458.22677,N,12111.71920,E,0.064,,080621,,,A*75
$GPVTG,,T,,M,0.064,N,0.119,K,A*28
$GPGGA,095510.00,2458.22677,N,12111.71920,E,1,10,1.38,140.3,M,16.4,M,,*58
$GPGSA,A,3,02,05,13,20,06,15,19,30,12,29,,,3.29,1.38,2.98*05
$GPGSV,4,1,13,02,64,038,31,05,49,298,34,06,39,089,20,07,08,069,*74
$GPGSV,4,2,13,09,02,037,,12,14,240,12,13,47,184,36,15,21,212,33*7E
$GPGSV,4,3,13,19,18,155,29,20,42,295,36,25,07,273,20,29,16,321,20*72
$GPGSV,4,4,13,30,16,105,14*4E
$GPGLL,2458.22677,N,12111.71920,E,095510.00,A,A*63
$GPRMC,095511.00,A,2458.22682,N,12111.71915,E,0.036,,080621,,,A*7F
$GPVTG,,T,,M,0.00.067,K,A*27
$GPGGA,095511.00,2458.22682,N,12111.71915,E,1,10,1.38,140.0,M,16.4,M,,*56
$GPGSA,A,3,02,05,13,20,06,15,19,30,12,29,,,3.28,1.38,2.98*04
$GPGSV,4,1,13,02,64,038,33,05,49,298,38,06,39,089,22,07,08,069,*78
$GPGSV,4,2,13,09,02,037,,12,14,240,12,13,47,184,40,15,21,212,37*7B
$GPGSV,4,3,13,19,18,155,30,20,42,295,40,25,07,273,20,29,16,321,21*7A
$GPGSV,4,4,13,30,16,105,14*4E
$GPGLL,2458.22682,N,12111.71915,E,095511.00,A,A*6E
$GPRMC,095512.00,A,2458.22689,N,12111.71919,E,0.115,,080621,,,A*7B
$GPVTG,,T,,M,0.115,N,0.213,K,A*26
$GPGGA,095512.00,2458.22689,N,12111.71919,E,1,10,1.38,139.7,M,16.4,M,,*5B
$GPGSA,A,3,02,05,13,20,06,15,19,30,12,29,,,3.28,1.38,2.98*04
$GPGSV,4,1,13,02,64,038,28,05,49,298,35,06,39,089,22,07,08,069,*7F
$GPGSV,4,2,13,09,02,037,,12,14,240,11,13,47,184,37,15,21,212,34*7B
$GPGSV,4,3,13,19,18,155,29,20,42,295,37,25,07,273,19,29,16,321,19*73
$GPGSV,4,4,13,30,16,105,14*4E
$GPGLL,2458.22689,N,12111.71919,E,095512.00,A,A*6A
$GPRMC,095513.00,A,2458.22697,N,12111.71926,E,0.063,,080621,,,A*79
$GPVTG,,T,,M,0.063,N,0.117,K,A*21
$GPGGA,095513.00,2458.22697,N,12111.71926,E,1,10,1.38,139.2,M,16.4,M,,*5C
$GPGSA,A,3,02,05,13,20,06,15,19,30,12,29,,,3.28,1.38,2.98*04
$GPRMC,095514.00,A,2458.22699,N,12111.71927,E,0.193,,080621,,,A*7F
$GPVTG,,T,,M,0.193,N,0.358,K,A*26
$GPGGA,095514.00,2458.22699,N,12111.71927,E,1,10,1.38,138.9,M,16.4,M,,*5E
$GPGSA,A,3,02,05,13,20,06,15,19,30,12,29,,,3.28,1.38,2.98*04
$GPGSV,4,1,13,02,64,038,27,05,49,299,31,06,39,090,19,07,08,069,08*7D
$GPGSV,4,2,13,09,02,037,,12,14,240,10,13,47,184,33,15,21,212,30*7A
$GPGSV,4,3,13,19,18,155,27,20,42,295,32,25,07,273,16,29,16,321,17*79
$GPGSV,4,4,13,30,16,105,10*4A
$GPRMC,095517.88,V,,,,,,,080621,,,N*7F
$GPVTG,,,,,,,,,N*30
$GPGGA,095517.88,,,,,0,00,99.99,,,,,,*69
$GPGSA,A,1,,,,,,,,,,,,,99.99,99.99,99.99*30
$GPGSV,4,1,13,02,64,038,,05,49,299,,06,39,090,,07,08,068,*7B
$GPGSV,4,2,13,09,01,037,,12,14,240,,13,48,184,,15,22,213,*76
$GPGSV,4,3,13,19,18,155,,20,43,295,,25,07,273,,29,16,321,*7D
$GPGSV,4,4,13,30,16,105,*4B
$GPGLL,,,,,095517.88,V,N*45
$GPRMC,095518.50,V,,,,,,,080621,,,N*75
$GPVTG,,,,,,,,,N*30
$GPGGA,095518.50,,,,,0,05,14.87,,,,,,*6C
$GPGSA,A,1,02,05,20,15,19,,,,,,,,14.91,14.87,1.00*0F
$GPGSV,4,1,13,02,64,038,29,05,49,299,34,06,39,090,,07,08,068,*77
$GPGSV,4,2,13,09,01,037,,12,14,240,,13,48,184,,15,22,213,31*74
$GPGSV,4,3,13,19,18,155,26,20,43,295,37,25,07,273,,29,16,321,*7D
$GPGSV,4,4,13,30,16,105,*4B
$GPGLL,,,,,095518.50,V,N*4F
$GPRMC,095519.00,A,2458.22032,N,12111.71466,E,0.029,,080621,,,A*7D
$GPVTG,,T,,M,0.029,N,0.053,K,A*2E
$GPGGA,095519.00,2458.22032,N,12111.71466,E,1,06,1.39,143.2,M,16.4,M,,*5D
$GPGSA,A,2,02,05,20,06,15,19,,,,,,,1.71,1.39,0.99*00
$GPGSV,4,1,13,02,64,038,30,05,49,299,38,06,39,090,26,07,08,068,*77
$GPGSV,4,2,13,09,01,037,,12,14,240,,13,48,184,,15,22,213,37*72
$GPGSV,4,3,13,19,18,155,28,20,43,295,39,25,07,273,,29,16,321,*7D
$GPGSV,4,4,13,30,16,105,*4B
$GPGLL,2458.22032,N,12111.71466,E,095519.00,A,A*62
$GPRMC,095520.00,V,,,,,,,080621,,,N*7B
$GPVTG,,,,,,,,,N*30
$GPGGA,095520.00,,,,,0,07,2.91,,,,,,*50
$GPGSA,A,1,02,05,20,06,15,19,12,,,,,,7.47,2.91,6.88*04
$GPGSV,4,1,13,02,64,038,31,05,49,299,36,06,39,090,25,07,08,068,*7B
$GPGSV,4,2,13,09,01,037,,12,14,240,19,13,48,184,,15,22,213,34*79
$GPGSV,4,3,13,19,18,155,28,20,43,295,38,25,07,273,20,29,16,321,*7E
$GPGSV,4,4,13,30,16,105,*4B
$GPGLL,,,,,095520.00,V,N*41
$GPRMC,095521.00,A,2458.22972,N,12111.72090,E,2.244,27.00,080621,,,A*55
$GPVTG,27.00,T,,M,2.244,N,4.155,K,A*0D
$GPGGA,095521.00,2458.22972,N,12111.72090,E,1,09,1.38,115.4,M,16.4,M,,*5E
$GPGSA,A,3,02,05,13,20,06,15,19,29,12,,,,3.28,1.38,2.97*08
$GPGSV,4,1,13,02,64,038,31,05,49,299,34,06,39,090,24,07,08,068,*78
$GPGSV,4,2,13,09,01,037,,12,14,240,20,13,48,184,37,15,22,213,32*71
$GPGSV,4,3,13,19,18,155,30,20,43,295,34,25,07,273,20,29,16,321,17*7D
$GPGSV,4,4,13,30,16,105,*4B
$GPGLL,2458.22972,N,12111.72090,E,095521.00,A,A*6A
$GPRMC,095522.00,A,2458.22787,N,12111.72078,E,1.430,42.09,080621,,,A*58
$GPVTG,42.09,T,,M,1.430,N,2.649,K,A*0D
$GPGGA,095522.00,2458.22787,N,12111.72078,E,1,08,1.38,123.3,M,16.4,M,,*5C
$GPGSA,A,3,02,05,13,20,06,15,19,12,,,,,3.28,1.38,2.97*03
$GPGSV,4,1,13,02,64,038,32,05,49,299,36,06,39,090,24,07,08,068,*79
$GPGSV,4,2,13,09,01,037,,12,14,240,20,13,48,184,39,15,22,213,35*78
$GPGSV,4,3,13,19,18,155,30,20,43,295,38,25,07,273,21,29,16,321,18*7F
$GPGSV,4,4,13,30,16,105,*4B
$GPGLL,2458.22787,N,12111.72078,E,095522.00,A,A*6B
$GPRMC,095523.00,A,2458.22793,N,12111.72110,E,1.572,49.21,080621,,,A*55
$GPVTG,49.21,T,,M,1.572,N,2.911,K,A*09
$GPGGA,095523.00,2458.22793,N,12111.72110,E,1,09,1.31,123.4,M,16.4,M,,*58
$GPGSA,A,3,02,05,13,20,06,15,19,29,12,,,,2.82,1.31,2.49*03
$GPGSV,4,1,13,02,64,038,27,05,49,299,30,06,39,090,22,07,08,068,*7D
$GPGSV,4,2,13,09,01,037,,12,14,240,19,13,48,184,33,15,22,213,31*7C
$GPGSV,4,3,13,19,18,155,24,20,43,295,33,25,07,273,19,29,16,321,16*74
$GPGSV,4,4,13,30,16,105,*4B
$GPGLL,2458.22793,N,12111.72110,E,095523.00,A,A*60
$GPRMC,095524.00,A,2458.22825,N,12111.72153,E,1.327,,080621,,,A*71
$GPVTG,,T,,M,1.327,N,2.457,K,A*20
$GPGGA,095524.00,2458.22825,N,12111.72153,E,1,10,1.31,123.0,M,16.4,M,,*56
$GPGSA,A,3,02,05,13,20,06,15,19,29,30,12,,,2.82,1.31,2.49*00
$GPGSV,4,1,13,02,64,038,26,05,49,299,33,06,39,090,21,07,08,068,*7C
$GPGSV,4,2,13,09,01,037,,12,14,240,17,13,48,184,31,15,22,213,26*76
$GPGSV,4,3,13,19,18,155,25,20,43,295,32,25,07,273,19,29,16,321,15*77
$GPGSV,4,4,13,30,16,105,16*4C
$GPGLL,2458.22825,N,12111.72153,E,095524.00,A,A*62
$GPRMC,095525.00,A,2458.22751,N,12111.72129,E,0.733,,080621,,,A*71
$GPVTG,,T,,M,0.733,N,1.357,K,A*24
$GPGGA,095525.00,2458.22751,N,12111.72129,E,1,10,0.96,124.8,M,16.4,M,,*55
$GPGSA,A,3,02,05,13,20,06,15,19,29,30,12,,,1.93,0.96,1.67*00
$GPGSV,4,1,13,02,64,038,31,05,49,299,36,06,39,090,22,07,08,068,*7C
$GPGSV,4,2,13,09,01,037,,12,14,240,18,13,48,184,38,15,22,213,34*73
$GPGSV,4,3,13,19,18,155,27,20,43,295,37,25,07,273,19,29,16,321,14*71
$GPRMC,095526.00,A,2458.22741,N,12111.72076,E,0.099,,080621,,,A*7F
$GPVTG,,T,,M,0.099,N,0.183,K,A*29
$GPRMC,095527.00,A,2458.22698,N,12111.72037,E,0.206,,080621,,,A*7A
$GPVTG,,T,,M,0.206,N,0.381,K,A*2D
$GPGGA,095527.00,2458.22698,N,12111.72037,E,1,10,0.96,130.0,M,16.4,M,,*50
$GPGSA,A,3,02,05,13,20,06,15,19,29,30,12,,,1.93,0.96,1.67*00
$GPRMC,095528.00,A,2458.22635,N,12111.71956,E,0.120,,080621,,,A*78
$GPVTG,,T,,M,0.120,N,0.222,K,A*22
$GPGGA,095528.00,2458.22635,N,12111.71956,E,1,10,0.84,134.3,M,16.4,M,,*51
$GPGSA,A,3,02,05,13,20,06,15,19,29,30,12,,,1.68,0.84,1.45*07
$GPGSV,4,1,13,02,64,038,28,05,49,299,32,06,39,090,23,07,08,068,*71
$GPGSV,4,2,13,09,01,037,,12,14,240,18,13,48,184,34,15,22,213,30*7B
$GPRMC,095529.00,A,2458.22580,N,12111.71858,E,0.802,335.70,080621,,,A*6E
$GPVTG,335.70,T,,M,0.802,N,1.486,K,A*3E
$GPGGA,095529.00,2458.22580,N,12111.71858,E,1,10,0.84,137.1,M,16.4,M,,*53
$GPGSA,A,3,02,05,13,20,06,15,19,29,30,12,,,1.68,0.84,1.45*07
$GPGSV,4,1,13,02,64,038,33,05,49,299,38,06,39,090,24,07,08,068,*76
$GPRMC,095530.00,A,2458.22542,N,12111.71808,E,0.196,,080621,,,A*75
$GPVTG,,T,,M,0.196,N,0.362,K,A*2A
$GPGGA,095530.00,2458.22542,N,12111.71808,E,1,10,0.84,139.4,M,16.4,M,,*5B
$GPGSA,A,3,02,05,13,20,06,15,19,29,30,12,,,1.68,0.84,1.45*07
$GPRMC,095531.00,A,2458.22534,N,12111.71804,E,0.090,,080621,,,A*7E
$GPVTG,,T,,M,0.090,N,0.167,K,A*2A
$GPGGA,095531.00,2458.22534,N,12111.71804,E,1,10,0.96,139.9,M,16.4,M,,*59
$GPRMC,095532.00,A,2458.22517,N,12111.71790,E,0.089,,080621,,,A*76
$GPVTG,,T,,M,0.089,N,0.165,K,A*20
$GPGGA,095532.00,2458.22517,N,12111.71790,E,1,10,0.84,141.3,M,16.4,M,,*5F
$GPRMC,095534.00,A,2458.22497,N,12111.71775,E,0.015,,080621,,,A*77
$GPVTG,,T,,M,0.015,N,0.028,K,A*2D
$GPGGA,095534.00,2458.22497,N,12111.71775,E,1,10,0.84,142.9,M,16.4,M,,*52
$GPGSA,A,3,02,05,13,20,06,15,19,29,30,12,,,1.68,0.84,1.45*07
$GPRMC,095535.00,A,2458.22497,N,12111.71791,E,0.470,,080621,,,A*7B
$GPVTG,,T,,M,0.470,N,0.870,K,A*2F
$GPGGA,095535.00,2458.22497,N,12111.71791,E,1,10,0.84,143.3,M,16.4,M,,*52
$GPGSA,A,3,02,05,13,20,06,15,19,29,30,12,,,1.68,0.84,1.45*07
$GPRMC,095536.00,A,2458.22488,N,12111.71788,E,0.033,,080621,,,A*7D
$GPVTG,,T,,M,0.033,N,0.060,K,A*25
$GPGGA,095536.00,2458.22488,N,12111.71788,E,1,10,0.84,144.4,M,16.4,M,,*57
$GPGSA,A,3,02,05,13,20,06,15,19,29,30,12,,,1.68,0.84,1.45*07
$GPRMC,095537.00,A,2458.22493,N,12111.71802,E,0.329,,080621,,,A*73
$GPVTG,,T,,M,0.329,N,0.609,K,A*24
$GPGGA,095537.00,2458.22493,N,12111.71802,E,1,10,0.84,144.4,M,16.4,M,,*51
$GPRMC,095538.00,A,2458.22491,N,12111.71810,E,0.213,,080621,,,A*75
$GPVTG,,T,,M,0.213,N,0.395,K,A*2C
$GPGGA,095538.00,2458.22491,N,12111.71810,E,1,10,0.84,145.0,M,16.4,M,,*5A
$GPRMC,095539.00,A,2458.22483,N,12111.71805,E,0.040,,080621,,,A*77
$GPVTG,,T,,M,0.040,N,0.073,K,A*23
$GPRMC,095540.00,A,2458.22476,N,12111.71807,E,0.288,,080621,,,A*77
$GPVTG,,T,,M,0.288,N,0.534,K,A*23
$GPGGA,095540.00,2458.22476,N,12111.71807,E,1,10,0.84,145.9,M,16.4,M,,*53
$GPGSA,A,3,02,05,13,20,06,15,19,29,30,12,,,1.68,0.84,1.45*07
$GPGSV,4,1,13,02,64,038,27,05,49,299,34,06,39,090,20,07,08,068,*7B
$GPGSV,4,2,13,09,01,037,,12,14,240,20,13,48,184,36,15,22,213,34*76
$GPRMC,095541.00,A,2458.22479,N,12111.71823,E,0.211,,080621,,,A*7F
$GPVTG,,T,,M,0.211,N,0.391,K,A*2A
$GPGGA,095541.00,2458.22479,N,12111.71823,E,1,09,0.96,145.9,M,16.4,M,,*50
$GPGSA,A,3,02,05,13,20,06,15,19,29,12,,,,1.92,0.96,1.67*02
$GPRMC,095542.00,A,2458.22482,N,12111.71832,E,0.044,,080621,,,A*7A
$GPVTG,,T,,M,0.044,N,0.082,K,A*29
$GPGGA,095542.00,2458.22482,N,12111.71832,E,1,10,0.96,146.5,M,16.4,M,,*50
$GPGSA,A,3,02,05,13,20,06,15,19,29,12,07,,,1.92,0.96,1.67*05
$GPGSV,4,1,13,02,64,038,30,05,49,299,37,06,39,090,24,07,08,068,17*7C
$GPGSV,4,2,13,09,01,037,,12,14,240,21,13,48,184,37,15,22,213,34*76
$GPRMC,095543.00,A,2458.22482,N,12111.71839,E,0.156,,080621,,,A*72
$GPRMC,095544.00,A,2458.22478,N,12111.71841,E,0.022,,080621,,,A*7D
$GPVTG,,T,,M,0.022,N,0.040,K,A*27
$GPGGA,095544.00,2458.22478,N,12111.71841,E,1,09,1.02,147.1,M,16.4,M,,*56
$GPGSA,A,3,02,05,13,20,06,15,19,29,12,,,,2.01,1.02,1.73*02
$GPRMC,095545.00,A,2458.22484,N,12111.71856,E,0.349,,080621,,,A*77
$GPVTG,,T,,M,0.349,N,0.647,K,A*28
$GPGGA,095545.00,2458.22484,N,12111.71856,E,1,09,0.96,146.8,M,16.4,M,,*56
$GPGSA,A,3,02,05,13,20,06,15,19,29,12,,,,1.92,0.96,1.67*02
$GPGSV,4,1,13,02,64,038,29,05,49,299,35,06,39,090,24,07,08,068,08*78
$GPGSV,4,2,13,09,01,037,,12,14,240,17,13,48,184,34,15,22,213,33*77
$GPGSV,4,3,13,19,18,155,32,20,43,295,36,25,07,273,18,29,16,321,12*73
$GPRMC,095546.00,A,2458.22486,N,12111.71865,E,0.155,,080621,,,A*79
$GPVTG,,T,,M,0.155,N,0.287,K,A*2F
$GPGGA,095546.00,2458.22486,N,12111.71865,E,1,09,0.96,146.7,M,16.4,M,,*58
$GPGSA,A,3,02,05,13,20,06,15,19,29,12,,,,1.92,0.96,1.67*02
$GPRMC,095547.00,A,2458.22482,N,12111.71864,E,0.144,,080621,,,A*7D
$GPVTG,,T,,M,0.144,N,0.266,K,A*20
$GPGGA,095547.00,2458.22482,N,12111.71864,E,1,10,0.96,146.9,M,16.4,M,,*5A
$GPGSA,A,3,02,05,13,20,06,15,19,29,12,07,,,1.92,0.96,1.67*05
$GPGSV,4,1,13,02,64,038,31,05,49,299,33,06,39,090,25,07,08,068,11*7E
$GPGSV,4,2,13,09,01,037,,12,14,240,16,13,48,184,33,15,22,213,31*73
$GPGSV,4,3,13,19,18,155,28,20,43,295,33,25,07,273,18,29,16,321,15*7A
$GPGSV,4,4,13,30,16,104,*4A
$GPGLL,2458.22482,N,12111.71864,E,095547.00,A,A*68
$GPRMC,095548.00,A,2458.22479,N,12111.71867,E,0.199,,080621,,,A*75
$GPVTG,,T,,M,0.199,N,0.369,K,A*2E
