$GPRMC,094332.00,A,2458.23468,N,12111.59265,E,0.264,,080621,,,A*7D
$GPVTG,,T,,M,0.264,N,0.488,K,A*27
$GPGGA,094332.00,2458.23468,N,12111.59265,E,1,09,0.94,187.0,M,16.4,M,,*55
$GPGSA,A,3,02,05,06,13,20,19,12,15,29,,,,1.93,0.94,1.69*0F
$GPGSV,4,1,15,02,62,027,36,05,48,291,19,06,41,083,22,07,07,074,*7E
$GPGSV,4,2,15,09,06,038,16,12,17,245,30,13,41,184,35,15,16,211,32*71
$GPGSV,4,3,15,17,02,151,,19,23,154,20,20,40,288,34,25,08,278,15*75
$GPGSV,4,4,15,29,11,322,25,30,14,110,,50,51,133,37*40
$GPGLL,2458.23468,N,12111.59265,E,094332.00,A,A*69
$GPRMC,094333.00,A,2458.23475,N,12111.59280,E,0.364,,080621,,,A*7A
$GPVTG,,T,,M,0.364,N,0.674,K,A*27
$GPGGA,094333.00,2458.23475,N,12111.59280,E,1,09,0.94,186.2,M,16.4,M,,*50
$GPGSA,A,3,02,05,06,13,20,19,12,15,29,,,,1.93,0.94,1.69*0F
$GPGSV,4,1,15,02,62,027,36,05,48,291,19,06,41,083,22,07,07,073,*79
$GPGSV,4,2,15,09,06,038,18,12,17,245,30,13,41,184,35,15,16,211,33*7E
$GPGSV,4,3,15,17,02,151,,19,23,154,20,20,40,288,35,25,08,278,15*74
$GPGSV,4,4,15,29,11,322,25,30,14,110,,50,51,133,37*40
$GPGLL,2458.23475,N,12111.59280,E,094333.00,A,A*6F
$GPRMC,094334.00,A,2458.23479,N,12111.59280,E,0.262,,080621,,,A*76
$GPVTG,,T,,M,0.262,N,0.486,K,A*2F
$GPGGA,094334.00,2458.23479,N,12111.59280,E,1,09,0.94,186.0,M,16.4,M,,*59
$GPGSA,A,3,02,05,06,13,20,19,12,15,29,,,,1.93,0.94,1.69*0F
$GPRMC,094335.00,A,2458.23485,N,12111.59282,E,0.211,,080621,,,A*72
$GPVTG,,T,,M,0.211,N,0.391,K,A*2A
$GPGGA,094335.00,2458.23485,N,12111.59282,E,1,09,0.94,185.6,M,16.4,M,,*5C
$GPGSA,A,3,02,05,06,13,20,19,12,15,29,,,,1.93,0.94,1.69*0F
$GPRMC,094336.00,A,2458.23493,N,12111.59293,E,0.358,,080621,,,A*7A
$GPVTG,,T,,M,0.358,N,0.663,K,A*2E
$GPGGA,094336.00,2458.23493,N,12111.59293,E,1,09,0.94,185.1,M,16.4,M,,*5F
$GPRMC,094337.00,A,2458.23501,N,12111.59303,E,0.331,,080621,,,A*76
$GPVTG,,T,,M,0.331,N,0.612,K,A*27
$GPGGA,094337.00,2458.23501,N,12111.59303,E,1,09,0.94,184.5,M,16.4,M,,*59
$GPGSA,A,3,02,05,06,13,20,19,12,15,29,,,,1.93,0.94,1.69*0F
$GPGSV,4,1,15,02,62,027,34,05,48,291,21,06,41,083,18,07,07,073,*79
$GPRMC,094338.00,A,2458.23506,N,12111.59311,E,0.295,,080621,,,A*72
$GPVTG,,T,,M,0.295,N,0.545,K,A*29
$GPGGA,094338.00,2458.23506,N,12111.59311,E,1,09,0.94,184.1,M,16.4,M,,*56
$GPGSA,A,3,02,05,06,13,20,19,12,15,29,,,,1.93,0.94,1.69*0F
$GPGSV,4,1,15,02,62,027,34,05,48,291,22,06,41,083,17,07,07,073,*75
$GPRMC,094339.00,A,2458.23511,N,12111.59317,E,0.291,,080621,,,A*77
$GPVTG,,T,,M,0.291,N,0.538,K,A*27
$GPGGA,094339.00,2458.23511,N,12111.59317,E,1,09,0.94,183.7,M,16.4,M,,*56
$GPRMC,094340.00,A,2458.23522,N,12111.59335,E,0.438,,080621,,,A*7C
$GPVTG,,T,,M,0.438,N,0.812,K,A*27
$GPGGA,094340.00,2458.23522,N,12111.59335,E,1,09,0.94,183.0,M,16.4,M,,*5F
$GPGSA,A,3,02,05,06,13,20,19,12,15,29,,,,1.93,0.94,1.69*0F
$GPRMC,094342.00,A,2458.23534,N,12111.59347,E,0.304,,080621,,,A*74
$GPVTG,,T,,M,0.304,N,0.563,K,A*24
$GPGGA,094342.00,2458.23534,N,12111.59347,E,1,09,0.94,182.2,M,16.4,M,,*5C
$GPGSA,A,3,02,05,06,13,20,19,12,15,29,,,,1.93,0.94,1.69*0F
$GPGSV,4,1,15,02,62,027,33,05,48,291,25,06,41,083,17,07,07,073,*75
$GPGSV,4,2,15,09,06,037,16,12,17,244,29,13,42,184,37,15,17,211,32*77
$GPGSV,4,3,15,17,02,151,,19,23,154,20,20,40,288,34,25,08,278,*71
$GPGSV,4,4,15,29,11,322,23,30,14,110,,50,51,133,36*47
$GPGLL,2458.23534,N,12111.59347,E,094342.00,A,A*67
$GPRMC,094343.00,A,2458.23541,N,12111.59349,E,0.257,,080621,,,A*7E
$GPVTG,,T,,M,0.257,N,0.477,K,A*27
$GPGGA,094343.00,2458.23541,N,12111.59349,E,1,09,0.94,181.9,M,16.4,M,,*59
$GPRMC,094344.00,A,2458.23548,N,12111.59355,E,0.302,,080621,,,A*7C
$GPVTG,,T,,M,0.302,N,0.559,K,A*2B
$GPGGA,094344.00,2458.23548,N,12111.59355,E,1,10,0.94,181.5,M,16.4,M,,*5E
$GPGSA,A,3,02,05,06,13,20,19,12,15,30,29,,,1.93,0.94,1.69*0C
$GPRMC,094345.00,A,2458.23550,N,12111.59353,E,0.230,,080621,,,A*72
$GPRMC,094346.00,A,2458.23564,N,12111.59360,E,0.260,,080621,,,A*73
$GPVTG,,T,,M,0.260,N,0.482,K,A*29
$GPGGA,094346.00,2458.23564,N,12111.59360,E,1,10,0.94,180.8,M,16.4,M,,*58
$GPGSA,A,3,02,05,06,13,20,19,12,15,30,29,,,1.93,0.94,1.69*0C
$GPGSV,4,1,15,02,62,027,32,05,48,291,28,06,41,083,18,07,07,073,*76
$GPGSV,4,2,15,09,06,037,14,12,17,244,30,13,42,184,36,15,17,211,32*7C
$GPGSV,4,3,15,17,02,151,,19,23,154,21,20,41,288,33,25,08,278,*76
$GPGSV,4,4,15,29,11,322,22,30,14,110,11,50,51,133,36*46
$GPRMC,094347.00,A,2458.23574,N,12111.59362,E,0.200,,080621,,,A*77
$GPVTG,,T,,M,0.200,N,0.371,K,A*24
$GPGGA,094347.00,2458.23574,N,12111.59362,E,1,09,0.94,180.4,M,16.4,M,,*5E
$GPGSA,A,3,02,05,06,13,20,19,12,15,29,,,,1.93,0.94,1.69*0F
$GPRMC,094348.00,A,2458.23581,N,12111.59366,E,0.246,,080621,,,A*74
$GPVTG,,T,,M,0.246,N,0.455,K,A*27
$GPGGA,094348.00,2458.23581,N,12111.59366,E,1,10,0.94,180.0,M,16.4,M,,*53
$GPGSA,A,3,02,05,06,13,20,19,12,15,30,29,,,1.93,0.94,1.69*0C
$GPGSV,4,1,15,02,62,027,32,05,48,291,28,06,41,083,18,07,07,073,*76
$GPGSV,4,2,15,09,06,037,14,12,17,244,30,13,42,184,36,15,17,211,32*7C
$GPRMC,094350.00,A,2458.23596,N,12111.59361,E,0.194,,080621,,,A*70
$GPVTG,,T,,M,0.194,N,0.360,K,A*2A
$GPGGA,094350.00,2458.23596,N,12111.59361,E,1,10,0.82,179.6,M,16.4,M,,*5C
$GPGSA,A,3,02,05,06,13,20,19,12,15,30,29,,,1.66,0.82,1.44*0E
$GPGSV,4,1,15,02,62,027,33,05,48,291,30,06,41,083,18,07,07,073,*7E
$GPGSV,4,2,15,09,06,037,13,12,17,244,31,13,42,184,35,15,17,211,32*79
$GPGSV,4,3,15,17,02,151,,19,23,154,21,20,41,288,33,25,08,278,16*71
$GPRMC,094351.00,A,2458.23605,N,12111.59363,E,0.179,,080621,,,A*79
$GPVTG,,T,,M,0.179,N,0.332,K,A*2E
$GPRMC,094352.00,A,2458.23613,N,12111.59365,E,0.161,,080621,,,A*72
$GPVTG,,T,,M,0.161,N,0.298,K,A*26
$GPGGA,094352.00,2458.23613,N,12111.59365,E,1,10,0.82,178.9,M,16.4,M,,*5A
$GPGSA,A,3,02,05,06,13,20,19,12,15,30,29,,,1.66,0.82,1.44*0E
$GPGSV,4,1,15,02,62,027,33,05,48,291,31,06,41,083,17,07,07,073,*70
$GPGSV,4,2,15,09,06,037,11,12,17,244,30,13,42,184,34,15,17,211,32*7B
$GPRMC,094353.00,A,2458.23621,N,12111.59376,E,0.176,,080621,,,A*76
$GPVTG,,T,,M,0.176,N,0.327,K,A*25
$GPRMC,094354.00,A,2458.23631,N,12111.59392,E,0.259,,080621,,,A*74
$GPVTG,,T,,M,0.259,N,0.479,K,A*27
$GPGGA,094354.00,2458.23631,N,12111.59392,E,1,10,0.87,177.6,M,16.4,M,,*51
$GPGSA,A,3,02,05,06,13,20,19,12,15,30,29,,,1.69,0.87,1.44*04
$GPGSV,4,1,15,02,62,027,33,05,48,291,31,06,41,083,18,07,07,073,*7F
$GPGSV,4,2,15,09,06,037,13,12,17,244,31,13,42,184,34,15,17,211,32*78
$GPRMC,094355.00,A,2458.23640,N,12111.59405,E,0.186,,080621,,,A*7B
$GPVTG,,T,,M,0.186,N,0.344,K,A*2F
$GPRMC,094356.00,A,2458.23644,N,12111.59412,E,0.123,,080621,,,A*75
$GPVTG,,T,,M,0.123,N,0.228,K,A*2B
$GPGGA,094356.00,2458.23644,N,12111.59412,E,1,10,0.87,176.5,M,16.4,M,,*5C
$GPRMC,094357.00,A,2458.23658,N,12111.59435,E,0.230,,080621,,,A*7D
$GPVTG,,T,,M,0.230,N,0.427,K,A*23
$GPRMC,094358.00,A,2458.23667,N,12111.59450,E,0.192,,080621,,,A*76
$GPVTG,,T,,M,0.192,N,0.355,K,A*2A
$GPGGA,094358.00,2458.23667,N,12111.59450,E,1,10,0.87,174.7,M,16.4,M,,*55
$GPGSA,A,3,02,05,06,13,20,19,12,15,30,29,,,1.69,0.87,1.44*04
$GPRMC,094359.00,A,2458.23678,N,12111.59466,E,0.222,,080621,,,A*74
$GPVTG,,T,,M,0.222,N,0.412,K,A*26
$GPGGA,094359.00,2458.23678,N,12111.59466,E,1,09,1.05,173.8,M,16.4,M,,*54
$GPGSA,A,3,02,05,06,13,20,19,12,15,29,,,,2.09,1.05,1.81*00
$GPGSV,4,1,15,02,62,027,34,05,48,291,33,06,41,083,18,07,07,073,*7A
$GPRMC,094400.00,A,2458.23687,N,12111.59481,E,0.200,,080621,,,A*76
$GPVTG,,T,,M,0.200,N,0.370,K,A*25
$GPGGA,094400.00,2458.23687,N,12111.59481,E,1,09,1.05,173.1,M,16.4,M,,*5F
$GPGSA,A,3,02,05,06,13,20,19,12,15,29,,,,2.09,1.05,1.81*00
$GPRMC,094401.00,A,2458.23695,N,12111.59496,E,0.242,,080621,,,A*74
$GPVTG,,T,,M,0.242,N,0.448,K,A*2F
$GPGGA,094401.00,2458.23695,N,12111.59496,E,1,09,1.05,172.5,M,16.4,M,,*5E
$GPGSA,A,3,02,05,06,13,20,19,12,15,29,,,,2.09,1.05,1.81*00
$GPGSV,4,1,15,02,62,027,34,05,48,291,33,06,41,083,19,07,07,073,*7B
$GPRMC,094402.00,A,2458.23703,N,12111.59514,E,0.245,,080621,,,A*75
$GPVTG,,T,,M,0.245,N,0.453,K,A*22
$GPGGA,094402.00,2458.23703,N,12111.59514,E,1,09,1.05,171.7,M,16.4,M,,*59
$GPRMC,094403.00,A,2458.23711,N,12111.59531,E,0.223,,080621,,,A*70
$GPVTG,,T,,M,0.223,N,0.414,K,A*21
$GPGGA,094403.00,2458.23711,N,12111.59531,E,1,09,1.05,171.0,M,16.4,M,,*5B
$GPRMC,094404.00,A,2458.23718,N,12111.59547,E,0.179,,080621,,,A*73
$GPVTG,,T,,M,0.179,N,0.331,K,A*2D
$GPGGA,094404.00,2458.23718,N,12111.59547,E,1,09,1.05,170.3,M,16.4,M,,*56
$GPGSA,A,3,02,05,06,13,20,19,12,15,29,,,,2.09,1.05,1.81*00
$GPRMC,094405.00,A,2458.23721,N,12111.59558,E,0.165,,080621,,,A*7B
$GPVTG,,T,,M,0.165,N,0.306,K,A*24
$GPGGA,094405.00,2458.23721,N,12111.59558,E,1,09,1.05,169.8,M,16.4,M,,*50
$GPGSA,A,3,02,05,06,13,20,19,12,15,29,,,,2.09,1.05,1.81*00
$GPRMC,094406.00,A,2458.23728,N,12111.59573,E,0.210,,080621,,,A*79
$GPVTG,,T,,M,0.210,N,0.390,K,A*2A
$GPGGA,094406.00,2458.23728,N,12111.59573,E,1,09,1.05,169.1,M,16.4,M,,*5A
$GPGSA,A,3,02,05,06,13,20,19,12,15,29,,,,2.09,1.05,1.81*00
$GPRMC,094407.00,A,2458.23732,N,12111.59587,E,0.256,,080621,,,A*7A
$GPVTG,,T,,M,0.256,N,0.475,K,A*24
$GPGGA,094407.00,2458.23732,N,12111.59587,E,1,09,1.05,168.5,M,16.4,M,,*5E
$GPRMC,094408.00,A,2458.23739,N,12111.59602,E,0.239,,080621,,,A*79
$GPVTG,,T,,M,0.239,N,0.442,K,A*29
$GPGGA,094408.00,2458.23739,N,12111.59602,E,1,09,1.05,167.9,M,16.4,M,,*57
$GPRMC,094409.00,A,2458.23745,N,12111.59616,E,0.247,,080621,,,A*7F
$GPVTG,,T,,M,0.247,N,0.458,K,A*2B
$GPRMC,094410.00,A,2458.23752,N,12111.59628,E,0.259,,080621,,,A*73
$GPVTG,,T,,M,0.259,N,0.479,K,A*27
$GPGGA,094410.00,2458.23752,N,12111.59628,E,1,09,1.05,166.5,M,16.4,M,,*56
$GPGSA,A,3,02,05,06,13,20,19,12,15,29,,,,2.09,1.05,1.81*00
$GPRMC,094411.00,A,2458.23755,N,12111.59636,E,0.192,,080621,,,A*7E
$GPVTG,,T,,M,0.192,N,0.355,K,A*2A
$GPGGA,094411.00,2458.23755,N,12111.59636,E,1,09,1.05,165.9,M,16.4,M,,*50
$GPGSA,A,3,02,05,06,13,20,19,12,15,29,,,,2.09,1.05,1.81*00
$GPGSV,4,1,15,02,62,027,37,05,48,291,33,06,41,083,25,07,07,073,*77
$GPRMC,094412.00,A,2458.23758,N,12111.59641,E,0.228,,080621,,,A*72
$GPVTG,,T,,M,0.228,N,0.422,K,A*2F
$GPGGA,094412.00,2458.23758,N,12111.59641,E,1,09,1.05,165.5,M,16.4,M,,*52
$GPRMC,094413.00,A,2458.23762,N,12111.59647,E,0.179,,080621,,,A*7B
$GPVTG,,T,,M,0.179,N,0.331,K,A*2D
$GPGGA,094413.00,2458.23762,N,12111.59647,E,1,09,1.05,164.9,M,16.4,M,,*51
$GPRMC,094414.00,A,2458.23763,N,12111.59650,E,0.196,,080621,,,A*7A
$GPVTG,,T,,M,0.196,N,0.364,K,A*2C
$GPGGA,094414.00,2458.23763,N,12111.59650,E,1,10,1.05,164.5,M,16.4,M,,*55
$GPGSA,A,3,02,05,06,13,20,19,12,15,30,29,,,2.09,1.05,1.81*03
$GPRMC,094415.00,A,2458.23765,N,12111.59654,E,0.166,,080621,,,A*76
$GPVTG,,T,,M,0.166,N,0.307,K,A*26
$GPGGA,094415.00,2458.23765,N,12111.59654,E,1,10,1.05,164.0,M,16.4,M,,*53
$GPRMC,094416.00,A,2458.23764,N,12111.59655,E,0.155,,080621,,,A*75
$GPVTG,,T,,M,0.155,N,0.286,K,A*2E
$GPGGA,094416.00,2458.23764,N,12111.59655,E,1,10,1.05,163.7,M,16.4,M,,*50
$GPGSA,A,3,02,05,06,13,20,19,12,15,30,29,,,2.09,1.05,1.81*03
$GPGSV,4,1,15,02,62,027,37,05,48,291,33,06,41,083,24,07,07,073,*76
$GPRMC,094417.00,A,2458.23762,N,12111.59657,E,0.160,,080621,,,A*76
$GPVTG,,T,,M,0.160,N,0.296,K,A*29
$GPRMC,094419.00,A,2458.23760,N,12111.59664,E,0.168,,080621,,,A*72
$GPVTG,,T,,M,0.168,N,0.311,K,A*2F
$GPGGA,094419.00,2458.23760,N,12111.59664,E,1,11,1.05,162.7,M,16.4,M,,*59
$GPRMC,094420.00,A,2458.23757,N,12111.59665,E,0.162,,080621,,,A*77
$GPRMC,094421.00,A,2458.23754,N,12111.59668,E,0.127,,080621,,,A*79
$GPVTG,,T,,M,0.127,N,0.235,K,A*23
$GPGGA,094421.00,2458.23754,N,12111.59668,E,1,10,1.05,162.2,M,16.4,M,,*5D
$GPGSA,A,3,02,05,06,13,20,19,12,15,30,29,,,2.09,1.05,1.81*03
$GPGSV,4,1,15,02,62,027,37,05,48,291,35,06,41,083,24,07,07,073,09*79
$GPGSV,4,2,15,09,06,037,17,12,17,244,31,13,42,184,37,15,17,211,34*79
$GPRMC,094422.00,A,2458.23750,N,12111.59672,E,0.152,,080621,,,A*77
$GPVTG,,T,,M,0.152,N,0.282,K,A*2D
$GPGGA,094422.00,2458.23750,N,12111.59672,E,1,10,1.05,161.9,M,16.4,M,,*59
$GPGSA,A,3,02,05,06,13,20,19,12,15,30,29,,,2.09,1.05,1.81*03
$GPGSV,4,1,15,02,62,027,37,05,48,291,36,06,41,083,24,07,07,073,08*7B
$GPGSV,4,2,15,09,06,037,17,12,17,244,31,13,42,184,37,15,17,211,33*7E
$GPRMC,094423.00,A,2458.23747,N,12111.59677,E,0.171,,080621,,,A*74
$GPVTG,,T,,M,0.171,N,0.317,K,A*21
$GPGGA,094423.00,2458.23747,N,12111.59677,E,1,11,1.05,161.7,M,16.4,M,,*54
$GPGSA,A,3,02,05,06,13,20,19,12,15,30,07,29,,2.09,1.05,1.81*04
$GPRMC,094424.00,A,2458.23742,N,12111.59681,E,0.175,,080621,,,A*7B
$GPVTG,,T,,M,0.175,N,0.325,K,A*24
$GPRMC,094426.00,A,2458.23733,N,12111.59688,E,0.142,,080621,,,A*72
$GPVTG,,T,,M,0.142,N,0.264,K,A*24
$GPGGA,094426.00,2458.23733,N,12111.59688,E,1,11,1.05,161.2,M,16.4,M,,*57
$GPRMC,094427.00,A,2458.23729,N,12111.59692,E,0.154,,080621,,,A*74
$GPVTG,,T,,M,0.154,N,0.284,K,A*2D
$GPGGA,094427.00,2458.23729,N,12111.59692,E,1,11,1.05,161.1,M,16.4,M,,*55
$GPGSA,A,3,02,05,06,13,20,19,12,15,30,07,29,,2.09,1.05,1.81*04
$GPGSV,4,1,15,02,62,027,36,05,48,291,36,06,41,083,25,07,07,073,07*74
$GPGSV,4,2,15,09,06,037,13,12,17,244,29,13,42,184,36,15,17,211,33*72
$GPGSV,4,3,15,17,02,151,,19,23,154,15,20,41,288,37,25,08,278,*75
$GPRMC,094428.00,A,2458.23725,N,12111.59697,E,0.115,,080621,,,A*77
$GPVTG,,T,,M,0.115,N,0.213,K,A*26
$GPGGA,094428.00,2458.23725,N,12111.59697,E,1,10,1.05,160.9,M,16.4,M,,*5B
$GPGSA,A,3,02,05,06,13,20,19,12,15,30,29,,,2.09,1.05,1.81*03
$GPGSV,4,1,15,02,62,027,36,05,48,291,36,06,41,083,25,07,07,073,*73
$GPRMC,094432.00,A,2458.23725,N,12111.59727,E,0.155,,080621,,,A*72
$GPVTG,,T,,M,0.155,N,0.287,K
$GPGGA,094432.00,2458.23725,N,12111.59727,E,1,09,1.05,159.7,M,16.4,M,,*56
$GPGSA,A,3,02,05,06,13,20,19,12,15,29,,,,2.09,1.05,1.81*00
$GPGSV,4,1,15,02,62,027,35,05,48,291,37,06,41,083,25,07,07,073,*71
$GPGSV,4,2,15,09,06,037,14,12,17,244,30,13,42,184,39,15,17,211,33*72
$GPGSV,4,3,15,17,02,151,,19,23,154,17,20,41,288,36,25,08,278,*76
$GPGSV,4,4,15,29,12,322,27,30,14,109,,50,51,133,38*46
$GPGLL,2458.23725,N,12111.59727,E,094432.00,A,A*67
$GPRMC,094433.00,A,2458.23729,N,12111.59736,E,0.201,,080621,,,A*7D
$GPVTG,,T,,M,0.201,N,0.372,K,A*26
$GPGGA,094433.00,2458.23729,N,12111.59736,E,1,10,1.05,159.3,M,16.4,M,,*57
$GPGSA,A,3,02,05,06,13,20,19,12,15,30,29,,,2.09,1.05,1.81*03
$GPGSV,4,1,15,02,62,027,35,05,48,291,37,06,41,083,26,07,07,073,*72
$GPGSV,4,2,15,09,06,037,13,12,17,244,30,13,42,184,39,15,17,211,33*75
$GPGSV,4,3,15,17,02,151,,19,23,154,16,20,41,288,36,25,08,278,*77
$GPGSV,4,4,15,29,12,322,27,30,14,109,14,50,51,133,37*4C
$GPGLL,2458.23729,N,12111.59736,E,094433.00,A,A*6A
$GPRMC,094434.00,A,2458.23733,N,12111.59741,E,0.127,,080621,,,A*76
$GPVTG,,T,,M,0.127,N,0.235,K,A*23
$GPGGA,094434.00,2458.23733,N,12111.59741,E,1,10,1.05,159.0,M,16.4,M,,*58
$GPGSA,A,3,02,05,06,13,20,19,12,15,30,29,,,2.09,1.05,1.81*03
$GPGSV,4,1,15,02,62,027,35,05,48,291,37,06,41,083,26,07,07,073,*72
$GPGSV,4,2,15,09,06,037,13,12,17,244,30,13,42,184,39,15,17,211,33*75
$GPGSV,4,4,15,29,12,322,27,30,14,109,13,50,51,133,38*44
$GPGLL,2458.23733,N,12111.59741,E,094434.00,A,A*66
$GPRMC,094435.00,A,2458.23738,N,12111.59745,E,0.158,,080621,,,A*70
$GPVTG,,T,,M,0.158,N,0.292,K,A*26
$GPGGA,094435.00,2458.23738,N,12111.59745,E,1,10,1.05,158.6,M,16.4,M,,*51
$GPGSA,A,3,02,05,06,13,20,19,12,15,30,29,,,2.09,1.05,1.81*03
$GPGSV,4,1,15,02,62,027,35,05,48,291,38,06,41,083,27,07,07,073,*7C
$GPGSV,4,2,15,09,06,037,12,12,17,244,30,13,42,184,40,15,17,211,33*7A
$GPGSV,4,3,15,17,02,151,,19,23,154,17,20,41,288,35,25,08,278,18*7C
$GPGSV,4,4,15,29,12,322,27,30,14,109,11,50,51,133,38*46
$GPGLL,2458.23738,N,12111.59745,E,094435.00,A,A*68
$GPRMC,094436.00,A,2458.23743,N,12111.59748,E,0.118,,080621,,,A*76
$GPVTG,,T,,M,0.118,N,0.218,K,A*20
$GPGGA,094436.00,2458.23743,N,12111.59748,E,1,10,1.05,158.3,M,16.4,M,,*56
$GPRMC,094437.00,A,2458.23747,N,12111.59751,E,0.088,,080621,,,A*73
$GPVTG,,T,,M,0.088,N,0.164,K,A*20
$GPGGA,094437.00,2458.23747,N,12111.59751,E,1,10,1.05,158.0,M,16.4,M,,*58
$GPRMC,094438.00,A,2458.23754,N,12111.59755,E,0.128,,080621,,,A*71
$GPVTG,,T,,M,0.128,N,0.236,K,A*2F
$GPGGA,094438.00,2458.23754,N,12111.59755,E,1,10,1.05,157.6,M,16.4,M,,*58
$GPGSA,A,3,02,05,06,13,20,19,12,15,30,29,,,2.09,1.05,1.81*03
$GPRMC,094439.00,A,2458.23760,N,12111.59755,E,0.142,,080621,,,A*7B
$GPVTG,,T,,M,0.142,N,0.263,K,A*23
$GPGGA,094439.00,2458.23760,N,12111.59755,E,1,10,0.87,157.4,M,16.4,M,,*57
$GPGSA,A,3,02,05,06,13,20,19,12,15,30,29,,,1.69,0.87,1.45*05
$GPGSV,4,1,15,02,62,028,35,05,48,291,38,06,41,083,26,07,07,073,*72
$GPRMC,094440.00,A,2458.23766,N,12111.59757,E,0.165,,080621,,,A*74
$GPVTG,,T,,M,0.165,N,0.306,K,A*24
$GPGGA,094440.00,2458.23766,N,12111.59757,E,1,10,0.87,157.1,M,16.4,M,,*58
$GPGSA,A,3,02,05,06,13,20,19,12,15,30,29,,,1.69,0.87,1.45*05
$GPRMC,094441.00,A,2458.23772,N,12111.59762,E,0.210,,080621,,,A*77
$GPVTG,,T,,M,0.210,N,0.388,K,A*23
$GPRMC,094442.00,A,2458.23781,N,12111.59770,E,0.262,,080621,,,A*7E
$GPVTG,,T,,M,0.262,N,0.486,K,A*2F
$GPGGA,094442.00,2458.23781,N,12111.59770,E,1,10,0.87,156.4,M,16.4,M,,*52
$GPRMC,094443.00,A,2458.23786,N,12111.59772,E,0.159,,080621,,,A*71
$GPVTG,,T,,M,0.159,N,0.295,K,A*20
$GPGGA,094443.00,2458.23786,N,12111.59772,E,1,10,0.87,156.2,M,16.4,M,,*50
$GPRMC,094444.00,A,2458.23793,N,12111.59777,E,0.192,,080621,,,A*70
$GPVTG,,T,,M,0.192,N,0.355,K,A*2A
$GPGGA,094444.00,2458.23793,N,12111.59777,E,1,10,0.87,155.9,M,16.4,M,,*5E
$GPRMC,094445.00,A,2458.23799,N,12111.59782,E,0.155,,080621,,,A*7A
$GPVTG,,T,,M,0.155,N,0.288,K,A*20
$GPGGA,094445.00,2458.23799,N,12111.59782,E,1,10,0.87,155.5,M,16.4,M,,*53
$GPGSA,A,3,02,05,06,13,20,19,12,15,30,29,,,1.69,0.87,1.45*05
$GPGSV,4,1,15,02,62,028,35,05,48,292,38,06,41,084,24,07,07,073,*74
$GPRMC,094446.00,A,2458.23805,N,12111.59787,E,0.161,,080621,,,A*71
$GPVTG,,T,,M,0.161,N,0.299,K,A*27
$GPRMC,094447.00,A,2458.23809,N,12111.59792,E,0.189,,080621,,,A*7E
$GPVTG,,T,,M,0.189,N,0.351,K,A*24
$GPGGA,094447.00,2458.23809,N,12111.59792,E,1,10,0.87,154.9,M,16.4,M,,*5B
$GPGSA,A,3,02,05,06,13,20,19,12,15,30,29,,,1.69,0.87,1.45*05
$GPRMC,094448.00,A,2458.23814,N,12111.59797,E,0.188,,080621,,,A*79
$GPVTG,,T,,M,0.188,N,0.349,K,A*2C
$GPGGA,094448.00,2458.23814,N,12111.59797,E,1,10,0.87,154.6,M,16.4,M,,*52
$GPRMC,094449.00,A,2458.23819,N,12111.59805,E,0.210,,080621,,,A*73
$GPVTG,,T,,M,0.210,N,0.389,K,A*22
$GPGGA,094449.00,2458.23819,N,12111.59805,E,1,10,0.87,154.3,M,16.4,M,,*5F
$GPGSA,A,3,02,05,06,13,20,19,12,15,30,29,,,1.69,0.87,1.45*05
$GPGSV,4,1,15,02,62,028,35,05,48,292,38,06,41,084,22,07,07,073,*72
$GPRMC,094450.00,A,2458.23820,N,12111.59809,E,0.134,,080621,,,A*78
$GPVTG,,T,,M,0.134,N,0.247,K,A*24
$GPRMC,094451.00,A,2458.23821,N,12111.59816,E,0.133,,080621,,,A*71
$GPVTG,,T,,M,0.133,N,0.245,K,A*21
$GPGGA,094451.00,2458.23821,N,12111.59816,E,1,09,1.05,153.9,M,16.4,M,,*51
$GPGSA,A,3,02,05,06,13,20,19,12,15,29,,,,2.10,1.05,1.81*08
$GPRMC,094453.00,A,2458.23818,N,12111.59824,E,0.047,,080621,,,A*7A
$GPVTG,,T,,M,0.047,N,0.088,K,A*20
$GPGGA,094453.00,2458.23818,N,12111.59824,E,1,10,0.87,153.6,M,16.4,M,,*54
$GPGSA,A,3,02,05,06,13,20,19,12,15,30,29,,,1.69,0.87,1.45*05
$GPGSV,4,1,15,02,62,028,36,05,48,292,38,06,41,084,23,07,07,073,*70
$GPGSV,4,2,15,09,05,037,17,12,16,244,31,13,43,184,37,15,17,211,33*7D
$GPGSV,4,3,15,17,02,151,,19,23,154,20,20,41,288,30,25,08,278,*74
$GPGSV,4,4,15,29,12,322,25,30,14,109,09,50,51,133,37*42
$GPRMC,094454.00,A,2458.23806,N,12111.59832,E,0.084,,080621,,,A*7A
$GPVTG,,T,,M,0.084,N,0.156,K,A*2D
$GPGGA,094454.00,2458.23806,N,12111.59832,E,1,10,0.87,153.6,M,16.4,M,,*5B
$GPRMC,094455.00,A,2458.23800,N,12111.59846,E,0.064,,080621,,,A*70
$GPVTG,,T,,M,0.064,N,0.118,K,A*29
$GPGGA,094455.00,2458.23800,N,12111.59846,E,1,10,1.05,153.2,M,16.4,M,,*50
$GPRMC,094456.00,A,2458.23791,N,12111.59856,E,0.033,,080621,,,A*77
$GPRMC,094457.00,A,2458.23785,N,12111.59869,E,0.117,,080621,,,A*78
$GPVTG,,T,,M,0.117,N,0.216,K,A*21
$GPGGA,094457.00,2458.23785,N,12111.59869,E,1,11,1.05,152.8,M,16.4,M,,*57
$GPGSA,A,3,02,05,06,13,20,19,12,15,30,07,29,,2.10,1.05,1.81*0C
$GPRMC,094458.00,A,2458.23781,N,12111.59880,E,0.044,,080621,,,A*73
$GPVTG,,T,,M,0.044,N,0.082,K,A*29
$GPGGA,094458.00,2458.23781,N,12111.59880,E,1,11,1.05,152.5,M,16.4,M,,*56
$GPGSA,A,3,02,05,06,13,20,19,12,15,30,07,29,,2.10,1.05,1.81*0C
$GPRMC,094459.00,A,2458.23776,N,12111.59884,E,0.012,,080621,,,A*7D
$GPVTG,,T,,M,0.012,N,0.021,K,A*23
$GPGGA,094459.00,2458.23776,N,12111.59884,E,1,10,1.05,152.4,M,16.4,M,,*5B
$GPGSA,A,3,02,05,06,13,20,19,12,15,30,29,,,2.10,1.05,1.81*0B
$GPRMC,094500.00,A,2458.23774,N,12111.59892,E,0.093,,080621,,,A*7C
$GPRMC,094501.00,A,2458.23778,N,12111.59900,E,0.050,,080621,,,A*74
$GPRMC,094502.00,A,2458.23785,N,12111.59904,E,0.056,,080621,,,A*77
$GPVTG,,T,,M,0.056,N,0.104,K,A*25
$GPGGA,094502.00,2458.23785,N,12111.59904,E,1,10,1.05,151.2,M,16.4,M,,*54
$GPGSA,A,3,02,05,06,13,20,19,12,15,30,29,,,2.10,1.05,1.81*0B
$GPRMC,094503.00,A,2458.23797,N,12111.59909,E,0.123,,080621,,,A*7B
$GPVTG,,T,,M,0.123,N,0.228,K,A*2B
$GPGGA,094503.00,2458.23797,N,12111.59909,E,1,10,1.05,150.7,M,16.4,M,,*5F
$GPRMC,094504.00,A,2458.23811,N,12111.59908,E,0.048,,080621,,,A*70
$GPVTG,,T,,M,0.048,N,0.088,K,A*2F
$GPGGA,094504.00,2458.23811,N,12111.59908,E,1,10,1.05,150.1,M,16.4,M,,*5E
$GPGSA,A,3,02,05,06,13,20,19,12,15,30,29,,,2.10,1.05,1.81*0B
$GPGSV,4,1,15,02,62,028,37,05,48,292,38,06,41,084,23,07,07,073,08*79
$GPGSV,4,2,15,09,05,037,16,12,16,244,31,13,43,184,40,15,17,211,34*7B
$GPRMC,094505.00,A,2458.23826,N,12111.59908,E,0.130,,080621,,,A*7B
$GPVTG,,T,,M,0.130,N,0.241,K,A*26
$GPRMC,094507.00,A,2458.23849,N,12111.59904,E,0.064,,080621,,,A*7C
$GPVTG,,T,,M,0.064,N,0.118,K,A*29
$GPGGA,094507.00,2458.23849,N,12111.59904,E,1,11,0.95,148.6,M,16.4,M,,*5B
$GPGSA,A,3,02,05,06,13,20,19,12,15,30,07,29,,1.93,0.95,1.69*0A
$GPRMC,094508.00,A,2458.23859,N,12111.59899,E,0.073,,080621,,,A*71
$GPVTG,,T,,M,0.073,N,0.135,K,A*20
$GPGGA,094508.00,2458.23859,N,12111.59899,E,1,11,0.95,148.2,M,16.4,M,,*54
$GPRMC,094509.00,A,2458.23869,N,12111.59896,E,0.080,,080621,,,A*70
$GPVTG,,T,,M,0.080,N,0.149,K,A*27
$GPGGA,094509.00,2458.23869,N,12111.59896,E,1,11,0.95,147.8,M,16.4,M,,*5C
$GPGSA,A,3,02,05,06,13,20,19,12,15,30,07,29,,1.93,0.95,1.69*0A
$GPGSV,4,1,15,02,62,028,37,05,48,292,38,06,41,084,21,07,07,073,10*72
$GPRMC,094510.00,A,2458.23878,N,12111.59894,E,0.099,,080621,,,A*72
$GPRMC,094511.00,A,2458.23886,N,12111.59888,E,0.073,,080621,,,A*7B
$GPVTG,,T,,M,0.073,N,0.136,K,A*23
$GPRMC,094512.00,A,2458.23897,N,12111.59888,E,0.188,,080621,,,A*7D
$GPVTG,,T,,M,0.188,N,0.348,K,A*2D
$GPRMC,094513.00,A,2458.23904,N,12111.59887,E,0.239,,080621,,,A*71
$GPVTG,,T,,M,0.239,N,0.443,K,A*28
$GPGGA,094513.00,2458.23904,N,12111.59887,E,1,11,0.82,146.2,M,16.4,M,,*50
$GPGSA,A,3,02,05,06,13,20,19,12,15,30,07,29,,1.66,0.82,1.44*09
$GPRMC,094514.00,A,2458.23910,N,12111.59885,E,0.255,,080621,,,A*7B
$GPVTG,,T,,M,0.255,N,0.473,K,A*21
$GPGGA,094514.00,2458.23910,N,12111.59885,E,1,11,0.82,146.0,M,16.4,M,,*52
$GPGSA,A,3,02,05,06,13,20,19,12,15,30,07,29,,1.66,0.82,1.44*09
$GPGSV,4,1,15,02,62,028,37,05,48,292,38,06,41,084,22,07,07,073,10*71
$GPGSV,4,2,15,09,05,037,15,12,16,244,30,13,43,184,39,15,17,211,33*70
$GPRMC,094515.00,A,2458.23916,N,12111.59887,E,0.251,,080621,,,A*7A
$GPVTG,,T,,M,0.251,N,0.465,K,A*22
$GPRMC,094516.00,A,2458.23919,N,12111.59885,E,0.188,,080621,,,A*73
$GPVTG,,T,,M,0.188,N,0.348,K,A*2D
$GPRMC,094518.00,A,2458.23918,N,12111.59885,E,0.177,,080621,,,A*7C
$GPVTG,,T,,M,0.177,N,0.328,K,A*2B
$GPGGA,094518.00,2458.23918,N,12111.59885,E,1,10,0.95,145.5,M,16.4,M,,*57
$GPRMC,094519.00,A,2458.23914,N,12111.59885,E,0.091,,080621,,,A*78
$GPVTG,,T,,M,0.091,N,0.169,K,A*25
$GPGGA,094519.00,2458.23914,N,12111.59885,E,1,10,0.95,145.6,M,16.4,M,,*59
$GPGSA,A,3,02,05,06,13,20,19,12,15,07,29,,,1.93,0.95,1.69*09
$GPRMC,094520.00,A,2458.23908,N,12111.59878,E,0.150,,080621,,,A*71
$GPVTG,,T,,M,0.150,N,0.277,K,A*25
$GPGGA,094520.00,2458.23908,N,12111.59878,E,1,10,0.95,145.9,M,16.4,M,,*53
$GPGSA,A,3,02,05,06,13,20,19,12,15,07,29,,,1.93,0.95,1.69*09
$GPGSV,4,1,15,02,62,028,36,05,48,292,38,06,41,084,22,07,07,073,08*79
$GPRMC,094521.00,A,2458.23904,N,12111.59876,E,0.052,,080621,,,A*71
$GPRMC,094522.00,A,2458.23901,N,12111.59878,E,0.051,,080621,,,A*7A
$GPVTG,,T,,M,0.051,N,0.095,K,A*2B
$GPRMC,094523.00,A,2458.23896,N,12111.59880,E,0.040,,080621,,,A*73
$GPVTG,,T,,M,0.040,N,0.074,K,A*24
$GPRMC,094524.00,A,2458.23893,N,12111.59883,E,0.053,,080621,,,A*70
$GPRMC,094525.00,A,2458.23888,N,12111.59885,E,0.097,,080621,,,A*75
$GPVTG,,T,,M,0.097,N,0.179,K,A*22
$GPGGA,094525.00,2458.23888,N,12111.59885,E,1,11,0.87,146.7,M,16.4,M,,*52
$GPGSA,A,3,02,05,06,13,20,19,12,15,30,07,29,,1.69,0.87,1.45*02
$GPGSV,4,1,15,02,62,028,35,05,48,292,38,06,41,084,22,07,07,073,10*73
$GPRMC,094526.00,A,2458.23880,N,12111.59885,E,0.073,,080621,,,A*74
$GPVTG,,T,,M,0.073,N,0.134,K,A*21
$GPGGA,094526.00,2458.23880,N,12111.59885,E,1,11,0.87,147.0,M,16.4,M,,*5F
$GPGSA,A,3,02,05,06,13,20,19,12,15,30,07,29,,1.69,0.87,1.45*02
$GPGSV,4,1,15,02,62,028,35,05,48,292,37,06,41,084,21,07,07,073,10*7F
$GPGSV,4,2,15,09,05,037,16,12,16,244,31,13,43,184,37,15,17,211,33*7C
$GPRMC,094528.00,A,2458.23864,N,12111.59880,E,0.295,,080621,,,A*7F
$GPVTG,,T,,M,0.295,N,0.546,K,A*2A
$GPGGA,094528.00,2458.23864,N,12111.59880,E,1,09,0.87,147.9,M,16.4,M,,*5E
$GPRMC,094541.00,A,2458.23957,N,12111.59952,E,0.051,,080621,,,A*75
$GPVTG,,T,,M,0.051,N,0.095,K,A*2B
$GPGGA,094541.00,2458.23957,N,12111.59952,E,1,08,1.05,144.5,M,16.4,M,,*5B
$GPGSA,A,3,02,05,06,13,20,12,15,29,,,,,2.10,1.05,1.82*03
$GPGSV,4,1,15,02,62,028,36,05,48,292,37,06,41,084,17,07,07,073,*78
$GPGSV,4,2,15,09,05,037,13,12,16,244,32,13,43,184,39,15,17,211,33*74
$GPGSV,4,3,15,17,01,151,,19,22,154,,20,41,289,29,25,08,277,18*7B
$GPGSV,4,4,15,29,12,322,26,30,14,109,,50,51,133,37*48
$GPGLL,2458.23957,N,12111.59952,E,094541.00,A,A*65
$GPRMC,094542.00,A,2458.23963,N,12111.59953,E,0.074,,080621,,,A*77
$GPVTG,,T,,M,0.074,N,0.137,K,A*25
$GPGGA,094542.00,2458.23963,N,12111.59953,E,1,08,1.05,144.2,M,16.4,M,,*59
$GPGSA,A,3,02,05,06,13,20,12,15,29,,,,,2.10,1.05,1.82*03
$GPGSV,4,1,15,02,62,028,37,05,48,292,37,06,41,084,16,07,07,073,*78
$GPGSV,4,2,15,09,05,037,12,12,16,244,32,13,43,184,39,15,17,211,33*75
$GPGSV,4,3,15,17,01,151,,19,22,154,,20,41,289,29,25,08,277,19*7A
$GPGSV,4,4,15,29,12,322,26,30,14,109,,50,51,133,37*48
$GPGLL,2458.23963,N,12111.59953,E,094542.00,A,A*60
$GPRMC,094543.00,A,2458.23965,N,12111.59948,E,0.033,,080621,,,A*79
$GPVTG,,T,,M,0.033,N,0.060,K,A*25
$GPGGA,094543.00,2458.23965,N,12111.59948,E,1,08,1.05,144.1,M,16.4,M,,*57
$GPGSA,A,3,02,05,06,13,20,12,15,29,,,,,2.10,1.05,1.82*03
$GPGSV,4,1,15,02,62,028,37,05,48,292,37,06,41,084,15,07,07,073,*7B
$GPGSV,4,2,15,09,05,037,12,12,16,244,32,13,43,184,39,15,17,211,33*75
$GPGSV,4,3,15,17,01,151,,19,22,154,,20,41,289,29,25,08,277,20*70
$GPGSV,4,4,15,29,12,322,26,30,14,109,,50,51,133,37*48
$GPGLL,2458.23965,N,12111.59948,E,094543.00,A,A*6D
$GPRMC,094544.00,A,2458.23964,N,12111.59948,E,0.081,,080621,,,A*76
$GPVTG,,T,,M,0.081,N,0.150,K,A*2E
$GPGGA,094544.00,2458.23964,N,12111.59948,E,1,08,1.05,143.9,M,16.4,M,,*5E
$GPGSA,A,3,02,05,06,13,20,12,15,29,,,,,2.10,1.05,1.82*03
$GPGSV,4,1,15,02,62,028,37,05,48,292,37,06,41,084,15,07,07,073,*7B
$GPGSV,4,2,15,09,05,037,12,12,16,244,33,13,43,184,38,15,17,211,33*75
$GPGSV,4,3,15,17,01,151,,19,22,154,,20,41,289,29,25,08,277,20*70
$GPGSV,4,4,15,29,12,322,26,30,14,109,,50,51,13
$GPGLL,2458.23964,N,12111.59948,E,094544.00,A,A*6B
$GPRMC,094545.00,A,2458.23964,N,12111.59952,E,0.150,,080621,,,A*71
$GPVTG,,T,,M,0.150,N,0.277,K,A*25
$GPGGA,094545.00,2458.23964,N,12111.59952,E,1,08,1.05,143.7,M,16.4,M,,*5A
$GPGSA,A,3,02,05,06,13,20,12,15,29,,,,,2.10,1.05,1.82*03
$GPGSV,4,1,15,02,62,028,37,05,48,292,37,06,41,084,15,07,07,073,*7B
$GPGSV,4,2,15,09,05,037,11,12,16,244,33,13,43,184,38,15,17,211,33*76
$GPGSV,4,3,15,17,01,151,,19,22,154,,20,41,289,30,25,08,277,20*78
$GPGSV,4,4,15,29,12,322,26,30,14,109,,50,51,133,37*48
$GPGLL,2458.23964,N,12111.59952,E,094545.00,A,A*61
$GPRMC,094546.00,A,2458.23958,N,12111.59951,E,0.042,,080621,,,A*7C
$GPVTG,,T,,M,0.042,N,0.077,K,A*25
$GPGGA,094546.00,2458.23958,N,12111.59951,E,1,08,1.05,143.7,M,16.4,M,,*55
$GPGSA,A,3,02,05,06,13,20,12,15,29,,,,,2.10,1.05,1.82*03
$GPGSV,4,1,15,02,62,028,37,05,48,292,37,06,41,084,15,07,07,073,*7B
$GPGSV,4,2,15,09,05,037,11,12,16,244,33,13,43,184,37,15,17,211,33*79
$GPGSV,4,3,15,17,01,151,,19,22,154,,20,41,289,30,25,08,277,20*78
$GPGSV,4,4,15,29,12,322,26,30,14,109,,50,51,133,38*47
$GPGLL,2458.23958,N,12111.59951,E,094546.00,A,A*6E
$GPRMC,094547.00,A,2458.23954,N,12111.59956,E,0.112,,080621,,,A*72
$GPVTG,,T,,M,0.112,N,0.207,K,A*24
$GPGGA,094547.00,2458.23954,N,12111.59956,E,1,09,1.05,143.7,M,16.4,M,,*5E
$GPGSA,A,3,02,05,06,13,20,12,15,30,29,,,,2.10,1.05,1.82*00
$GPGSV,4,1,15,02,62,028,36,05,48,292,37,06,41,084,14,07,07,073,*7B
$GPGSV,4,2,15,09,05,037,10,12,16,244,33,13,43,184,37,15,17,211,33*78
$GPGSV,4,3,15,17,01,151,,19,22,154,,20,41,289,30,25,08,277,21*79
$GPGSV,4,4,15,29,12,322,26,30,14,109,14,50,51,133,38*42
$GPGLL,2458.23954,N,12111.59956,E,094547.00,A,A*64
$GPRMC,094548.00,A,2458.23949,N,12111.59957,E,0.014,,080621,,,A*77
$GPVTG,,T,,M,0.014,N,0.025,K,A*21
$GPGGA,094548.00,2458.23949,N,12111.59957,E,1,09,1.05,143.8,M,16.4,M,,*53
$GPGSA,A,3,02,05,06,13,20,12,15,30,29,,,,2.10,1.05,1.82*00
$GPGSV,4,1,15,02,62,028,36,05,48,292,36,06,41,084,13,07,07,073,*7D
$GPGSV,4,2,15,09,05,037,09,12,16,244,33,13,43,184,36,15,17,211,33*71
$GPGSV,4,3,15,17,01,151,,19,22,154,,20,41,289,30,25,08,277,20*78
$GPGSV,4,4,15,29,12,322,26,30,14,109,14,50,51,133,37*4D
$GPGLL,2458.23949,N,12111.59957,E,094548.00,A,A*66
$GPVTG,,T,,M,0.078,N,0.145,K,A*2C
$GPGGA,094549.00,2458.23940,N,12111.59953,E,1,09,1.05,144.1,M,16.4,M,,*51
$GPGSA,A,3,02,05,06,13,20,12,15,30,29,,,,2.10,1.05,1.
$GPGSV,4,2,15,09,05,037,08,12,16,244,33,13,43,184,36,15,17,211,33*70
$GPGSV,4,3,15,17,01,151,,19,22,154,,20,41,289,31,25,08,277,21*78
$GPGSV,4,4,15,29,12,322,26,30,14,109,15,50,51,133,37*4C
$GPGLL,2458.23940,N,12111.59953,E,094549.00,A,A*6A
$GPRMC,094550.00,A,2458.23933,N,12111.59954,E,0.006,,080621,,,A*73
$GPVTG,,T,,M,0.006,N,0.011,K,A*25
$GPGGA,094550.00,2458.23933,N,12111.59954,E,1,08,1.55,144.2,M,16.4,M,,*5D
$GPGSA,A,3,02,05,13,20,12,15,30,29,,,,,2.58,1.55,2.06*00
$GPGSV,4,1,15,02,63,029,36,05,48,292,36,06,41,084,09,07,07,073,*76
$GPGSV,4,2,15,09,05,037,08,12,16,244,32,13,43,184,36,15,17,211,33*71
$GPGSV,4,3,15,17,01,151,,19,22,154,,20,41,289,31,25,08,277,21*78
$GPGSV,4,4,15,29,12,322,26,30,14,109,14,50,51,133,37*4D
$GPGLL,2458.23933,N,12111.59954,E,094550.00,A,A*61
$GPRMC,094551.00,A,2458.23926,N,12111.59954,E,0.019,,080621,,,A*78
$GPVTG,,T,,M,0.019,N,0.035,K,A*2D
$GPGGA,094551.00,2458.23926,N,12111.59954,E,1,08,1.55,144.4,M,16.4,M,,*5E
$GPGSA,A,3,02,05,13,20,12,15,30,29,,,,,2.58,1.55,2.06*00
$GPGSV,4,1,15,02,63,029,36,05,48,292,36,06,41,084,09,07,07,073,*76
$GPGSV,4,2,15,09,05,037,08,12,16,244,32,13,43,184,36,15,17,211,33*71
$GPGSV,4,3,15,17,01,151,,19,22,154,,20,41,289,31,25,08,277,21*78
$GPGSV,4,4,15,29,12,322,26,30,14,109,13,50,51,133,37*4A
$GPGLL,2458.23926,N,12111.59954,E,094551.00,A,A*64
$GPVTG,,T,,M,0.127,N,0.235,K,A*23
$GPGGA,094552.00,2458.23918,N,12111.59955,E,1,09,0.87,144.5,M,16.4,M,,*5F
$GPGSV,4,2,15,09,05,037,08,12,16,244,32,13,43,184,36,15,17,211,33*71
$GPGSV,4,3,15,17,01,151,,19,22,154,,20,41,289,31,25,08,277,22*7B
$GPGSV,4,4,15,29,12,322,26,30,14,109,12,50,51,133,37*4B
$GPGLL,2458.23918,N,12111.59955,E,094552.00,A,A*6B
$GPRMC,094553.00,A,2458.23910,N,12111.59958,E,0.074,,080621,,,A*78
$GPVTG,,T,,M,0.074,N,0.136,K,A*24
$GPGGA,094553.00,2458.23910,N,12111.59958,E,1,09,0.87,144.7,M,16.4,M,,*59
$GPGSA,A,3,02,05,06,13,20,12,15,30,29,,,,1.69,0.87,1.45*0D
$GPGSV,4,1,15,02,63,029,36,05,48,293,36,06,41,084,11,07,07,073,*7E
$GPGSV,4,2,15,09,05,037,08,12,16,244,32,13,43,184,36,15,17,211,33*71
$GPGSV,4,3,15,17,01,151,,19,22,154,,20,41,289,31,25,08,277,22*7B
$GPGSV,4,4,15,29,12,322,26,30,14,109,13,50,51,133,37*4A
$GPGLL,2458.23910,N,12111.59958,E,094553.00,A,A*6F
$GPRMC,094554.00,A,2458.23904,N,12111.59963,E,0.132,,080621,,,A*71
$GPVTG,,T,,M,0.132,N,0.244,K,A*21
$GPGGA,094554.00,2458.23904,N,12111.59963,E,1,09,0.87,144.8,M,16.4,M,,*5C
$GPGSA,A,3,02,05,06,13,20,12,15,30,29,,,,1.69,0.87,1.45*0D
$GPGSV,4,1,15,02,63,029,35,05,48,293,36,06,41,085,11,07,07,073,*7C
$GPGSV,4,2,15,09,05,037,08,12,16,244,32,13,43,184,36,15,17,211,33*71
$GPGSV,4,3,15,17,01,151,,19,22,154,,20,41,289,31,25,08,277,22*7B
$GPGSV,4,4,15,29,12,322,25,30,14,109,13,50,51,133,37*49
$GPVTG,,T,,M,0.099,N,0.184,K,A*2E
$GPGGA,094555.00,2458.23899,N,12111.59969,E,1,09,0.87,144.8,M,16.4,M,,*52
$GPGSV,4,1,15,02,63,029,35,05,48,293,35,06,41,085,13,07,07,072,*7C
$GPGSV,4,2,15,09,05,037,08,12,16,244,32,13,43,184,36,15,17,211,33*71
$GPGSV,4,3,15,17,01,151,,19,22,154,,20,41,289,32,25,08,277,21*7B
$GPGSV,4,4,15,29,12,322,25,30,14,109,12,50,51,133,38*47
$GPGLL,2458.23899,N,12111.59969,E,094555.00,A,A*6B
$GPRMC,094556.00,A,2458.23891,N,12111.59973,E,0.097,,080621,,,A*71
$GPVTG,,T,,M,0.097,N,0.179,K,A*22
$GPGGA,094556.00,2458.23891,N,12111.59973,E,1,10,0.87,144.9,M,16.4,M,,*5B
$GPGSA,A,3,02,05,06,13,20,12,15,30,07,29,,,1.69,0.87,1.45*0A
$GPGSV,4,1,15,02,63,029,35,05,48,293,35,06,41,085,12,07,07,072,14*78
$GPGSV,4,2,15,09,05,037,08,12,16,244,31,13,43,184,37,15,17,211,33*73
$GPGSV,4,3,15,17,01,151,,19,22,154,,20,41,289,32,25,08,277,22*78
$GPGSV,4,4,15,29,12,322,25,30,14,109,11,50,51,133,37*4B
$GPGLL,2458.23891,N,12111.59973,E,094556.00,A,A*6B
$GPRMC,094557.00,A,2458.23888,N,12111.59983,E,0.221,,080621,,,A*78
$GPVTG,,T,,M,0.221,N,0.410,K,A*27
$GPGGA,094557.00,2458.23888,N,12111.59983,E,1,10,0.87,144.8,M,16.4,M,,*5C
$GPGSA,A,3,02,05,06,13,20,12,15,30,07,29,,,1.69,0.87,1.45*0A
$GPGSV,4,1,15,02,63,029,35,05,48,293,35,06,41,085,11,07,07,072,12*7D
$GPGSV,4,2,15,09,05,037,08,12,16,244,31,13,43,184,37,15,17,211,33*73
$GPGSV,4,3,15,17,01,151,,19,22,154,,20,41,289,32,25,08,277,22*78
$GPGSV,4,4,15,29,12,322,25,30,14,109,10,50,51,133,38*45
$GPGLL,2458.23888,N,12111.59983,E,094557.00,A,A*6D
$GPRMC,094558.00,A,2458.23880,N,12111.59988,E,0.129,,080621,,,A*7F
$GPVTG,,T,,M,0.129,N,0.238,K,A*20
$GPGGA,094558.00,2458.23880,N,12111.59988,E,1,10,0.87,145.0,M,16.4,M,,*59
$GPGSA,A,3,02,05,06,13,20,12,15,30,07,29,,,1.69,0.87,1.45*0A
$GPGSV,4,1,15,02,63,029,35,05,48,293,35,06,41,085,11,07,07,072,10*7F
$GPGSV,4,2,15,09,05,037,08,12,16,244,31,13,43,184,38,15,17,211,33*7C
$GPGSV,4,3,15,17,01,151,,19,22,154,,20,41,289,32,25,08,277,22*78
$GPGSV,4,4,15,29,12,322,25,30,14,109,10,50,51,133,37*4A
$GPGLL,2458.23880,N,12111.59988,E,094558.00,A,A*61
$GPVTG,,T,,M,0.035,N,0.064,K,A*27
$GPGGA,094559.00,2458.23873,N,12111.59991,E,1,09,0.94,145.2,M,16.4,M,,*54
$GPGSA,PGSV,4,1,15,02,63,029,35,05,48,293,35,06,41,085,,07,07,072,10*7F
$GPGSV,4,3,15,17,01,151,,19,22,154,,20,41,289,32,25,08,277,22*78
$GPGSV,4,4,15,29,12,322,25,30,14,109,09,50,51,133,37*42
$GPGLL,2458.23873,N,12111.59991,E,094559.00,A,A*64
$GPRMC,094600.00,A,2458.23869,N,12111.59991,E,0.040,,080621,,,A*70
$GPVTG,,T,,M,0.040,N,0.074,K,A*24
$GPGGA,094600.00,2458.23869,N,12111.59991,E,1,09,0.94,145.3,M,16.4,M,,*51
$GPGSA,A,3,02,05,13,20,12,15,30,07,29,,,,1.74,0.94,1.46*01
$GPGSV,4,1,15,02,63,029,35,05,48,293,35,06,41,085,,07,07,072,10*7F
$GPGSV,4,2,15,09,05,037,11,12,16,243,31,13,43,184,38,15,17,211,33*73
$GPGSV,4,3,15,17,01,151,,19,22,154,,20,41,289,32,25,08,277,22*78
$GPGSV,4,4,15,29,12,322,24,30,14,109,09,50,51,133,38*4C
$GPGLL,2458.23869,N,12111.59991,E,094600.00,A,A*60
$GPRMC,094601.00,A,2458.23872,N,12111.59994,E,0.110,,080621,,,A*7A
$GPVTG,,T,,M,0.110,N,0.203,K,A*22
$GPGGA,094601.00,2458.23872,N,12111.59994,E,1,08,0.94,145.2,M,16.4,M,,*5F
$GPGSA,A,3,02,05,13,20,12,15,30,29,,,,,1.74,0.94,1.46*06
$GPGSV,4,1,15,02,63,029,35,05,48,293,35,06,41,085,,07,07,072,09*77
$GPGSV,4,2,15,09,05,037,11,12,16,243,31,13,43,184,39,15,17,211,33*72
$GPGSV,4,3,15,17,01,151,,19,22,154,,20,41,289,31,25,08,277,22*7B
$GPGSV,4,4,15,29,12,322,23,30,14,109,09,50,51,133,38*4B
$GPGLL,2458.23872,N,12111.59994,E,094601.00,A,A*6E
$GPRMC,094602.00,A,2458.23875,N,12111.59992,E,0.048,,080621,,,A*74
$GPVTG,,T,,M,0.127,N,0.235,K,A*23
$GPGGA,094605.00,2458.23892,N,12111.59987,E,1,10,0.94,145.0,M,16.4,M,,*5C
$GPGSA,A,3,02,05,06,13,20,19,12,15,30,29,,,1.74,0.94,1.46*08
$GPGSV,4,1,15,02,63,029,35,05,48,293,34,06,41,085,14,07,07,072,06*7C
$GPGSV,4,2,15,09,05,037,09,12,16,243,31,13,43,184,39,15,18,211,33*74
$GPGSV,4,3,15,17,01,151,,19,22,154,16,20,41,289,31,25,08,277,22*7C
$GPGSV,4,4,15,29,12,322,24,30,14,109,11,50,51,133,37*4A
$GPGLL,2458.23892,N,12111.59987,E,094605.00,A,A*66
$GPRMC,094606.00,A,2458.23902,N,12111.59991,E,0.017,,080621,,,A*78
$GPVTG,,T,,M,0.017,N,0.031,K,A*27
$GPGGA,094606.00,2458.23902,N,12111.59991,E,1,10,1.16,144.7,M,16.4,M,,*5D
$GPGSA,A,3,02,05,06,13,20,19,12,15,30,29,,,2.08,1.16,1.72*0C
$GPGSV,4,1,15,02,63,029,35,05,48,293,34,06,41,085,14,07,07,072,06*7C
$GPGSV,4,2,15,09,05,037,09,12,16,243,31,13,43,184,39,15,18,211,33*74
$GPGSV,4,3,15,17,01,151,,19,22,154,16,20,41,289,31,25,08,277,22*7C
$GPGSV,4,4,15,29,12,322,23,30,14,109,11,50,51,133,37*4D
$GPGLL,2458.23902,N,12111.59991,E,094606.00,A,A*6A
$GPRMC,094607.00,A,2458.23912,N,12111.60000,E,0.139,,080621,,,A*7E
$GPVTG,,T,,M,0.139,N,0.258,K,A*27
$GPGGA,094607.00,2458.23912,N,12111.60000,E,1,10,0.89,144.2,M,16.4,M,,*54
$GPGSA,A,3,02,05,06,13,20,19,12,15,30,29,,,1.71,0.89,1.46*01
$GPGSV,4,1,15,02,63,029,35,05,48,293,34,06,41,085,15,07,07,072,06*7D
$GPGSV,4,2,15,09,05,037,09,12,16,243,30,13,43,184,39,15,18,211,34*72
$GPGSV,4,3,15,17,01,151,,19,22,154,16,20,41,289,31,25,08,277,22*7C
$GPGSV,4,4,15,29,12,322,23,30,14,109,11,50,51,133,37*4D
$GPGLL,2458.23912,N,12111.60000,E,094607.00,A,A*61
$GPRMC,094608.00,A,2458.23923,N,12111.60013,E,0.208,,080621,,,A*70
$GPVTG,,T,,M,0.208,N,0.386,K,A*24
$GPGGA,094608.00,2458.23923,N,12111.60013,E,1,10,0.89,143.6,M,16.4,M,,*58
$GPGSA,A,3,02,05,06,13,20,19,12,15,30,29,,,1.71,0.89,1.46*01
$GPGSV,4,1,15,02,63,029,35,05,48,293,35,06,41,085,15,07,07,072,06*7C
$GPGSV,4,2,15,09,05,037,09,12,16,243,31,13,43,184,39,15,18,211,34*73
$GPGSV,4,3,15,17,01,151,,19,22,154,16,20,41,290,30,25,08,277,23*74
$GPGSV,4,4,15,29,12,322,23,30,14,109,11,50,51,133,38*42
$GPGLL,2458.23923,N,12111.60013,E,094608.00,A,A*6E
$GPRMC,094609.00,A,2458.23932,N,12111.60022,E,0.171,,080621,,,A*7E
$GPVTG,,T,,M,0.171,N,0.317,K,A*21
$GPGGA,094609.00,2458.23932,N,12111.60022,E,1,10,0.89,143.2,M,16.4,M,,*5F
$GPGSA,A,3,02,05,06,13,20,19,12,15,30,29,,,1.71,0.89,1.46*01
$GPGSV,4,1,15,02,63,029,35,05,48,293,35,06,41,085,13,07,07,072,06*7A
$GPGSV,4,2,15,09,05,037,09,12,16,243,31,13,43,184,39,15,18,211,34*73
$GPGSV,4,3,15,17,01,151,,19,22,154,17,20,41,290,30,25,08,277,23*75
$GPGSV,4,4,15,29,12,322,23,30,14,109,11,50,51,133,38*42
$GPGLL,2458.23932,N,12111.60022,E,094609.00,A,A*6D
$GPRMC,094610.00,A,2458.23941,N,12111.60028,E,0.112,,080621,,,A*7D
$GPVTG,,T,,M,0.112,N,0.207,K,A*24
$GPGGA,094610.00,2458.23941,N,12111.60028,E,1,09,0.89,142.8,M,16.4,M,,*5A
$GPGSA,A,3,02,05,13,20,19,12,15,30,29,,,,1.71,0.89,1.46*07
$GPGSV,4,1,15,02,63,029,35,05,48,293,34,06,41,085,,07,07,072,06*79
$GPGSV,4,2,15,09,05,037,09,12,16,243,31,13,43,184,39,15,18,211,34*73
$GPGSV,4,3,15,17,01,151,,19,22,154,18,20,41,290,30,25,08,277,23*7A
$GPGSV,4,4,15,29,12,322,23,30,14,109,11,50,51,133,37*4D
$GPGLL,2458.23941,N,12111.60028,E,094610.00,A,A*6B
$GPRMC,094611.00,A,2458.23948,N,12111.60033,E,0.087,,080621,,,A*72
$GPVTG,,T,,M,0.087,N,0.161,K,A*2A
$GPGGA,094611.00,2458.23948,N,12111.60033,E,1,10,0.89,142.5,M,16.4,M,,*5D
$GPGSA,A,3,02,05,13,20,19,12,15,30,07,29,,,1.71,0.89,1.46*00
$GPGSV,4,1,15,02,63,029,35,05,48,293,35,06,41,085,,07,07,072,08*76
$GPGSV,4,2,15,09,05,037,12,12,16,243,30,13,43,184,39,15,18,211,34*78
$GPGSV,4,3,15,17,01,151,,19,22,154,18,20,41,290,30,25,08,277,23*7A
$GPGSV,4,4,15,29,12,322,23,30,14,109,11,50,51,133,37*4D
$GPGLL,2458.23948,N,12111.60033,E,094611.00,A,A*69
$GPRMC,094612.00,A,2458.23955,N,12111.60039,E,0.143,,080621,,,A*7E
$GPVTG,,T,,M,0.143,N,0.264,K,A*25
$GPGGA,094612.00,2458.23955,N,12111.60039,E,1,10,0.89,142.2,M,16.4,M,,*5F
$GPGSA,A,3,02,05,13,20,19,12,15,30,07,29,,,1.71,0.89,1.46*00
$GPGSV,4,1,15,02,63,029,35,05,48,293,34,06,41,085,,07,07,072,08*77
$GPGSV,4,2,15,09,05,037,12,12,16,243,30,13,43,184,39,15,18,211,34*78
$GPGSV,4,3,15,17,01,151,,19,22,154,18,20,41,290,30,25,08,277,23*7A
$GPGSV,4,4,15,29,12,322,23,30,14,109,11,50,51,133,37*4D
$GPGLL,2458.23955,N,12111.60039,E,094612.00,A,A*6C
$GPRMC,094613.00,A,2458.23968,N,12111.60061,E,0.346,,080621,,,A*7B
$GPVTG,,T,,M,0.346,N,0.641,K,A*21
$GPGGA,094613.00,2458.23968,N,12111.60061,E,1,10,0.77,141.3,M,16.4,M,,*5E
$GPGSA,A,3,02,05,13,20,19,12,15,30,07,29,,,1.52,0.77,1.31*00
$GPGSV,4,1,15,02,63,029,35,05,48,293,35,06,41,085,,07,07,072,08*76
$GPGSV,4,2,15,09,05,037,12,12,16,243,30,13,43,184,39,15,18,211,34*78
$GPGSV,4,3,15,17,01,151,,19,22,154,18,20,41,290,29,25,08,277,23*72
$GPRMC,094617.00,A,2458.23984,N,12111.60102,E,0.143,,080621,,,A*7E
$GPVTG,,T,,M,0.143,N,0.264,K,A*25
$GPGGA,094617.00,2458.23984,N,12111.60102,E,1,10,1.56,140.3,M,16.4,M,,*5F
$GPGSA,A,3,02,05,06,13,20,19,12,15,30,29,,,2.59,1.56,2.07*0D
$GPGSV,4,1,15,02,63,029,35,05,48,293,34,06,41,085,17,07,07,072,*79
$GPGSV,4,2,15,09,05,037,10,12,16,243,31,13,43,184,37,15,18,211,34*75
$GPGSV,4,3,15,17,01,151,,19,22,154,19,20,41,290,29,25,08,277,22*72
$GPGSV,4,4,15,29,13,322,21,30,14,109,09,50,51,133,38*48
$GPGLL,2458.23984,N,12111.60102,E,094617.00,A,A*6C
$GPRMC,094618.00,A,2458.23984,N,12111.60110,E,0.068,,080621,,,A*7A
$GPVTG,,T,,M,0.068,N,0.126,K,A*28
$GPGGA,094618.00,2458.23984,N,12111.60110,E,1,10,1.05,140.2,M,16.4,M,,*54
$GPGSA,A,3,02,05,06,13,20,19,12,15,30,29,,,2.11,1.05,1.83*08
$GPGSV,4,1,15,02,63,029,35,05,48,293,34,06,41,085,17,07,07,072,*79
$GPGSV,4,2,15,09,05,037,10,12,16,243,31,13,43,184,36,15,18,211,34*74
$GPGSV,4,3,15,17,01,151,,19,22,154,19,20,41,290,29,25,08,277,22*72
$GPGSV,4,4,15,29,13,322,21,30,15,108,10,50,51,133,37*4F
$GPGLL,2458.23984,N,12111.60110,E,094618.00,A,A*60
$GPRMC,094619.00,A,2458.23987,N,12111.60126,E,0.131,,080621,,,A*70
$GPVTG,,T,,M,0.131,N,0.243,K,A*25
$GPGGA,094619.00,2458.23987,N,12111.60126,E,1,10,1.05,139.8,M,16.4,M,,*57
$GPGSA,A,3,02,05,06,13,20,19,12,15,30,29,,,2.11,1.05,1.83*08
$GPGSV,4,1,15,02,63,029,35,05,48,293,33,06,41,085,18,07,07,072,*71
$GPGSV,4,2,15,09,05,037,10,12,16,243,31,13,43,184,36,15,18,211,34*74
$GPGSV,4,3,15,17,01,151,,19,22,154,19,20,41,290,29,25,08,277,23*73
$GPGSV,4,4,15,29,13,322,21,30,15,108,10,50,51,133,38*40
$GPGLL,2458.23987,N,12111.60126,E,094619.00,A,A*67
$GPRMC,094620.00,A,2458.23988,N,12111.60138,E,0.123,,080621,,,A*79
$GPVTG,,T,,M,0.123,N,0.229,K,A*2A
$GPGGA,094620.00,2458.23988,N,12111.60138,E,1,10,1.05,139.6,M,16.4,M,,*53
$GPGSA,A,3,02,05,06,13,20,19,12,15,30,29,,,2.11,1.05,1.83*08
$GPGSV,4,1,15,02,63,029,35,05,48,293,33,06,41,085,18,07,07,072,*71
$GPGSV,4,2,15,09,05,037,10,12,16,243,31,13,43,184,36,15,18,211,34*74
$GPGSV,4,3,15,17,01,151,,19,22,154,19,20,41,290,30,25,08,277,23*7B
$GPGSV,4,4,15,29,13,322,20,30,15,108,10,50,51,133,38*41
$GPGLL,2458.23988,N,12111.60138,E,094620.00,A,A*6D
$GPRMC,094621.00,A,2458.23987,N,12111.60145,E,0.052,,080621,,,A*7A
$GPVTG,,T,,M,0.052,N,0.095,K,A*28
$GPGGA,094621.00,2458.23987,N,12111.60145,E,1,10,1.05,139.6,M,16.4,M,,*57
$GPGSA,A,3,02,05,06,13,20,19,12,15,30,29,,,2.11,1.05,1.83*08
$GPGSV,4,1,15,02,63,029,35,05,48,293,33,06,41,085,19,07,07,072,*70
$GPGSV,4,2,15,09,05,037,10,12,16,243,32,13,43,184,36,15,18,211,34*77
$GPGSV,4,3,15,17,01,151,,19,22,154,20,20,41,290,30,25,08,277,23*71
$GPGSV,4,4,15,29,13,322,20,30,15,108,10,50,51,133,37*4E
$GPGLL,2458.23987,N,12111.60145,E,094621.00,A,A*69
$GPRMC,094622.00,A,2458.23986,N,12111.60155,E,0.052,,080621,,,A*79
$GPVTG,,T,,M,0.052,N,0.097,K,A*2A
$GPGGA,094622.00,2458.23986,N,12111.60155,E,1,10,1.05,139.5,M,16.4,M,,*57
$GPGSA,A,3,02,05,06,13,20,19,12,15,30,29,,,2.11,1.05,1.83*08
$GPGSV,4,1,15,02,63,029,35,05,48,293,32,06,41,085,20,07,07,072,*7B
$GPGSV,4,2,15,09,05,037,10,12,16,243,32,13,43,184,36,15,18,211,34*77
$GPGSV,4,3,15,17,01,151,,19,22,154,20,20,41,290,30,25,08,277,22*70
$GPGSV,4,4,15,29,13,322,20,30,15,108,10,50,51,133,37*4E
$GPGLL,2458.23986,N,12111.60155,E,094622.00,A,A*6A
$GPRMC,094623.00,A,2458.23982,N,12111.60165,E,0.132,,080621,,,A*78
$GPVTG,,T,,M,0.132,N,0.245,K,A*20
$GPGGA,094623.00,2458.23982,N,12111.60165,E,1,10,1.05,139.5,M,16.4,M,,*51
$GPGSA,A,3,02,05,06,13,20,19,12,15,30,29,,,2.11,1.05,1.83*08
$GPGSV,4,1,15,02,63,029,35,05,48,293,32,06,41,085,21,07,07,072,*7A
$GPGSV,4,2,15,09,05,037,08,12,16,243,32,13,43,184,37,15,18,211,34*7F
$GPGSV,4,3,15,17,01,151,,19,22,154,19,20,41,290,29,25,08,277,22*72
$GPGSV,4,4,15,29,13,322,20,30,15,108,10,50,51,133,37*4E
$GPGLL,2458.23982,N,12111.60165,E,094623.00,A,A*6C
$GPRMC,094624.00,A,2458.23976,N,12111.60173,E,0.123,,080621,,,A*73
$GPVTG,,T,,M,0.123,N,0.227,K,A*24
$GPGGA,094624.00,2458.23976,N,12111.60173,E,1,10,1.05,139.6,M,16.4,M,,*59
$GPGSA,A,3,02,05,06,13,20,19,12,15,30,29,,,2.11,1.05,1.83*08
$GPGSV,4,1,15,02,63,029,36,05,48,293,32,06,41,085,21,07,07,072,*79
$GPGSV,4,2,15,09,05,037,08,12,16,243,33,13,43,184,37,15,18,211,34*7E
$GPGSV,4,3,15,17,01,151,,19,22,154,19,20,41,290,29,25,08,277,22*72
$GPGSV,4,4,15,29,13,322,21,30,15,108,10,50,51,133,37*4F
$GPGLL,2458.23976,N,12111.60173,E,094624.00,A,A*67
$GPRMC,094625.00,A,2458.23969,N,12111.60180,E,0.114,,080621,,,A*74
$GPVTG,,T,,M,0.114,N,0.212,K,A*26
$GPGGA,094625.00,2458.23969,N,12111.60180,E,1,10,1.05,139.8,M,16.4,M,,*54
$GPGSA,A,3,02,05,06,13,20,19,12,15,30,29,,,2.11,1.05,1.83*08
$GPGSV,4,1,15,02,63,029,36,05,48,293,32,06,41,085,22,07,07,072,*7A
$GPGSV,4,2,15,09,05,037,08,12,16,243,33,13,43,184,37,15,18,211,34*7E
$GPGSV,4,3,15,17,01,151,,19,22,154,20,20,41,290,29,25,08,277,22*78
$GPGSV,4,4,15,29,13,322,21,30,15,108,10,50,51,133,37*4F
$GPGLL,2458.23969,N,12111.60180,E,094625.00,A,A*64
$GPRMC,094626.00,A,2458.23970,N,12111.60199,E,0.297,,080621,,,A*7F
$GPVTG,,T,,M,0.297,N,0.551,K,A*2E
$GPGGA,094626.00,2458.23970,N,12111.60199,E,1,10,0.87,139.3,M,16.4,M,,*57
$GPGSA,A,3,02,05,06,13,20,19,12,15,30,29,,,1.70,0.87,1.45*0D
$GPGSV,4,1,15,02,63,029,36,05,48,293,31,06,41,085,23,07,07,072,*78
$GPGSV,4,2,15,09,05,037,08,12,16,243,33,13,43,184,37,15,18,211,34*7E
$GPGSV,4,3,15,17,01,151,,19,22,154,20,20,41,290,30,25,08,277,22*70
$GPGSV,4,4,15,29,13,322,21,30,15,108,10,50,51,133,37*4F
$GPGLL,2458.23970,N,12111.60199,E,094626.00,A,A*67
$GPRMC,094627.00,A,2458.23968,N,12111.60222,E,0.474,,080621,,,A*7F
$GPVTG,,T,,M,0.474,N,0.877,K,A*2C
$GPGGA,094627.00,2458.23968,N,12111.60222,E,1,10,0.87,138.9,M,16.4,M,,*57
$GPGSA,A,3,02,05,06,13,20,19,12,15,30,29,,,1.70,0.87,1.46*0E
$GPGSV,4,1,15,02,63,029,36,05,48,293,31,06,41,085,23,07,07,072,*78
$GPGSV,4,2,15,09,05,037,08,12,16,243,33,13,43,184,38,15,18,211,34*71
$GPGSV,4,3,15,17,01,151,,19,22,154,19,20,41,290,29,25,08,277,22*72
$GPGSV,4,4,15,29,13,322,20,30,15,108,10,50,51,133,37*4E
$GPGLL,2458.23968,N,12111.60222,E,094627.00,A,A*6C
$GPRMC,094628.00,A,2458.23964,N,12111.60239,E,0.384,,080621,,,A*7E
$GPVTG,,T,,M,0.384,N,0.711,K,A*2B
$GPGGA,094628.00,2458.23964,N,12111.60239,E,1,10,0.87,138.6,M,16.4,M,,*51
$GPGSA,A,3,02,05,06,13,20,19,12,15,30,29,,,1.70,0.87,1.46*0E
$GPGSV,4,1,15,02,63,029,36,05,48,293,31,06,41,085,22,07,07,072,*79
$GPGSV,4,2,15,09,05,037,,12,16,243,33,13,43,184,38,15,18,211,34*79
$GPGSV,4,3,15,17,01,151,,19,22,154,19,20,41,290,29,25,08,277,21*71
$GPGSV,4,4,15,29,13,322,20,30,15,108,10,50,51,133,38*41
$GPGLL,2458.23964,N,12111.60239,E,094628.00,A,A*65
$GPRMC,094629.00,A,2458.23967,N,12111.60261,E,0.589,,080621,,,A*7A
$GPVTG,,T,,M,0.589,N,1.090,K,A*2F
$GPGGA,094629.00,2458.23967,N,12111.60261,E,1,10,0.87,138.1,M,16.4,M,,*59
$GPGSA,A,3,02,05,06,13,20,19,12,15,30,29,,,1.70,0.87,1.46*0E
$GPGSV,4,1,15,02,63,029,36,05,48,293,31,06,41,085,23,07,07,072,*78
$GPGSV,4,2,15,09,05,037,,12,16,243,34,13,43,184,38,15,18,211,34*7E
$GPGSV,4,3,15,17,01,151,,19,22,154,19,20,41,290,29,25,08,277,21*71
$GPGSV,4,4,15,29,13,322,20,30,15,108,07,50,51,133,37*48
$GPGLL,2458.23967,N,12111.60261,E,094629.00,A,A*6A
$GPRMC,094630.00,A,2458.23958,N,12111.60257,E,0.261,,080621,,,A*7A
$GPVTG,,T,,M,0.261,N,0.484,K,A*2E
$GPGGA,094630.00,2458.23958,N,12111.60257,E,1,10,1.05,138.5,M,16.4,M,,*57
$GPGSA,A,3,02,05,06,13,20,19,12,15,30,29,,,2.11,1.05,1.83*08
$GPGSV,4,1,15,02,63,029,37,05,48,293,30,06,41,085,23,07,07,072,*78
$GPGSV,4,2,15,09,05,037,,12,16,243,34,13,43,184,39,15,18,211,34*7F
$GPGSV,4,3,15,17,01,151,,19,22,154,18,20,41,290,29,25,08,277,21*70
$GPGSV,4,4,15,29,13,322,20,30,15,108,07,50,51,133,38*47
$GPGLL,2458.23958,N,12111.60257,E,094630.00,A,A*6B
$GPRMC,094631.00,A,2458.23957,N,12111.60269,E,0.449,,080621,,,A*75
$GPVTG,,T,,M,0.449,N,0.831,K,A*20
$GPGGA,094631.00,2458.23957,N,12111.60269,E,1,10,1.05,138.2,M,16.4,M,,*53
$GPGSA,A,3,02,05,06,13,20,19,12,15,30,29,,,2.11,1.05,1.83*08
$GPGSV,4,1,15,02,63,029,37,05,48,293,29,06,41,085,23,07,07,072,*70
$GPGSV,4,2,15,09,05,037,,12,16,243,33,13,43,184,39,15,18,211,34*78
