$GPGSA,A,3,02,13,05,20,06,15,29,30,19,12,07,,1.63,0.89,1.36*02
$GPGSV,3,1,12,02,65,046,32,05,50,304,20,06,37,094,38,07,08,065,31*75
$GPGSV,3,2,12,12,12,237,19,13,51,183,28,15,24,214,21,19,15,156,30*78
$GPGSV,3,3,12,20,44,299,13,25,06,270,09,29,18,320,15,30,17,102,36*71
$GPGLL,2458.20008,N,12111.61199,E,100214.00,A,A*6A
$GPRMC,100215.00,A,2458.19972,N,12111.61239,E,0.103,,080621,,,A*7A
$GPVTG,,T,,M,0.103,N,0.191,K,A*28
$GPGGA,100215.00,2458.19972,N,12111.61239,E,1,11,0.89,141.3,M,16.4,M,,*5C
$GPGSA,A,3,02,13,05,20,06,15,29,30,19,12,07,,1.63,0.89,1.36*02
$GPGSV,3,1,12,02,65,046,32,05,50,304,17,06,37,094,37,07,08,065,30*7F
$GPGSV,3,2,12,12,12,237,17,13,51,183,28,15,24,214,21,19,15,156,30*76
$GPGSV,3,3,12,20,44,299,13,25,06,270,08,29,18,320,15,30,17,102,36*70
$GPGLL,2458.19972,N,12111.61239,E,100215.00,A,A*6C
$GPRMC,100216.00,A,2458.19943,N,12111.61280,E,0.136,,080621,,,A*7F
$GPVTG,,T,,M,0.136,N,0.252,K,A*22
$GPGGA,100216.00,2458.19943,N,12111.61280,E,1,11,0.75,141.2,M,16.4,M,,*5D
$GPGSA,A,3,02,13,05,20,06,15,29,30,19,12,07,,1.44,0.75,1.22*01
$GPGSV,3,1,12,02,65,046,31,05,50,304,17,06,37,094,37,07,08,065,30*7C
$GPGSV,3,2,12,12,12,237,17,13,51,183,27,15,25,214,23,19,15,156,31*7B
$GPGSV,3,3,12,20,44,299,15,25,06,270,08,29,18,320,14,30,17,102,35*74
$GPGLL,2458.19943,N,12111.61280,E,100216.00,A,A*6F
$GPRMC,100217.00,A,2458.19916,N,12111.61297,E,0.275,,080621,,,A*7C
$GPVTG,,T,,M,0.275,N,0.509,K,A*2F
$GPGGA,100217.00,2458.19916,N,12111.61297,E,1,11,0.75,141.6,M,16.4,M,,*5E
$GPGSA,A,3,02,13,05,20,06,15,29,30,19,12,07,,1.44,0.75,1.22*01
$GPGSV,3,1,12,02,65,046,30,05,50,304,16,06,37,094,37,07,08,065,29*74
$GPGSV,3,2,12,12,12,237,16,13,51,183,28,15,25,214,23,19,15,156,32*76
$GPGSV,3,3,12,20,44,299,18,25,06,270,08,29,18,320,12,30,17,102,35*7F
$GPGLL,2458.19916,N,12111.61297,E,100217.00,A,A*68
$GPRMC,100218.00,A,2458.19866,N,12111.61241,E,1.273,,080621,,,A*79
$GPVTG,,T,,M,1.273,N,2.357,K,A*27
$GPGGA,100218.00,2458.19866,N,12111.61241,E,1,11,0.75,142.1,M,16.4,M,,*58
$GPGSA,A,3,02,13,05,20,06,15,29,30,19,12,07,,1.44,0.75,1.22*01
$GPGSV,3,1,12,02,65,046,33,05,50,304,17,06,37,094,36,07,08,065,29*77
$GPGSV,3,2,12,12,12,237,18,13,51,183,33,15,25,214,24,19,15,156,26*70
$GPGSV,3,3,12,20,44,299,19,25,06,270,08,29,18,320,13,30,17,102,29*72
$GPGLL,2458.19866,N,12111.61241,E,100218.00,A,A*6A
$GPRMC,100219.00,A,2458.19856,N,12111.61156,E,0.133,,080621,,,A*78
$GPVTG,,T,,M,0.133,N,0.246,K,A*22
$GPGGA,100219.00,2458.19856,N,12111.61156,E,1,11,0.75,141.8,M,16.4,M,,*55
$GPGSA,A,3,02,13,05,20,06,15,29,30,19,12,07,,1.44,0.75,1.22*01
$GPGSV,3,1,12,02,65,046,28,05,50,304,29,06,37,094,25,07,08,065,19*71
$GPGSV,3,2,12,12,12,237,21,13,51,183,34,15,25,214,23,19,15,156,27*7B
$GPGSV,3,3,12,20,44,299,29,25,06,270,08,29,18,320,17,30,17,102,26*7A
$GPGLL,2458.19856,N,12111.61156,E,100219.00,A,A*6D
$GPRMC,100220.00,A,2458.19796,N,12111.61088,E,0.396,,080621,,,A*7E
$GPVTG,,T,,M,0.396,N,0.734,K,A*2F
$GPGGA,100220.00,2458.19796,N,12111.61088,E,1,11,0.75,142.9,M,16.4,M,,*5C
$GPGSA,A,3,02,13,05,20,06,15,29,30,19,12,07,,1.44,0.75,1.22*01
$GPGSV,3,1,12,02,65,046,29,05,50,304,29,06,37,094,32,07,08,065,29*75
$GPGSV,3,2,12,12,12,237,20,13,51,183,36,15,25,214,21,19,15,156,31*7D
$GPGSV,3,3,12,20,44,299,30,25,06,270,08,29,18,320,19,30,17,102,32*79
$GPGLL,2458.19796,N,12111.61088,E,100220.00,A,A*66
$GPRMC,100221.00,A,2458.19810,N,12111.61073,E,0.312,,080621,,,A*76
$GPVTG,,T,,M,0.312,N,0.578,K,A*29
$GPGGA,100221.00,2458.19810,N,12111.61073,E,1,11,0.75,142.9,M,16.4,M,,*58
$GPGSA,A,3,02,13,05,20,06,15,29,30,19,12,07,,1.44,0.75,1.22*01
$GPGSV,3,1,12,02,65,046,31,05,50,304,28,06,37,094,32,07,08,065,30*75
$GPGSV,3,2,12,12,12,237,20,13,51,183,31,15,25,214,19,19,15,156,25*74
$GPGSV,3,3,12,20,44,299,27,25,06,270,08,29,18,320,19,30,17,102,27*7B
$GPGLL,2458.19810,N,12111.61073,E,100221.00,A,A*62
$GPRMC,100222.00,A,2458.19808,N,12111.61057,E,0.304,,080621,,,A*7D
$GPVTG,,T,,M,0.304,N,0.564,K,A*23
$GPGGA,100222.00,2458.19808,N,12111.61057,E,1,11,0.75,142.9,M,16.4,M,,*54
$GPGSA,A,3,02,13,05,20,06,15,29,30,19,12,07,,1.44,0.75,1.22*01
$GPGSV,3,1,12,02,65,046,31,05,50,304,28,06,37,094,33,07,08,065,30*74
$GPGSV,3,2,12,12,12,237,18,13,51,183,29,15,25,214,19,19,15,156,22*71
$GPGSV,3,3,12,20,44,299,18,25,06,270,08,29,18,320,19,30,17,102,32*73
$GPGLL,2458.19808,N,12111.61057,E,100222.00,A,A*6E
$GPRMC,100223.00,A,2458.19811,N,12111.61042,E,0.543,,080621,,,A*75
$GPVTG,,T,,M,0.543,N,1.005,K,A*25
$GPGGA,100223.00,2458.19811,N,12111.61042,E,1,11,0.75,142.6,M,16.4,M,,*56
$GPGSA,A,3,02,13,05,20,06,15,29,30,19,12,07,,1.44,0.75,1.22*01
$GPGSV,3,1,12,02,65,046,31,05,50,304,28,06,37,094,33,07,08,065,31*75
$GPGSV,3,2,12,12,12,237,16,13,51,183,29,15,25,214,19,19,15,156,20*7D
$GPGSV,3,3,12,20,44,299,20,25,06,270,08,29,18,320,21,30,17,102,27*77
$GPGLL,2458.19811,N,12111.61042,E,100223.00,A,A*63
$GPRMC,100224.00,A,2458.19816,N,12111.61029,E,0.512,,080621,,,A*7C
$GPVTG,,T,,M,0.512,N,0.949,K,A*21
$GPGGA,100224.00,2458.19816,N,12111.61029,E,1,11,0.75,142.7,M,16.4,M,,*5A
$GPGSA,A,3,02,13,05,20,06,15,29,30,19,12,07,,1.44,0.75,1.22*01
$GPGSV,3,1,12,02,65,046,31,05,50,304,28,06,37,094,34,07,08,065,31*72
$GPGSV,3,2,12,12,12,237,14,13,51,183,29,15,25,214,20,19,15,156,19*7F
$GPGSV,3,3,12,20,44,299,21,25,06,270,08,29,18,320,21,30,17,102,28*79
$GPGLL,2458.19816,N,12111.61029,E,100224.00,A,A*6E
$GPRMC,100225.00,A,2458.19812,N,12111.61022,E,0.342,,080621,,,A*71
$GPVTG,,T,,M,0.342,N,0.633,K,A*20
$GPGGA,100225.00,2458.19812,N,12111.61022,E,1,11,0.75,143.0,M,16.4,M,,*52
$GPGSA,A,3,02,13,05,20,06,15,29,30,19,12,07,,1.44,0.75,1.22*01
$GPGSV,3,1,12,02,65,046,31,05,50,304,27,06,37,094,33,07,08,065,31*7A
$GPGSV,3,2,12,12,12,237,15,13,51,183,28,15,25,214,19,19,15,156,18*74
$GPGSV,3,3,12,20,44,299,21,25,06,270,08,29,18,320,21,30,17,102,29*78
$GPGLL,2458.19812,N,12111.61022,E,100225.00,A,A*60

$GPRMC,100229.00,A,2458.19737,N,12111.61622,E,0.150,,080621,,,A*72
$GPVTG,,T,,M,0.150,N,0.277,K,A*25
$GPGGA,100229.00,2458.19737,N,12111.61622,E,1,11,1.60,160.7,M,16.4,M,,*53
$GPGSA,A,3,02,13,05,20,06,15,29,30,19,12,07,,2.74,1.60,2.22*07
$GPGSV,3,1,12,02,65,046,30,05,50,305,26,06,37,094,33,07,08,065,30*7A
$GPGSV,3,2,12,12,12,237,17,13,51,183,29,15,25,214,19,19,15,156,21*7D
$GPGSV,3,3,12,20,44,299,22,25,06,270,,29,19,319,20,30,17,102,29*79
$GPGLL,2458.19737,N,12111.61622,E,100229.00,A,A*62
$GPRMC,100230.00,A,2458.19932,N,12111.61488,E,0.647,,080621,,,A*72
$GPVTG,,T,,M,0.647,N,1.198,K,A*27
$GPGGA,100230.00,2458.19932,N,12111.61488,E,1,11,1.06,154.9,M,16.4,M,,*5B
$GPGSA,A,3,02,13,05,20,06,15,29,30,19,12,07,,1.98,1.06,1.67*04
$GPGSV,3,1,12,02,65,046,30,05,50,305,25,06,37,094,32,07,08,065,30*78
$GPGSV,3,2,12,12,12,237,16,13,51,183,28,15,25,214,19,19,15,156,21*7D
$GPGSV,3,3,12,20,44,299,22,25,06,270,,29,19,319,19,30,17,102,28*72
$GPGLL,2458.19932,N,12111.61488,E,100230.00,A,A*63
$GPVTG,,T,,M,0.661,N,1.223,K,A*20
$GPGGA,100231.00,2458.19904,N,12111.61360,E,1,11,0.82,150.1,M,16.4,M,,*5F
$GPGSA,A,3,02,13,05,20,06,15,29,30,19,12,07,,1.58,0.82,1.35*02
$GPGSV,3,1,12,02,65,046,30,05,50,305,25,06,37,094,33,07,08,065,30*79
$GPGSV,3,2,12,12,12,237,16,13,51,183,29,15,25,214,19,19,15,156,22*7F
$GPGSV,3,3,12,20,44,299,23,25,06,270,,29,19,319,19,30,17,102,27*7C
$GPGLL,2458.19904,N,12111.61360,E,100231.00,A,A*66
$GPRMC,100232.00,A,2458.19829,N,12111.61247,E,0.673,,080621,,,A*79
$GPVTG,,T,,M,0.673,N,1.246,K,A*20
$GPGGA,100232.00,2458.19829,N,12111.61247,E,1,11,0.75,145.6,M,16.4,M,,*5D
$GPGSA,A,3,02,13,05,20,06,15,29,30,19,12,07,,1.44,0.75,1.22*01
$GPGSV,3,1,12,02,65,046,30,05,50,305,26,06,37,094,33,07,08,065,30*7A
$GPGSV,3,2,12,12,12,237,16,13,51,183,29,15,25,214,19,19,15,156,23*7E
$GPGSV,3,3,12,20,44,299,24,25,06,270,,29,19,319,19,30,17,102,28*74
$GPGLL,2458.19829,N,12111.61247,E,100232.00,A,A*6F
$GPRMC,100233.00,A,2458.19847,N,12111.61207,E,0.330,,080621,,,A*76
$GPVTG,,T,,M,0.330,N,0.610,K,A*24
$GPGGA,100233.00,2458.19847,N,12111.61207,E,1,11,0.75,143.9,M,16.4,M,,*59
$GPGSA,A,3,02,13,05,20,06,15,29,30,19,12,07,,1.44,0.75,1.22*01
$GPGSV,3,1,12,02,65,046,30,05,50,305,26,06,37,094,33,07,08,065,30*7A
$GPGSV,3,2,12,12,12,237,16,13,51,183,30,15,25,214,20,19,15,156,23*7C
$GPGSV,3,3,12,20,44,299,24,25,06,270,,29,19,319,19,30,17,102,27*7B
$GPGLL,2458.19847,N,12111.61207,E,100233.00,A,A*62
$GPRMC,100234.00,A,2458.19839,N,12111.61191,E,0.529,,080621,,,A*7A
$GPVTG,,T,,M,0.529,N,0.980,K,A*2C
$GPGGA,100234.00,2458.19839,N,12111.61191,E,1,11,0.75,142.1,M,16.4,M,,*52
$GPGSA,A,3,02,13,05,20,06,15,29,30,19,12,07,,1.44,0.75,1.22*01
$GPGSV,3,1,12,02,65,046,31,05,50,305,26,06,37,094,33,07,08,065,30*7B
$GPGSV,3,2,12,12,12,237,17,13,51,183,30,15,25,214,21,19,15,156,23*7C
$GPGSV,3,3,12,20,44,299,24,25,06,270,,29,19,319,19,30,17,102,28*74
$GPGLL,2458.19839,N,12111.61191,E,100234.00,A,A*60
$GPRMC,100235.00,A,2458.19864,N,12111.61186,E,0.197,,080621,,,A*74
$GPVTG,,T,,M,0.197,N,0.365,K,A*2C
$GPGGA,100235.00,2458.19864,N,12111.61186,E,1,11,0.75,141.4,M,16.4,M,,*5B
$GPGSA,A,3,02,13,05,20,06,15,29,30,19,12,07,,1.44,0.75,1.22*01
$GPGSV,3,1,12,02,65,046,31,05,50,305,26,06,37,094,33,07,08,065,30*7B
$GPGSV,3,2,12,12,12,237,17,13,51,183,30,15,25,214,22,19,15,156,23*7F
$GPGSV,3,3,12,20,44,299,24,25,06,270,,29,19,319,20,30,17,102,28*7E
$GPGLL,2458.19864,N,12111.61186,E,100235.00,A,A*6F
$GPRMC,100238.73,V,,,,,,,080621,,,N*7C
$GPVTG,,,,,,,,,N*30
$GPGGA,100238.73,,,,,0,00,99.99,,,,,,*6A
$GPGSA,A,1,,,,,,,,,,,,,99.99,99.99,99.99*30
$GPGSV,3,1,12,02,65,046,,05,50,305,,06,37,094,,07,08,065,*7E
$GPGSV,3,2,12,12,12,237,,13,52,183,,15,25,214,,19,15,156,*78
$GPGSV,3,3,12,20,44,299,,25,06,270,,29,19,319,,30,17,101,*73
$GPGLL,,,,,100238.73,V,N*46
$GPRMC,100239.00,V,,,,,,,080621,,,N*79
$GPVTG,,,,,,,,,N*30
$GPGGA,100239.00,,,,,0,00,99.99,,,,,,*6F
$GPGSA,A,1,,,,,,,,,,,,,99.99,99.99,99.99*30
$GPGSV,3,1,12,02,65,046,31,05,50,305,,06,37,094,33,07,08,065,*7C
$GPGSV,3,2,12,12,12,237,,13,52,183,,15,25,214,,19,15,156,*78
$GPGSV,3,3,12,20,44,299,,25,06,270,,29,19,319,,30,17,101,31*71
$GPGLL,,,,,100239.00,V,N*43
$GPRMC,100239.50,V,,,,,,,080621,,,N*7C
$GPVTG,,,,,,,,,N*30
$GPGGA,100239.50,,,,,0,09,76.75,,,,,,*60
$GPGSA,A,1,02,13,05,06,15,29,30,19,07,,,,76.76,76.75,1.00*02
$GPGSV,3,1,12,02,65,046,31,05,50,305,19,06,37,094,33,07,08,065,28*7E
$GPGSV,3,2,12,12,12,237,,13,52,183,23,15,25,214,23,19,15,156,23*79
$GPGSV,3,3,12,20,44,299,22,25,06,270,,29,19,319,25,30,17,101,30*77
$GPGLL,,,,,100239.50,V,N*46
$GPRMC,100240.00,V,,,,,,,080621,,,N*77
$GPVTG,,,,,,,,,N*30
$GPGGA,100240.00,,,,,0,09,3.35,,,,,,*5D
$GPGSA,A,1,02,13,05,06,15,29,30,19,07,,,,3.50,3.35,0.99*03
$GPGSV,3,1,12,02,65,046,31,05,50,305,19,06,37,094,33,07,08,065,28*7E
$GPGSV,3,2,12,12,12,237,,13,52,183,22,15,25,214,23,19,15,156,23*78
$GPGSV,3,3,12,20,44,299,22,25,06,270,,29,19,319,24,30,17,101,30*76
$GPGLL,,,,,100240.00,V,N*4D
$GPVTG,,,,,,,,,N*30
$GPGGA,100241.00,,,,,0,10,9.95,,,,,,*54
$GPGSA,A,1,02,13,05,20,06,15,29,30,19,07,,,12.25,9.95,7.15*30
$GPGSV,3,3,12,20,44,299,21,25,06,270,,29,19,319,21,30,17,101,30*70
$GPGLL,,,,,100241.00,V,N*4C
$GPRMC,100242.00,A,2458.20049,N,12111.61217,E,0.815,,080621,,,A*71
$GPVTG,,T,,M,0.815,N,1.509,K,A*22
$GPGGA,100242.00,2458.20049,N,12111.61217,E,1,10,0.98,137.9,M,16.4,M,,*53
$GPGSA,A,3,02,13,05,20,06,15,29,30,19,07,,,1.88,0.98,1.61*06
$GPGSV,3,1,12,02,65,046,30,05,50,305,22,06,37,094,33,07,08,065,28*77
$GPGSV,3,2,12,12,12,237,,13,52,183,22,15,25,214,22,19,15,156,22*78
$GPGSV,3,3,12,20,44,299,21,25,06,270,,29,19,319,19,30,17,101,30*7B
$GPGLL,2458.20049,N,12111.61217,E,100242.00,A,A*69
$GPRMC,100243.00,A,2458.19916,N,12111.61297,E,0.588,,080621,,,A*78
$GPVTG,,T,,M,0.588,N,1.089,K,A*26
$GPGGA,100243.00,2458.19916,N,12111.61297,E,1,10,0.82,139.5,M,16.4,M,,*5A
$GPGSA,A,3,02,13,05,20,06,15,29,30,19,07,,,1.58,0.82,1.35*01
$GPGSV,3,1,12,02,65,046,31,05,50,305,29,06,37,094,34,07,08,065,29*7B
$GPGSV,3,2,12,12,12,237,,13,52,183,30,15,25,214,22,19,15,156,24*7D
$GPGSV,3,3,12,20,44,299,21,25,06,270,,29,19,319,20,30,17,101,30*71
$GPGLL,2458.19916,N,12111.61297,E,100243.00,A,A*69
$GPRMC,100244.00,A,2458.19790,N,12111.61178,E,0.915,,080621,,,A*75
$GPVTG,,T,,M,0.915,N,1.694,K,A*24
$GPGGA,100244.00,2458.19790,N,12111.61178,E,1,11,0.82,138.8,M,16.4,M,,*52
$GPGSA,A,3,02,13,05,20,06,15,29,30,19,12,07,,1.58,0.82,1.35*02
$GPGSV,3,1,12,02,65,046,35,05,50,305,33,06,37,094,31,07,08,065,31*78
$GPGSV,3,2,12,12,12,237,21,13,52,183,31,15,25,214,19,19,15,156,26*75
$GPGSV,3,3,12,20,44,299,20,25,06,270,,29,19,319,19,30,17,101,36*7C
$GPGLL,2458.19790,N,12111.61178,E,100244.00,A,A*6C
$GPRMC,100245.00,A,2458.19762,N,12111.61206,E,0.560,,080621,,,A*7D
$GPVTG,,T,,M,0.560,N,1.038,K,A*2A
$GPGGA,100245.00,2458.19762,N,12111.61206,E,1,11,0.82,140.4,M,16.4,M,,*57
$GPGSA,A,3,02,13,05,20,06,15,29,30,19,12,07,,1.58,0.82,1.35*02
$GPGSV,3,1,12,02,65,046,34,05,50,305,27,06,37,094,34,07,08,065,32*7A
$GPGSV,3,2,12,12,12,237,19,13,52,183,34,15,25,214,17,19,15,156,28*7B
$GPGSV,3,3,12,20,44,299,19,25,06,270,,29,19,319,21,30,17,101,36*7D
$GPGLL,2458.19762,N,12111.61206,E,100245.00,A,A*6A
$GPRMC,100246.00,A,2458.19749,N,12111.61181,E,0.360,,080621,,,A*7D
$GPVTG,,T,,M,0.360,N,0.667,K,A*21
$GPGGA,100246.00,2458.19749,N,12111.61181,E,1,11,0.82,141.2,M,16.4,M,,*56
$GPGSA,A,3,02,13,05,20,06,15,29,30,19,12,07,,1.58,0.82,1.35*02
$GPGSV,3,1,12,02,65,046,34,05,50,305,27,06,37,094,35,07,08,065,32*7B
$GPGSV,3,2,12,12,12,237,19,13,52,183,34,15,25,214,15,19,15,156,28*79
$GPGSV,3,3,12,20,44,299,17,25,06,270,,29,19,319,22,30,17,101,36*70
$GPGLL,2458.19749,N,12111.61181,E,100246.00,A,A*6C
$GPRMC,100247.00,A,2458.19738,N,12111.61169,E,0.118,,080621,,,A*71
$GPVTG,,T,,M,0.118,N,0.219,K,A*21
$GPGGA,100247.00,2458.19738,N,12111.61169,E,1,11,0.82,142.1,M,16.4,M,,*57
$GPGSA,A,3,02,13,05,20,06,15,29,30,19,12,07,,1.58,0.82,1.35*02
$GPGSV,3,1,12,02,65,046,34,05,50,305,27,06,37,094,34,07,08,065,32*7A
$GPGSV,3,2,12,12,12,237,18,13,52,183,33,15,25,214,16,19,15,156,28*7C
$GPGSV,3,3,12,20,44,299,18,25,06,270,,29,19,319,22,30,17,101,36*7F
$GPGLL,2458.19738,N,12111.61169,E,100247.00,A,A*6D
$GPRMC,100248.00,A,2458.19757,N,12111.61185,E,0.263,,080621,,,A*7A
$GPVTG,,T,,M,0.263,N,0.486,K,A*2E
$GPGGA,100248.00,2458.19757,N,12111.61185,E,1,11,0.82,143.0,M,16.4,M,,*53
$GPGSA,A,3,02,13,05,20,06,15,29,30,19,12,07,,1.58,0.82,1.35*02
$GPGSV,3,1,12,02,65,046,35,05,50,305,27,06,37,094,34,07,08,065,32*7B
$GPGSV,3,2,12,12,12,237,17,13,52,183,33,15,25,214,17,19,15,156,28*72
$GPGSV,3,3,12,20,44,299,18,25,06,270,,29,19,319,23,30,17,101,37*7F
$GPGLL,2458.19757,N,12111.61185,E,100248.00,A,A*69
$GPRMC,100249.00,A,2458.19752,N,12111.61190,E,0.232,,080621,,,A*7E
$GPVTG,,T,,M,0.232,N,0.430,K,A*27
$GPGGA,100249.00,2458.19752,N,12111.61190,E,1,11,0.82,143.7,M,16.4,M,,*54
$GPGSA,A,3,02,13,05,20,06,15,29,30,19,12,07,,1.58,0.82,1.35*02
$GPGSV,3,1,12,02,65,046,35,05,50,305,27,06,37,094,34,07,08,065,32*7B
$GPGSV,3,2,12,12,12,237,16,13,52,183,33,15,25,214,17,19,15,156,28*73
$GPGSV,3,3,12,20,44,299,19,25,06,270,,29,19,319,23,30,17,101,37*7E
$GPGLL,2458.19752,N,12111.61190,E,100249.00,A,A*69
$GPRMC,100250.00,A,2458.19743,N,12111.61184,E,0.098,,080621,,,A*71
$GPVTG,,T,,M,0.098,N,0.182,K,A*29
$GPGGA,100250.00,2458.19743,N,12111.61184,E,1,11,0.82,144.0,M,16.4,M,,*59
$GPGSA,A,3,02,13,05,20,06,15,29,30,19,12,07,,1.58,0.82,1.35*02
$GPGSV,3,1,12,02,65,046,34,05,50,305,26,06,37,094,34,07,08,065,32*7B
$GPGSV,3,2,12,12,12,237,13,13,52,183,33,15,25,214,17,19,15,156,28*76
$GPGSV,3,3,12,20,44,299,20,25,06,270,,29,19,319,24,30,17,101,37*73
$GPGLL,2458.19743,N,12111.61184,E,100250.00,A,A*64
$GPRMC,100251.00,A,2458.19743,N,12111.61192,E,0.233,,080621,,,A*74
$GPVTG,,T,,M,0.233,N,0.432,K,A*24
$GPGGA,100251.00,2458.19743,N,12111.61192,E,1,11,0.75,144.6,M,16.4,M,,*51
$GPGSA,A,3,02,13,05,20,06,15,29,30,19,12,07,,1.44,0.75,1.22*01
$GPGSV,3,1,12,02,65,046,34,05,50,305,26,06,37,094,34,07,08,065,32*7B
$GPGSV,3,2,12,12,12,237,14,13,52,183,33,15,25,214,17,19,15,156,27*7E
$GPRMC,100252.00,A,2458.19740,N,12111.61188,E,0.213,,080621,,,A*7D
$GPVTG,,T,,M,0.213,N,0.394,K,A*2D
$GPRMC,100253.00,A,2458.19731,N,12111.61168,E,0.448,,080621,,,A*7C
$GPVTG,,T,,M,0.448,N,0.830,K,A*20
$GPRMC,100254.00,A,2458.19719,N,12111.61155,E,0.284,,080621,,,A*79
$GPVTG,,T,,M,0.284,N,0.526,K,A*2C
$GPGGA,100254.00,2458.19719,N,12111.61155,E,1,11,0.75,145.3,M,16.4,M,,*54
$GPGSA,A,3,02,13,05,20,06,15,29,30,19,12,07,,1.44,0.75,1.22*01
$GPGSV,3,1,12,02,65,046,34,05,50,305,25,06,37,094,34,07,08,065,32*78
$GPGSV,3,2,12,12,12,237,14,13,52,183,32,15,25,214,16,19,15,156,26*7F
$GPGSV,3,3,12,20,44,299,21,25,06,270,,29,19,319,23,30,17,101,37*75
$GPGLL,2458.19719,N,12111.61155,E,100254.00,A,A*63
$GPRMC,100255.00,A,2458.19710,N,12111.61144,E,0.056,,080621,,,A*7C
$GPVTG,,T,,M,0.056,N,0.103,K,A*22
$GPGGA,100255.00,2458.19710,N,12111.61144,E,1,11,0.75,145.4,M,16.4,M,,*5B
$GPGSA,A,3,02,13,05,20,06,15,29,30,19,12,07,,1.44,0.75,1.22*01
$GPGSV,3,1,12,02,65,046,34,05,50,305,25,06,37,094,34,07,08,065,32*78
$GPGSV,3,2,12,12,12,237,14,13,52,183,32,15,25,214,15,19,15,156,25*7F
$GPRMC,100256.00,A,2458.19697,N,12111.61141,E,0.196,,080621,,,A*79
$GPVTG,,T,,M,0.196,N,0.363,K,A*2B
$GPGGA,100256.00,2458.19697,N,12111.61141,E,1,11,0.75,145.5,M,16.4,M,,*52
$GPGSA,A,3,02,13,05,20,06,15,29,30,19,12,07,,1.44,0.75,1.22*01
$GPGSV,3,1,12,02,65,046,35,05,50,305,26,06,37,094,34,07,08,065,32*7A
$GPRMC,100257.00,A,2458.19687,N,12111.61126,E,0.228,,080621,,,A*7E
$GPVTG,,T,,M,0.228,N,0.423,K,A*2E
$GPGGA,100257.00,2458.19687,N,12111.61126,E,1,11,0.75,145.1,M,16.4,M,,*57
$GPRMC,100258.00,A,2458.19676,N,12111.61112,E,0.337,,080621,,,A*77
$GPVTG,,T,,M,0.337,N,0.625,K,A*25
$GPGGA,100258.00,2458.19676,N,12111.61112,E,1,11,0.75,144.9,M,16.4,M,,*58
$GPGSA,A,3,02,13,05,20,06,15,29,30,19,12,07,,1.44,0.75,1.22*01
$GPGSV,3,1,12,02,65,046,35,05,50,305,26,06,37,094,34,07,08,065,32*7A
$GPGSV,3,2,12,12,12,237,17,13,52,183,31,15,25,214,17,19,15,156,26*7E
$GPRMC,100259.00,A,2458.19659,N,12111.61101,E,0.271,,080621,,,A*7A
$GPVTG,,T,,M,0.271,N,0.502,K,A*20
$GPGGA,100259.00,2458.19659,N,12111.61101,E,1,11,0.75,144.5,M,16.4,M,,*5A
$GPGSA,A,3,02,13,05,20,06,15,29,30,19,12,07,,1.44,0.75,1.22*01
$GPGSV,3,1,12,02,65,046,36,05,50,305,26,06,37,094,34,07,08,065,32*79
$GPRMC,100300.00,A,2458.19645,N,12111.61087,E,0.409,,080621,,,A*7C
$GPVTG,,T,,M,0.409,N,0.758,K,A*24
$GPGGA,100300.00,2458.19645,N,12111.61087,E,1,11,0.75,144.1,M,16.4,M,,*51
$GPGSA,A,3,02,13,05,20,06,15,29,30,19,12,07,,1.44,0.75,1.22*01
$GPGSV,3,1,12,02,65,046,35,05,50,305,26,06,37,094,34,07,08,065,33*7B
$GPRMC,100301.00,A,2458.19649,N,12111.61086,E,0.932,,080621,,,A*75
$GPRMC,100302.00,A,2458.19641,N,12111.61083,E,0.122,,080621,,,A*72
$GPVTG,,T,,M,0.122,N,0.225,K,A*27
$GPGGA,100302.00,2458.19641,N,12111.61083,E,1,11,0.75,143.8,M,16.4,M,,*5D
$GPGSA,A,3,02,13,05,20,06,15,29,30,19,12,07,,1.44,0.75,1.22*01
$GPGSV,3,1,12,02,65,047,35,05,50,305,26,06,37,094,34,07,08,065,33*7A
$GPRMC,100303.00,A,2458.19628,N,12111.61070,E,0.190,,080621,,,A*79
$GPVTG,,T,,M,0.190,N,0.351,K,A*2C
$GPGGA,100303.00,2458.19628,N,12111.61070,E,1,11,0.75,143.5,M,16.4,M,,*52
$GPGSA,A,3,02,13,05,20,06,15,29,30,19,12,07,,1.44,0.75,1.22*01
$GPRMC,100304.00,A,2458.19609,N,12111.61049,E,0.503,,080621,,,A*79
$GPVTG,,T,,M,0.503,N,0.932,K,A*2D
$GPGGA,100304.00,2458.19609,N,12111.61049,E,1,11,0.75,143.1,M,16.4,M,,*58
$GPRMC,100305.00,A,2458.19596,N,12111.61050,E,0.121,,080621,,,A*71
$GPVTG,,T,,M,0.121,N,0.225,K,A*24
$GPGGA,100305.00,2458.19596,N,12111.61050,E,1,11,0.75,143.1,M,16.4,M,,*54
$GPGSA,A,3,02,13,05,20,06,15,29,30,19,12,07,,1.43,0.75,1.22*06
$GPGSV,3,1,12,02,65,047,34,05,50,305,27,06,37,094,33,07,08,065,32*7C
$GPRMC,100306.00,A,2458.19585,N,12111.61045,E,0.054,,080621,,,A*77
$GPVTG,,T,,M,0.054,N,0.100,K,A*23
$GPGGA,100306.00,2458.19585,N,12111.61045,E,1,11,0.75,142.9,M,16.4,M,,*58
$GPGSA,A,3,02,13,05,20,06,15,29,30,19,12,07,,1.43,0.75,1.22*06
$GPRMC,100307.00,A,2458.19569,N,12111.61030,E,0.293,,080621,,,A*7F
$GPVTG,,T,,M,0.293,N,0.543,K,A*29
$GPGGA,100307.00,2458.19569,N,12111.61030,E,1,10,0.82,142.6,M,16.4,M,,*5F
$GPGSA,A,3,02,13,05,20,06,15,29,30,19,07,,,1.58,0.82,1.35*01
$GPGSV,3,1,12,02,65,047,33,05,50,305,26,06,37,094,33,07,08,065,31*79
$GPGSV,3,2,12,12,12,237,08,13,52,183,29,15,25,214,17,19,15,156,24*7B
$GPGSV,3,3,12,20,44,300,22,25,06,270,,29,19,319,21,30,17,101,33*71
$GPRMC,100308.00,A,2458.19555,N,12111.61012,E,0.358,,080621,,,A*79
$GPVTG,,T,,M,0.358,N,0.663,K,A*2E
$GPGGA,100308.00,2458.19555,N,12111.61012,E,1,10,0.82,142.2,M,16.4,M,,*5B
$GPGSA,A,3,02,13,05,20,06,15,29,30,19,07,,,1.58,0.82,1.35*01
$GPRMC,100309.00,A,2458.19542,N,12111.61005,E,0.114,,080621,,,A*72
$GPVTG,,T,,M,0.114,N,0.211,K,A*25
$GPGGA,100309.00,2458.19542,N,12111.61005,E,1,10,0.82,141.9,M,16.4,M,,*52
$GPGSA,A,3,02,13,05,20,06,15,29,30,19,07,,,1.58,0.82,1.35*01
$GPGSV,3,1,12,02,65,047,33,05,50,305,25,06,37,094,32,07,08,065,32*78
$GPRMC,100310.00,A,2458.19532,N,12111.60997,E,0.170,,080621,,,A*7C
$GPVTG,,T,,M,0.170,N,0.315,K,A*22
$GPGGA,100310.00,2458.19532,N,12111.60997,E,1,10,0.82,141.7,M,16.4,M,,*50
$GPGSA,A,3,02,13,05,20,06,15,29,30,19,07,,,1.58,0.82,1.35*01
$GPGSV,3,1,12,02,65,047,34,05,50,305,25,06,37,094,30,07,08,065,31*7E
$GPGSV,3,2,12,12,12,237,08,13,52,183,28,15,25,214,17,19,15,156,25*7B
$GPGSV,3,3,12,20,44,300,25,25,06,270,,29,19,319,18,30,17,101,34*7B
$GPRMC,100311.00,A,2458.19523,N,12111.60985,E,0.144,,080621,,,A*79
$GPVTG,,T,,M,0.144,N,0.267,K,A*21
$GPGGA,100311.00,2458.19523,N,12111.60985,E,1,10,0.82,141.5,M,16.4,M,,*50
$GPGSA,A,3,02,13,05,20,06,15,29,30,19,07,,,1.58,0.82,1.35*01
$GPGSV,3,1,12,02,65,047,34,05,50,305,25,06,37,094,33,07,08,065,32*7E
$GPRMC,100312.00,A,2458.19509,N,12111.60970,E,0.240,,080621,,,A*7F
$GPVTG,,T,,M,0.240,N,0.445,K,A*20
$GPGGA,100312.00,2458.19509,N,12111.60970,E,1,10,0.82,141.3,M,16.4,M,,*57
$GPGSA,A,3,02,13,05,20,06,15,29,30,19,07,,,1.58,0.82,1.35*01
$GPGSV,3,1,12,02,65,047,33,05,50,305,25,06,37,094,33,07,08,065,31*7A
$GPGSV,3,2,12,12,12,237,08,13,52,183,29,15,25,214,18,19,15,156,23*73
$GPRMC,100313.00,A,2458.19496,N,12111.60960,E,0.074,,080621,,,A*7D
$GPVTG,,T,,M,0.074,N,0.137,K,A*25
$GPGGA,100313.00,2458.19496,N,12111.60960,E,1,10,0.98,141.2,M,16.4,M,,*5A
$GPGSA,A,3,02,13,05,20,06,15,29,30,19,07,,,1.72,0.98,1.41*01
$GPGSV,3,1,12,02,65,047,32,05,50,305,25,06,37,094,33,07,08,065,32*78
$GPRMC,100314.00,A,2458.19484,N,12111.60951,E,0.102,,080621,,,A*7B
$GPVTG,,T,,M,0.102,N,0.189,K,A*20
$GPGGA,100314.00,2458.19484,N,12111.60951,E,1,11,0.98,141.2,M,16.4,M,,*5D
$GPGSA,A,3,02,13,05,20,06,15,29,30,19,12,07,,1.72,0.98,1.41*02
$GPGSV,3,1,12,02,65,047,32,05,50,305,25,06,37,094,33,07,08,065,32*78
$GPGSV,3,2,12,12,12,237,11,13,52,183,29,15,25,214,21,19,15,156,23*71
$GPGSV,3,3,12,20,44,300,24,25,06,270,,29,19,319,19,30,17,101,32*7D
$GPRMC,100315.00,A,2458.19474,N,12111.60941,E,0.034,,080621,,,A*70
$GPVTG,,T,,M,0.034,N,0.062,K,A*20
$GPGGA,100315.00,2458.19474,N,12111.60941,E,1,11,0.98,141.1,M,16.4,M,,*51
$GPGSA,A,3,02,13,05,20,06,15,29,30,19,12,07,,1.72,0.98,1.41*02
$GPGSV,3,1,12,02,65,047,32,05,50,305,25,06,37,094,33,07,08,065,32*78
$GPGSV,3,2,12,12,12,237,11,13,52,183,28,15,25,214,21,19,15,156,24*77
$GPGSV,3,3,12,20,44,300,25,25,06,270,,29,19,319,19,30,17,101,32*7C
$GPGLL,2458.19474,N,12111.60941,E,100315.00,A,A*63
$GPRMC,100316.00,A,2458.19464,N,12111.60926,E,0.147,,080621,,,A*76
$GPVTG,,T,,M,0.147,N,0.271,K,A*25
$GPGGA,100316.00,2458.19464,N,12111.60926,E,1,11,0.81,141.1,M,16.4,M,,*5A
$GPGSA,A,3,02,13,05,20,06,15,29,30,19,12,07,,1.47,0.81,1.22*09
$GPGSV,3,1,12,02,65,047,33,05,50,305,25,06,37,094,33,07,08,065,32*79
$GPGSV,3,2,12,12,12,237,11,13,52,183,28,15,25,214,21,19,15,156,25*76
$GPRMC,100317.00,A,2458.19455,N,12111.60914,E,0.173,,080621,,,A*73
$GPVTG,,T,,M,0.173,N,0.320,K,A*27
$GPGGA,100317.00,2458.19455,N,12111.60914,E,1,11,0.81,141.0,M,16.4,M,,*59
$GPGSA,A,3,02,13,05,20,06,15,29,30,19,12,07,,1.47,0.81,1.22*09
$GPGSV,3,1,12,02,65,047,32,05,50,305,24,06,37,094,33,07,08,065,32*79
$GPRMC,100318.00,A,2458.19447,N,12111.60910,E,0.112,,080621,,,A*7C
$GPVTG,,T,,M,0.112,N,0.207,K,A*24
$GPGGA,100318.00,2458.19447,N,12111.60910,E,1,11,0.81,141.1,M,16.4,M,,*50
$GPRMC,100319.00,A,2458.19442,N,12111.60896,E,0.246,,080621,,,A*75
$GPVTG,,T,,M,0.246,N,0.455,K,A*27
$GPGGA,100319.00,2458.19442,N,12111.60896,E,1,11,0.81,141.0,M,16.4,M,,*5A
$GPGSA,A,3,02,13,05,20,06,15,29,30,19,12,07,,1.47,0.81,1.22*09
$GPRMC,100320.00,A,2458.19440,N,12111.60902,E,0.230,,080621,,,A*70
$GPVTG,,T,,M,0.230,N,0.426,K,A*22
$GPGGA,100320.00,2458.19440,N,12111.60902,E,1,11,0.81,141.3,M,16.4,M,,*5D
$GPGSA,A,3,02,13,05,20,06,15,29,30,19,12,07,,1.47,0.81,1.22*09
$GPGSV,3,1,12,02,65,047,32,05,50,305,22,06,37,094,32,07,08,065,32*7E
$GPRMC,100321.00,A,2458.19438,N,12111.60901,E,0.088,,080621,,,A*7C
$GPVTG,,T,,M,0.088,N,0.163,K,A*27
$GPGGA,100321.00,2458.19438,N,12111.60901,E,1,11,0.81,141.3,M,16.4,M,,*50
$GPGSA,A,3,02,13,05,20,06,15,29,30,19,12,07,,1.47,0.81,1.22*09
$GPRMC,100322.00,A,2458.19433,N,12111.60892,E,0.348,,080621,,,A*70
$GPVTG,,T,,M,0.348,N,0.645,K,A*2B
$GPGGA,100322.00,2458.19433,N,12111.60892,E,1,11,0.81,141.3,M,16.4,M,,*53
$GPGSA,A,3,02,13,05,20,06,15,29,30,19,12,07,,1.47,0.81,1.22*09
$GPGSV,3,1,12,02,65,047,32,05,50,305,22,06,37,094,32,07,08,065,32*7E
$GPGSV,3,2,12,12,12,237,18,13,52,183,28,15,25,214,19,19,15,156,26*77
$GPGSV,3,3,12,20,44,300,27,25,06,270,,29,19,319,16,30,17,101,32*71
$GPRMC,100323.00,A,2458.19427,N,12111.60883,E,0.031,,080621,,,A*79
$GPVTG,,T,,M,0.031,N,0.058,K,A*2C
$GPGGA,100323.00,2458.19427,N,12111.60883,E,1,11,0.81,141.4,M,16.4,M,,*50
$GPGSA,A,3,02,13,05,20,06,15,29,30,19,12,07,,1.47,0.81,1.22*09
$GPRMC,100324.00,A,2458.19420,N,12111.60882,E,0.186,,080621,,,A*75
$GPVTG,,T,,M,0.186,N,0.344,K,A*2F
$GPGGA,100324.00,2458.19420,N,12111.60882,E,1,11,0.81,141.5,M,16.4,M,,*50
$GPGSA,A,3,02,13,05,20,06,15,29,30,19,12,07,,1.47,0.81,1.22*09
$GPGSV,3,1,12,02,65,047,32,05
$GPGSV,3,2,12,12,12,237,19,13,52,183,27,15,25,214,15,19,15,156,27*74
$GPGSV,3,3,12,20,44,300,27,25,06,270,,29,19,319,16,30,17,101,33*70
$GPGLL,2458.19405,N,12111.60875,E,100328.00,A,A*6D
$GPRMC,100329.00,A,2458.19402,N,12111.60876,E,0.117,,080621,,,A*7B
$GPVTG,,T,,M,0.117,N,0.218,K,A*2F
$GPGGA,100329.00,2458.19402,N,12111.60876,E,1,11,0.76,142.2,M,16.4,M,,*5A
$GPGSA,A,3,02,13,05,20,06,15,29,30,19,12,07,,1.43,0.76,1.22*05
$GPGSV,3,1,12,02,65,047,33,05,50,305,24,06,37,094,32,07,08,065,32*79
$GPGSV,3,2,12,12,12,237,19,13,52,183,27,15,25,214,14,19,15,156,27*75
$GPGSV,3,3,12,20,44,300,27,25,06,270,,29,19,319,16,30,17,101,33*70
$GPGLL,2458.19402,N,12111.60876,E,100329.00,A,A*68
$GPRMC,100330.00,A,2458.19402,N,12111.60874,E,0.272,,080621,,,A*71
$GPVTG,,T,,M,0.272,N,0.503,K,A*22
$GPGGA,100330.00,2458.19402,N,12111.60874,E,1,11,0.76,142.3,M,16.4,M,,*51
$GPGSA,A,3,02,13,05,20,06,15,29,30,19,12,07,,1.43,0.76,1.22*05
$GPGSV,3,1,12,02,65,047,33,05,50,305,25,06,37,094,31,07,08,065,32*7B
$GPGSV,3,2,12,12,12,237,19,13,52,183,27,15,25,214,13,19,15,156,28*7D
$GPGSV,3,3,12,20,44,300,27,25,06,270,,29,19,319,15,30,17,101,33*73
$GPGLL,2458.19402,N,12111.60874,E,100330.00,A,A*62
$GPRMC,100331.00,A,2458.19403,N,12111.60868,E,0.231,,080621,,,A*7B
$GPVTG,,T,,M,0.231,N,0.427,K,A*22
$GPGGA,100331.00,2458.19403,N,12111.60868,E,1,11,0.76,142.3,M,16.4,M,,*5C
$GPGSA,A,3,02,13,05,20,06,15,29,30,19,12,07,,1.43,0.76,1.22*05
$GPGSV,3,2,12,12,12,237,18,13,52,183,27,15,25,214,12,19,15,156,28*7D
$GPGSV,3,3,12,20,44,300,27,25,06,270,,29,19,319,15,30,17,101,33*73
$GPGLL,2458.19403,N,12111.60868,E,100331.00,A,A*6F
$GPRMC,100332.00,A,2458.19402,N,12111.60868,E,0.096,,080621,,,A*76
$GPVTG,,T,,M,0.096,N,0.178,K,A*22
$GPGGA,100332.00,2458.19402,N,12111.60868,E,1,10,0.81,142.4,M,16.4,M,,*50
$GPGSA,A,3,02,13,05,20,06,29,30,19,12,07,,,1.47,0.81,1.22*0D
$GPGSV,3,1,12,02,65,047,33,05,50,305,26,06,37,094,31,07,08,065,32*78
$GPGSV,3,2,12,12,12,237,18,13,52,183,28,15,25,214,09,19,15,156,28*78
$GPGSV,3,3,12,20,44,300,27,25,06,270,,29,19,319,15,30,17,101,34*74
$GPGLL,2458.19402,N,12111.60868,E,100332.00,A,A*6D
$GPRMC,100333.00,A,2458.19401,N,12111.60857,E,0.267,,080621,,,A*74
$GPVTG,,T,,M,0.267,N,0.495,K,A*28
$GPGGA,100333.00,2458.19401,N,12111.60857,E,1,11,0.76,142.3,M,16.4,M,,*50
$GPRMC,100334.00,A,2458.19399,N,12111.60845,E,0.383,,080621,,,A*7D
$GPVTG,,T,,M,0.383,N,0.709,K,A*25
$GPRMC,100335.00,A,2458.19396,N,12111.60833,E,0.636,,080621,,,A*79
$GPVTG,,T,,M,0.636,N,1.178,K,A*2F
$GPRMC,100336.00,A,2458.19398,N,12111.60820,E,0.423,,080621,,,A*70
$GPVTG,,T,,M,0.423,N,0.783,K,A*2A
$GPGGA,100336.00,2458.19398,N,12111.60820,E,1,11,0.76,142.0,M,16.4,M,,*51
$GPGSA,A,3,02,13,05,20,06,15,29,30,19,12,07,,1.43,0.76,1.22*05
$GPRMC,100337.00,A,2458.19402,N,12111.60823,E,0.098,,080621,,,A*72
$GPVTG,,T,,M,0.098,N,0.182,K,A*29
$GPGGA,100337.00,2458.19402,N,12111.60823,E,1,11,0.76,142.1,M,16.4,M,,*56
$GPGSA,A,3,02,13,05,20,06,15,29,30,19,12,07,,1.43,0.76,1.22*05
$GPGSV,3,1,12,02,65,047,32,05,50,305,26,06,37,094,31,07,08,065,32*79
$GPRMC,100338.00,A,2458.19403,N,12111.60831,E,0.273,,080621,,,A*78
$GPVTG,,T,,M,0.273,N,0.506,K,A*26
$GPGGA,100338.00,2458.19403,N,12111.60831,E,1,11,0.76,142.2,M,16.4,M,,*58
$GPRMC,100339.00,A,2458.19401,N,12111.60832,E,0.086,,080621,,,A*70
$GPVTG,,T,,M,0.086,N,0.160,K,A*2A
$GPRMC,100340.00,A,2458.19400,N,12111.60818,E,0.715,,080621,,,A*7A
$GPVTG,,T,,M,0.715,N,1.324,K,A*24
$GPGGA,100340.00,2458.19400,N,12111.60818,E,1,11,0.76,142.1,M,16.4,M,,*5C
$GPRMC,100341.00,A,2458.19410,N,12111.60834,E,0.138,,080621,,,A*7D
$GPVTG,,T,,M,0.138,N,0.255,K,A*2B
$GPGGA,100341.00,2458.19410,N,12111.60834,E,1,11,0.76,142.4,M,16.4,M,,*57
$GPRMC,100342.00,A,2458.19431,N,12111.60846,E,0.235,,080621,,,A*76
$GPVTG,,T,,M,0.235,N,0.434,K,A*24
$GPGGA,100342.00,2458.19431,N,12111.60846,E,1,11,0.76,142.5,M,16.4,M,,*53
$GPGSA,A,3,02,13,05,20,06,15,29,30,19,12,07,,1.43,0.76,1.22*05
$GPRMC,100343.00,A,2458.19448,N,12111.60838,E,0.407,,080621,,,A*77
$GPVTG,,T,,M,0.407,N,0.754,K,A*26
$GPGGA,100343.00,2458.19448,N,12111.60838,E,1,11,0.76,142.2,M,16.4,M,,*52
$GPGSA,A,3,02,13,05,20,06,15,29,30,19,12,07,,1.43,0.76,1.22*05
$GPRMC,100344.00,A,2458.19459,N,12111.60831,E,0.425,,080621,,,A*79
$GPVTG,,T,,M,0.425,N,0.786,K,A*29
$GPGGA,100344.00,2458.19459,N,12111.60831,E,1,11,0.76,141.9,M,16.4,M,,*54
$GPRMC,100345.00,A,2458.19461,N,12111.60817,E,0.884,,080621,,,A*70
$GPVTG,,T,,M,0.884,N,1.637,K,A*24
$GPGGA,100345.00,2458.19461,N,12111.60817,E,1,11,0.76,141.7,M,16.4,M,,*54
$GPGSA,A,3,02,13,05,20,06,15,29,30,19,12,07,,1.43,0.76,1.22*05
$GPRMC,100346.00,A,2458.19458,N,12111.60806,E,0.772,,080621,,,A*7F
$GPVTG,,T,,M,0.772,N,1.430,K,A*27
$GPGGA,100346.00,2458.19458,N,12111.60806,E,1,11,0.76,141.5,M,16.4,M,,*5F
$GPGSA,A,3,02,13,05,20,06,15,29,30,19,12,07,,1.43,0.76,1.22*05
$GPGSV,3,1,12,02,65,047,35,05,50,305,21,06,37,094,34,07,08,065,31*7F
$GPRMC,100347.00,A,2458.19464,N,12111.60799,E,0.456,,080621,,,A*7D
$GPVTG,,T,,M,0.456,N,0.845,K,A*2D
$GPGGA,100347.00,2458.19464,N,12111.60799,E,1,11,0.76,141.3,M,16.4,M,,*5E
$GPGSA,A,3,02,13,05,20,06,15,29,30,19,12,07,,1.43,0.76,1.22*05
$GPGSV,3,1,12,02,65,047,35,05,50,305,21,06,37,094,34,07,08,065,31*7F
$GPRMC,100348.00,A,2458.19465,N,12111.60781,E,0.721,,080621,,,A*79
$GPVTG,,T,,M,0.721,N,1.336,K,A*20
$GPGGA,100348.00,2458.19465,N,12111.60781,E,1,11,0.76,141.1,M,16.4,M,,*5B
$GPGSA,A,3,02,13,05,20,06,15,29,30,19,12,07,,1.43,0.76,1.22*05
$GPRMC,100349.00,A,2458.19468,N,12111.60774,E,0.401,,080621,,,A*7E
$GPVTG,,T,,M,0.401,N,0.743,K,A*26
$GPRMC,100350.00,A,2458.19476,N,12111.60779,E,0.095,,080621,,,A*7D
$GPVTG,,T,,M,0.095,N,0.175,K,A*2C
$GPGGA,100350.00,2458.19476,N,12111.60779,E,1,11,0.76,141.0,M,16.4,M,,*56
$GPGSA,A,3,02,13,05,20,06,15,29,30,19,12,07,,1.43,0.76,1.22*05
$GPGSV,3,1,12,02,65,047,34,05,50,305,22,06,37,094,34,07,08,065,32*7E
$GPRMC,100351.00,A,2458.19492,N,12111.60782,E,0.197,,080621,,,A*71
$GPVTG,,T,,M,0.197,N,0.365,K,A*2C
$GPGGA,100351.00,2458.19492,N,12111.60782,E,1,11,0.76,140.9,M,16.4,M,,*51
$GPGSA,A,3,02,13,05,20,06,15,29,30,19,12,07,,1.43,0.76,1.22*05
$GPRMC,100353.00,A,2458.19524,N,12111.60793,E,0.495,,080621,,,A*78
$GPVTG,,T,,M,0.495,N,0.916,K,A*25
$GPGGA,100353.00,2458.19524,N,12111.60793,E,1,11,0.82,140.9,M,16.4,M,,*54
$GPGSA,A,3,02,13,05,20,06,15,29,30,19,12,07,,1.58,0.82,1.35*02
$GPGSV,3,1,12,02,65,047,34,05,50,306,22,06,37,095,37,07,08,065,25*79
$GPGSV,3,2,12,12,12,237,11,13,52,183,26,15,25,214,19,19,15,156,23*75
$GPGSV,3,3,12,20,44,300,23,25,06,270,,29,19,319,17,30,17,101,22*75
$GPGLL,2458.19524,N,12111.60793,E,100353.00,A,A*64
$GPRMC,100354.00,A,2458.19537,N,12111.60782,E,0.601,,080621,,,A*72
$GPVTG,,T,,M,0.601,N,1.112,K,A*27
$GPGGA,100354.00,2458.19537,N,12111.60782,E,1,11,0.82,140.5,M,16.4,M,,*5D
$GPGSA,A,3,02,13,05,20,06,15,29,30,19,12,07,,1.58,0.82,1.35*02
$GPRMC,100355.00,A,2458.19551,N,12111.60795,E,0.344,,080621,,,A*71
$GPVTG,,T,,M,0.344,N,0.637,K,A*22
$GPGGA,100355.00,2458.19551,N,12111.60795,E,1,11,0.82,140.3,M,16.4,M,,*5C
$GPGSA,A,3,02,13,05,20,06,15,29,30,19,12,07,,1.58,0.82,1.35*02
$GPGSV,3,1,12,02,65,047,30,05,50,306,23,06,37,095,32,07,08,065,28*74
$GPRMC,100358.00,A,2458.19597,N,12111.60806,E,1.068,,080621,,,A*7F
$GPVTG,,T,,M,1.068,N,1.978,K,A*2B
$GPGGA,100358.00,2458.19597,N,12111.60806,E,1,11,0.76,139.6,M,16.4,M,,*5E
$GPGSA,A,3,02,13,05,20,06,15,29,30,19,12,07,,1.43,0.76,1.22*05
$GPGSV,3,1,12,02,65,047,31,05,50,306,22,06,37,095,34,07,08,065,29*73
$GPGSV,3,2,12,12,12,237,11,13,52,183,24,15,25,214,21,19,15,156,25*7A
$GPGSV,3,3,12,20,44,300,25,25,06,270,06,29,19,319,14,30,17,101,34*71
$GPGLL,2458.19597,N,12111.60806,E,100358.00,A,A*64
$GPRMC,100359.00,A,2458.19618,N,12111.60819,E,0.296,,080621,,,A*76
$GPVTG,,T,,M,0.296,N,0.549,K,A*26
$GPGGA,100359.00,2458.19618,N,12111.60819,E,1,11,0.76,139.9,M,16.4,M,,*5A
$GPGSA,A,3,02,13,05,20,06,15,29,30,19,12,07,,1.43,0.76,1.22*05
$GPRMC,100400.00,A,2458.19635,N,12111.60832,E,0.089,,080621,,,A*77
$GPVTG,,T,,M,0.089,N,0.165,K,A*20
$GPGGA,100400.00,2458.19635,N,12111.60832,E,1,11,0.89,140.2,M,16.4,M,,*52
$GPGSA,A,3,02,13,05,20,06,15,29,30,19,12,07,,1.61,0.89,1.35*03
$GPGSV,3,1,12,02,65,047,33,05,50,306,21,06,37,095,35,07,08,065,30*7B
$GPGSV,3,2,12,12,12,236,15,13,52,183,22,15,25,214,19,19,15,156,29*7E
$GPGSV,3,3,12,20,44,300,26,25,06,270,06,29,19,319,16,30,17,101,36*72
$GPGLL,2458.19635,N,12111.60832,E,100400.00,A,A*62
$GPRMC,100401.00,A,2458.19655,N,12111.60871,E,0.623,,080621,,,A*71
$GPRMC,100403.00,A,2458.19672,N,12111.60910,E,0.138,,080621,,,A*7D
$GPVTG,,T,,M,0.138,N,0.256,K,A*28
$GPGGA,100403.00,2458.19672,N,12111.60910,E,1,11,0.76,141.1,M,16.4,M,,*51
$GPGSA,A,3,02,13,05,20,06,15,29,30,19,12,07,,1.43,0.76,1.22*05
$GPGSV,3,1,12,02,65,047,35,05,50,306,22,06,37,095,35,07,08,065,29*76
$GPGSV,3,2,12,12,12,236,16,13,52,183,27,15,25,214,22,19,15,156,22*7B
$GPGSV,3,3,12,20,44,300,19,25,06,270,,29,19,319,17,30,17,101,35*7A
$GPGLL,2458.19672,N,12111.60910,E,100403.00,A,A*63
$GPRMC,100404.00,A,2458.19676,N,12111.60921,E,0.274,,080621,,,A*77
$GPVTG,,T,,M,0.274,N,0.508,K,A*2F
$GPGGA,100404.00,2458.19676,N,12111.60921,E,1,11,0.76,141.3,M,16.4,M,,*52
$GPGSA,A,3,02,13,05,20,06,15,29,30,19,12,07,,1.43,0.76,1.22*05
$GPRMC,100405.00,A,2458.19680,N,12111.60919,E,0.855,,080621,,,A*7D
$GPVTG,,T,,M,0.855,N,1.583,K,A*24
$GPGGA,100405.00,2458.19680,N,12111.60919,E,1,11,0.76,140.8,M,16.4,M,,*5B
$GPGSA,A,3,02,13,05,20,06,15,29,30,19,12,07,,1.43,0.76,1.22*05
$GPGSV,3,1,12,02,65,047,36,05,50,306,22,06,37,095,35,07,08,065,28*74
$GPGSV,3,2,12,12,12,236,18,13,52,183,27,15,25,214,15,19,15,156,22*71
$GPGSV,3,3,12,20,44,300,16,25,06,270,,29,19,319,20,30,17,101,35*71
$GPGLL,2458.19680,N,12111.60919,E,100405.00,A,A*61
$GPRMC,100407.00,A,2458.19676,N,12111.60908,E,0.497,,080621,,,A*74
$GPVTG,,T,,M,0.497,N,0.921,K,A*23
$GPGGA,100407.00,2458.19676,N,12111.60908,E,1,11,0.98,140.1,M,16.4,M,,*59
$GPRMC,100408.00,A,2458.19682,N,12111.60906,E,0.300,,080621,,,A*77
$GPVTG,,T,,M,0.300,N,0.555,K,A*25
$GPGGA,100408.00,2458.19682,N,12111.60906,E,1,10,0.98,139.7,M,16.4,M,,*5A
$GPGSA,A,3,02,13,05,20,06,29,30,19,12,07,,,1.71,0.98,1.41*05
$GPGSV,3,1,12,02,65,047,36,05,50,306,18,06,37,095,35,07,08,065,27*72
$GPGSV,3,2,12,12,12,236,17,13,52,183,24,15,25,214,,19,14,156,28*72
$GPGSV,3,3,12,20,44,300,18,25,06,270,,29,19,319,19,30,17,101,35*75
$GPRMC,100409.00,A,2458.19693,N,12111.60906,E,0.299,,080621,,,A*77
$GPVTG,,T,,M,0.299,N,0.554,K,A*25
$GPGGA,100409.00,2458.19693,N,12111.60906,E,1,10,0.98,139.2,M,16.4,M,,*5E
$GPGSA,A,3,02,13,05,20,06,29,30,19,12,07,,,1.71,0.98,1.41*05
$GPGSV,3,1,12,02,65,047,36,05,50,306,19,06,37,095,35,07,08,065,27*73
$GPRMC,100410.00,A,2458.19701,N,12111.60930,E,0.587,,080621,,,A*78
$GPVTG,,T,,M,0.587,N,1.087,K,A*27
$GPGGA,100410.00,2458.19701,N,12111.60930,E,1,11,0.98,139.1,M,16.4,M,,*5B
$GPGSA,A,3,02,13,05,20,06,15,29,30,19,12,07,,1.71,0.98,1.41*01
$GPGSV,3,1,12,02,65,047,32,05,50,306,27,06,37,095,35,07,08,065,26*7B
$GPGSV,3,2,12,12,12,236,18,13,52,183,31,15,25,214,14,19,14,156,28*7C
$GPRMC,100412.00,A,2458.19695,N,12111.60941,E,0.116,,080621,,,A*7C
$GPVTG,,T,,M,0.116,N,0.215,K,A*23
$GPGGA,100412.00,2458.19695,N,12111.60941,E,1,11,0.98,138.5,M,16.4,M,,*56
$GPGSA,A,3,02,13,05,20,06,15,29,30,19,12,07,,1.71,0.98,1.41*01
$GPGSV,3,1,12,02,65,047,32,05,50,306,29,06,37,095,34,07,08,065,25*77
$GPRMC,100413.00,A,2458.19676,N,12111.60937,E,0.322,,080621,,,A*74
$GPVTG,,T,,M,0.322,N,0.597,K,A*2B
$GPGGA,100413.00,2458.19676,N,12111.60937,E,1,11,0.98,138.3,M,16.4,M,,*5D
$GPRMC,100414.00,A,2458.19666,N,12111.60931,E,0.061,,080621,,,A*70
$GPVTG,,T,,M,0.061,N,0.113,K,A*27
$GPGGA,100414.00,2458.19666,N,12111.60931,E,1,11,0.98,138.1,M,16.4,M,,*5F
$GPGSA,A,3,02,13,05,20,06,15,29,30,19,12,07,,1.71,0.98,1.41*01
$GPRMC,100415.00,A,2458.19657,N,12111.60933,E,0.094,,080621,,,A*7B
$GPVTG,,T,,M,0.094,N,0.174,K,A*2C
$GPGGA,100415.00,2458.19657,N,12111.60933,E,1,11,0.98,137.9,M,16.4,M,,*59
$GPGSA,A,3,02,13,05,20,06,15,29,30,19,12,07,,1.71,0.98,1.41*01
$GPGSV,3,1,12,02,65,047,28,05,50,306,28,06,37,095,32,07,08,065,26*78
$GPRMC,100416.00,A,2458.19650,N,12111.60928,E,0.148,,080621,,,A*75
$GPVTG,,T,,M,0.148,N,0.274,K,A*2F
$GPGGA,100416.00,2458.19650,N,12111.60928,E,1,11,0.98,137.6,M,16.4,M,,*58
$GPGSA,A,3,02,13,05,20,06,15,29,30,19,12,07,,1.71,0.98,1.41*01
$GPGSV,3,1,12,02,65,047,28,05,50,306,28,06,37,095,32,07,08,065,26*78
$GPGSV,3,2,12,12,12,236,24,13,52,183,32,15,25,214,11,19,14,156,27*7A
$GPGSV,3,3,12,20,44,300,24,25,06,269,,29,19,319,22,30,17,101,34*7B
$GPRMC,100417.00,A,2458.19642,N,12111.60926,E,0.085,,080621,,,A*79
$GPRMC,100418.00,A,2458.19632,N,12111.60919,E,0.291,,080621,,,A*7A
$GPVTG,,T,,M,0.291,N,0.538,K,A*27
$GPGGA,100418.00,2458.19632,N,12111.60919,E,1,11,0.98,137.3,M,16.4,M,,*55
$GPGSA,A,3,02,13,05,20,06,15,29,30,19,12,07,,1.71,0.98,1.41*01
$GPGSV,3,1,12,02,65,047,26,05,50,306,27,06,37,095,28,07,08,065,27*73
$GPGSV,3,2,12,12,12,236,25,13,52,183,32,15,25,214,20,19,14,156,28*76
$GPRMC,100419.00,A,2458.19618,N,12111.60913,E,0.274,,080621,,,A*72
$GPVTG,,T,,M,0.274,N,0.508,K,A*2F
$GPRMC,100420.00,A,2458.19611,N,12111.60913,E,0.220,,080621,,,A*70
$GPVTG,,T,,M,0.220,N,0.407,K,A*20
$GPGGA,100420.00,2458.19611,N,12111.60913,E,1,11,0.83,137.0,M,16.4,M,,*5C
$GPRMC,100421.00,A,2458.19601,N,12111.60914,E,0.080,,080621,,,A*7F
$GPRMC,100422.00,A,2458.19593,N,12111.60912,E,0.124,,080621,,,A*7D
$GPVTG,,T,,M,0.124,N,0.231,K,A*24
$GPGGA,100422.00,2458.19593,N,12111.60912,E,1,11,0.83,136.9,M,16.4,M,,*5E
$GPGSA,A,3,02,13,05,20,06,15,29,30,19,12,07,,1.58,0.83,1.35*03
$GPGSV,3,1,12,02,65,047,21,05,50,306,26,06,37,095,33,07,08,065,25*7D
$GPGSV,3,2,12,12,12,236,26,13,52,183,31,15,25,214,20,19,14,156,28*76
$GPGSV,3,3,12,20,44,300,23,25,06,269,,29,19,319,24,30,18,101,35*74
$GPGLL,2458.19593,N,12111.60912,E,100422.00,A,A*6E
$GPRMC,100423.00,A,2458.19588,N,12111.60904,E,0.278,,080621,,,A*7B
$GPVTG,,T,,M,0.278,N,0.514,K,A*2E
$GPGGA,100423.00,2458.19588,N,12111.60904,E,1,11,0.83,136.6,M,16.4,M,,*5D
$GPRMC,100424.00,A,2458.19578,N,12111.60899,E,0.175,,080621,,,A*78
$GPVTG,,T,,M,0.175,N,0.323,K,A*22
$GPGGA,100424.00,2458.19578,N,12111.60899,E,1,11,0.83,136.3,M,16.4,M,,*55
$GPGSA,A,3,02,13,05,20,06,15,29,30,19,12,07,,1.58,0.83,1.35*03
$GPGSV,3,1,12,02,65,047,21,05,50,306,26,06,37,095,34,07,08,065,26*79
$GPGSV,3,2,12,12,12,236,26,13,52,183,31,15,25,214,20,19,14,156,28*76
$GPVTG,,,,,,,,,N*30
$GPGGA,100431.00,,,,,0,10,3.14,,,,,,*56
$GPGSA,A,1,02,13,20,06,15,29,30,19,12,07,,,3.29,3.14,1.00*0B
$GPGSV,3,1,12,02,65,048,27,05,50,306,,06,37,095,35,07,08,064,25*77
$GPGSV,3,2,12,12,12,236,23,13,53,183,28,15,25,214,24,19,14,156,31*76
$GPGSV,3,3,12,20,44,301,22,25,06,269,,29,19,319,26,30,18,101,35*76
$GPGLL,,,,,100431.00,V,N*4D
$GPRMC,100432.00,A,2458.19703,N,12111.60988,E,0.831,,080621,,,A*79
$GPVTG,,T,,M,0.831,N,1.539,K,A*27
$GPGGA,100432.00,2458.19703,N,12111.60988,E,1,10,1.06,125.9,M,16.4,M,,*58
$GPGSA,A,3,02,13,20,06,15,29,30,19,12,07,,,1.79,1.06,1.44*0F
$GPGSV,3,1,12,02,65,048,26,05,50,306,06,06,37,095,35,07,08,064,25*70
$GPGSV,3,2,12,12,12,236,22,13,53,183,29,15,25,214,24,19,14,156,31*76
$GPGSV,3,3,12,20,44,301,22,25,06,269,,29,19,319,26,30,18,101,36*75
$GPGLL,2458.19703,N,12111.60988,E,100432.00,A,A*67
$GPRMC,100433.00,A,2458.19728,N,12111.61440,E,0.709,,080621,,,A*7D
$GPVTG,,T,,M,0.709,N,1.313,K,A*2D
$GPGGA,100433.00,2458.19728,N,12111.61440,E,1,11,0.78,142.5,M,16.4,M,,*5C
$GPGSA,A,3,02,13,05,20,06,15,29,30,19,12,07,,1.48,0.78,1.26*04
$GPGSV,3,1,12,02,65,048,24,05,50,306,12,06,37,095,35,07,08,064,26*74
$GPGSV,3,2,12,12,12,236,21,13,53,183,29,15,25,214,25,19,14,156,31*74
$GPGSV,3,3,12,20,44,301,22,25,06,269,,29,19,319,26,30,18,101,37*74
$GPGLL,2458.19728,N,12111.61440,E,100433.00,A,A*67
$GPRMC,100434.00,A,2458.19793,N,12111.61435,E,0.260,,080621,,,A*72
$GPVTG,,T,,M,0.260,N,0.482,K,A*29
$GPGGA,100434.00,2458.19793,N,12111.61435,E,1,11,0.78,142.2,M,16.4,M,,*5E
$GPGSA,A,3,02,13,05,20,06,15,29,30,19,12,07,,1.48,0.78,1.26*04
$GPGSV,3,1,12,02,65,048,24,05,50,306,16,06,37,095,35,07,08,064,26*70
$GPGSV,3,2,12,12,12,236,22,13,53,183,29,15,25,214,26,19,14,156,32*77
$GPGSV,3,3,12,20,44,301,22,25,06,269,,29,19,319,27,30,18,101,36*74
$GPGLL,2458.19793,N,12111.61435,E,100434.00,A,A*62
$GPRMC,100435.00,A,2458.19754,N,12111.61448,E,0.187,,080621,,,A*78
$GPVTG,,T,,M,0.187,N,0.346,K,A*2C
$GPGGA,100435.00,2458.19754,N,12111.61448,E,1,11,0.78,144.3,M,16.4,M,,*59
$GPGSA,A,3,02,13,05,20,06,15,29,30,19,12,07,,1.48,0.78,1.26*04
$GPGSV,3,1,12,02,65,048,24,05,50,306,16,06,37,095,35,07,08,064,26*70
$GPGSV,3,2,12,12,12,236,21,13,53,183,29,15,25,214,26,19,14,156,32*74
$GPGSV,3,3,12,20,44,301,23,25,06,269,,29,19,319,27,30,18,101,36*75
$GPGLL,2458.19754,N,12111.61448,E,100435.00,A,A*62
$GPRMC,100436.00,A,2458.19770,N,12111.61450,E,0.165,,080621,,,A*78
$GPVTG,,T,,M,0.165,N,0.306,K,A*24
$GPGGA,100436.00,2458.19770,N,12111.61450,E,1,11,0.76,144.9,M,16.4,M,,*51
$GPGSA,A,3,02,13,05,20,06,15,29,30,19,12,07,,1.43,0.76,1.21*06
$GPGSV,3,1,12,02,65,048,24,05,50,306,15,06,37,095,37,08,064,26*73
$GPGSV,3,2,12,12,12,236,21,13,53,183,30,15,25,214,26,19,14,156,32*7C
$GPGSV,3,3,12,20,44,301,23,25,06,269,,29,19,319,27,30,18,101,36*75
$GPGLL,2458.19770,N,12111.61450,E,100436.00,A,A*6E
$GPRMC,100437.00,A,2458.19788,N,12111.61435,E,0.186,,080621,,,A*70
$GPVTG,,T,,M,0.186,N,0.344,K,A*2F
$GPGGA,100437.00,2458.19788,N,12111.61435,E,1,11,0.76,145.0,M,16.4,M,,*5C
$GPGSA,A,3,02,13,05,20,06,15,29,30,19,12,07,,1.43,0.76,1.21*06
$GPGSV,3,1,12,02,65,048,24,05,50,306,14,06,37,095,35,07,08,064,26*72
$GPGSV,3,2,12,12,12,236,19,13,53,183,30,15,25,214,27,19,14,156,32*76
$GPGSV,3,3,12,20,44,301,22,25,06,269,,29,19,319,26,30,18,101,36*75
$GPGLL,2458.19788,N,12111.61435,E,100437.00,A,A*6B
$GPRMC,100438.00,A,2458.19755,N,12111.61390,E,0.193,,080621,,,A*73
$GPVTG,,T,,M,0.193,N,0.357,K,A*29
$GPGGA,100438.00,2458.19755,N,12111.61390,E,1,11,0.83,144.3,M,16.4,M,,*53
$GPGSA,A,3,02,13,05,20,06,15,29,30,19,12,07,,1.58,0.83,1.35*03
$GPGSV,3,1,12,02,65,048,24,05,50,306,13,06,37,095,35,07,08,064,26*75
$GPGSV,3,2,12,12,12,236,19,13,53,183,31,15,25,214,27,19,14,156,33*76
$GPGSV,3,3,12,20,44,301,22,25,06,269,,29,19,319,26,30,18,101,36*75
$GPGLL,2458.19755,N,12111.61390,E,100438.00,A,A*6C
$GPRMC,100439.00,A,2458.19768,N,12111.61393,E,0.081,,080621,,,A*7D
$GPVTG,,T,,M,0.081,N,0.150,K,A*2E
$GPGGA,100439.00,2458.19768,N,12111.61393,E,1,11,0.76,144.1,M,16.4,M,,*57
$GPGSA,A,3,02,13,05,20,06,15,29,30,19,12,07,,1.43,0.76,1.21*06
$GPGSV,3,1,12,02,65,048,24,05,50,306,14,06,37,095,35,07,08,064,26*72
$GPGSV,3,2,12,12,12,236,19,13,53,183,31,15,25,214,27,19,14,156,33*76
$GPGSV,3,3,12,20,44,301,22,25,06,269,,29,19,319,27,30,18,101,36*74
$GPGLL,2458.19768,N,12111.61393,E,100439.00,A,A*60
