$GPRMC,082536.00,A,2458.00720,N,12111.22251,E,0.220,,090621,,,D*79
$GPVTG,,T,,M,0.220,N,0.407,K,D*25
$GPGGA,082536.00,2458.00720,N,12111.22251,E,2,07,7.36,149.3,M,16.4,M,,0000*56
$GPGSA,A,3,50,05,20,17,09,12,19,,,,,,8.27,7.36,3.77*08
$GPGSV,2,1,08,05,31,248,39,09,30,055,20,12,27,280,17,13,09,189,*78
$GPGSV,2,2,08,17,32,139,29,19,55,132,36,20,25,252,35,50,60,166,36*7A
$GPGLL,2458.00720,N,12111.22251,E,082536.00,A,D*6C
$GPRMC,082537.00,A,2458.00709,N,12111.22248,E,0.266,,090621,,,D*79
$GPVTG,,T,,M,0.266,N,0.493,K,D*2A
$GPGGA,082537.00,2458.00709,N,12111.22248,E,2,07,7.37,149.3,M,16.4,M,,0000*55
$GPGSA,A,3,50,05,20,17,09,12,19,,,,,,8.28,7.37,3.77*06
$GPGSV,3,1,09,05,31,248,40,09,30,055,20,12,27,280,17,13,09,189,*76
$GPGSV,3,2,09,17,32,139,30,19,55,132,36,20,25,252,35,25,07,309,*7F
$GPGSV,3,3,09,50,60,166,36*47
$GPGLL,2458.00709,N,12111.22248,E,082537.00,A,D*6E
$GPRMC,082538.00,A,2458.00696,N,12111.22244,E,0.242,,090621,,,D*7B
$GPVTG,,T,,M,0.242,N,0.448,K,D*2A
$GPGGA,082538.00,2458.00696,N,12111.22244,E,2,07,7.37,149.4,M,16.4,M,,0000*56
$GPGSA,A,3,50,05,20,17,09,12,19,,,,,,8.28,7.37,3.77*06
$GPGSV,3,1,09,05,31,248,40,09,30,055,20,12,27,280,18,13,09,189,*79
$GPGSV,3,2,09,17,32,139,30,19,55,132,36,20,25,252,35,25,07,309,24*79
$GPGSV,3,3,09,50,60,166,36*47
$GPGLL,2458.00696,N,12111.22244,E,082538.00,A,D*6A
$GPRMC,082539.00,A,2458.00685,N,12111.22240,E,0.178,,090621,,,D*76
$GPVTG,,T,,M,0.178,N,0.331,K,D*29
$GPGGA,082539.00,2458.00685,N,12111.22240,E,2,07,7.37,149.4,M,16.4,M,,0000*51
$GPGSA,A,3,50,05,20,17,09,12,19,,,,,,8.28,7.37,3.77*06
$GPGSV,3,1,09,05,31,248,40,09,30,055,19,12,27,280,17,13,09,189,*7C
$GPGSV,3,2,09,17,32,139,30,19,55,132,36,20,25,252,35,25,07,309,25*78
$GPGSV,3,3,09,50,60,166,36*47
$GPGLL,2458.00685,N,12111.22240,E,082539.00,A,D*6D
$GPRMC,082540.00,A,2458.00669,N,12111.22235,E,0.197,,090621,,,D*79
$GPVTG,,T,,M,0.197,N,0.365,K,D*29
$GPGGA,082540.00,2458.00669,N,12111.22235,E,2,07,7.38,149.6,M,16.4,M,,0000*52
$GPGSA,A,3,50,05,20,17,09,12,19,,,,,,8.28,7.38,3.77*09
$GPGSV,3,1,09,05,31,248,40,09,30,055,19,12,27,280,16,13,09,189,*7D
$GPGSV,3,2,09,17,32,139,30,19,55,132,36,20,25,252,35,25,07,309,25*78
$GPGSV,3,3,09,50,60,166,36*47
$GPGLL,2458.00669,N,12111.22235,E,082540.00,A,D*63
$GPRMC,082541.00,A,2458.00654,N,12111.22231,E,0.233,,090621,,,D*7F
$GPVTG,,T,,M,0.233,N,0.432,K,D*21
$GPGGA,082541.00,2458.00654,N,12111.22231,E,2,06,7.38,149.6,M,16.4,M,,0000*58
$GPGSA,A,3,50,05,20,17,12,19,,,,,,,8.29,7.38,3.77*01
$GPGSV,3,1,09,05,31,248,40,09,30,055,,12,27,280,15,13,09,189,*76
$GPGSV,3,2,09,17,32,139,30,19,55,132,36,20,25,252,35,25,07,309,26*7B
$GPGSV,3,3,09,50,60,166,36*47
$GPGLL,2458.00654,N,12111.22231,E,082541.00,A,D*68
$GPRMC,082542.00,A,2458.00638,N,12111.22227,E,0.209,,090621,,,D*78
$GPVTG,,T,,M,0.209,N,0.388,K,D*2E
$GPGGA,082542.00,2458.00638,N,12111.22227,E,2,07,7.38,149.6,M,16.4,M,,0000*57
$GPGSA,A,3,50,05,20,17,09,12,19,,,,,,8.29,7.38,3.77*08
$GPGSV,3,1,09,05,31,248,40,09,30,055,19,12,27,280,17,13,09,189,*7C
$GPGSV,3,2,09,17,32,139,30,19,55,132,37,20,25,252,35,25,07,309,25*79
$GPGSV,3,3,09,50,60,166,36*47
$GPGLL,2458.00638,N,12111.22227,E,082542.00,A,D*66
$GPRMC,082543.00,A,2458.00640,N,12111.22223,E,0.059,,090621,,,D*75
$GPVTG,,T,,M,0.059,N,0.109,K,D*22
$GPGGA,082543.00,2458.00640,N,12111.22223,E,2,06,7.39,149.8,M,16.4,M,,0000*53
$GPGSA,A,3,50,05,20,17,12,19,,,,,,,8.29,7.39,3.77*00
$GPGSV,3,1,10,02,47,338,,05,31,248,40,09,30,055,,12,27,280,16*7F
$GPGSV,3,2,10,13,09,189,,17,32,139,30,19,55,132,36,20,25,252,35*76
$GPGSV,3,3,10,25,07,309,25,50,60,166,36*72
$GPGLL,2458.00640,N,12111.22223,E,082543.00,A,D*6C
$GPRMC,082544.00,A,2458.00630,N,12111.22220,E,0.039,,090621,,,D*70
$GPVTG,,T,,M,0.039,N,0.071,K,D*2A
$GPGGA,082544.00,2458.00630,N,12111.22220,E,2,06,7.39,149.9,M,16.4,M,,0000*51
$GPGSA,A,3,50,05,20,17,12,19,,,,,,,8.29,7.39,3.77*00
$GPGSV,3,1,10,02,47,338,21,05,31,248,40,09,30,055,,12,27,280,16*7C
$GPGSV,3,2,10,13,09,189,,17,32,139,30,19,55,132,36,20,25,252,36*75
$GPGSV,3,3,10,25,07,309,25,50,60,166,36*72
$GPGLL,2458.00630,N,12111.22220,E,082544.00,A,D*6F
$GPRMC,082545.00,A,2458.00627,N,12111.22218,E,0.021,,090621,,,D*75
$GPVTG,,T,,M,0.021,N,0.040,K,D*21
$GPGGA,082545.00,2458.00627,N,12111.22218,E,2,06,7.39,150.0,M,16.4,M,,0000*5C
$GPGSA,A,3,50,05,20,17,12,19,,,,,,,8.30,7.39,3.77*08
$GPGSV,3,1,10,02,47,338,20,05,31,248,40,09,30,055,,12,27,280,15*7E
$GPGSV,3,2,10,13,09,189,,17,32,139,30,19,55,132,36,20,25,252,35*76
$GPGSV,3,3,10,25,07,309,25,50,60,166,36*72
$GPGLL,2458.00627,N,12111.22218,E,082545.00,A,D*63
$GPRMC,082546.00,A,2458.00643,N,12111.22220,E,0.147,,090621,,,D*7E
$GPVTG,,T,,M,0.147,N,0.273,K,D*22
$GPGGA,082546.00,2458.00643,N,12111.22220,E,2,06,7.40,150.0,M,16.4,M,,0000*58
$GPGSA,A,3,50,05,20,17,12,19,,,,,,,8.30,7.40,3.77*06
$GPGSV,3,1,10,02,47,338,19,05,31,248,40,09,30,055,,12,27,280,14*75
$GPGSV,3,2,10,13,09,189,,17,32,139,30,19,55,132,36,20,25,252,35*76
$GPGSV,3,3,10,25,07,309,25,50,60,166,36*72
$GPGLL,2458.00643,N,12111.22220,E,082546.00,A,D*69
$GPVTG,,T,,M,0.061,N,0.113,K,D*22
$GPGGA,082640.00,2458.00616,N,12111.22209,E,2,07,7.57,151.4,M,16.4,M,,0000*54
$GPGSA,A,3,50,02,05,20,17,12,19,,,,,,8.45,7.57,3.77*00
$GPGSV,3,1,10,02,47,338,21,05,31,249,42,09,29,055,,12,27,279,23*77
$GPGSV,3,2,10,13,10,189,,17,32,139,30,19,55,133,35,20,26,253,36*7D
$GPGSV,3,3,10,25,07,309,23,50,60,166,36*74
$GPGLL,2458.00616,N,12111.22209,E,082640.00,A,D*67
$GPRMC,082641.00,A,2458.00622,N,12111.22208,E,0.079,,090621,,,D*7B
$GPVTG,,T,,M,0.079,N,0.145,K,D*28
$GPGGA,082641.00,2458.00622,N,12111.22208,E,2,07,7.57,151.5,M,16.4,M,,0000*52
$GPRMC,082642.00,A,2458.00648,N,12111.22209,E,0.107,,090621,,,D*7D
$GPVTG,,T,,M,0.107,N,0.198,K,D*20
$GPGGA,082642.00,2458.00648,N,12111.22209,E,2,07,7.57,151.7,M,16.4,M,,0000*5E
$GPGSA,A,3,50,02,05,20,17,12,19,,,,,,8.46,7.57,3.77*03
$GPGSV,3,1,10,02,47,338,21,05,31,249,42,09,29,055,,12,27,279,23*77
$GPGSV,3,2,10,13,10,189,,17,32,139,30,19,55,133,35,20,26,253,36*7D
$GPGSV,3,3,10,25,07,309,24,50,60,166,36*73
$GPGLL,2458.00648,N,12111.22209,E,082642.00,A,D*6E
$GPRMC,082643.00,A,2458.00659,N,12111.22210,E,0.072,,090621,,,D*77
$GPVTG,,T,,M,0.072,N,0.133,K,D*22
$GPGGA,082643.00,2458.00659,N,12111.22210,E,2,06,7.58,151.8,M,16.4,M,,0000*56
$GPGSA,A,3,50,05,20,17,12,19,,,,,,,8.46,7.58,3.77*0E
$GPGSV,3,1,11,02,47,338,21,04,02,036,,05,31,249,41,09,29,055,*7D
$GPRMC,082644.00,A,2458.00663,N,12111.22211,E,0.054,,090621,,,D*7C
$GPVTG,,T,,M,0.054,N,0.100,K,D*26
$GPGGA,082644.00,2458.00663,N,12111.22211,E,2,07,7.58,151.8,M,16.4,M,,0000*58
$GPGSA,A,3,50,02,05,20,17,12,19,,,,,,8.46,7.58,3.77*0C
$GPGSV,3,1,11,02,47,338,21,04,02,036,,05,31,249,42,09,29,055,*7E
$GPGSV,3,2,11,12,27,279,24,13,10,189,,17,32,139,30,19,55,133,35*77
$GPGSV,3,3,11,20,26,253,36,25,07,309,23,50,60,166,36*42
$GPGLL,2458.00663,N,12111.22211,E,082644.00,A,D*68
$GPRMC,082645.00,A,2458.00669,N,12111.22209,E,0.087,,090621,,,D*70
$GPVTG,,T,,M,0.087,N,0.162,K,D*2C
$GPGGA,082645.00,2458.00669,N,12111.22209,E,2,07,7.58,151.9,M,16.4,M,,0000*5B
$GPGSA,A,3,50,02,05,20,17,12,19,,,,,,8.47,7.58,3.77*0D
$GPGSV,3,1,11,02,47,338,21,04,02,036,,05,31,249,41,09,29,055,*7D
$GPGSV,3,2,11,12,27,279,24,13,10,189,,17,32,139,30,19,55,133,36*74
$GPGSV,3,3,11,20,26,253,36,25,07,309,24,50,60,166,36*45
$GPGLL,2458.00669,N,12111.22209,E,082645.00,A,D*6A
$GPRMC,082646.00,A,2458.00668,N,12111.22210,E,0.055,,090621,,,D*75
$GPVTG,,T,,M,0.055,N,0.101,K,D*26
$GPGGA,082646.00,2458.00668,N,12111.22210,E,2,07,7.59,152.0,M,16.4,M,,0000*5A
$GPGSA,A,3,50,02,05,20,17,12,19,,,,,,8.47,7.59,3.77*0C
$GPGSV,3,1,11,02,47,338,21,04,02,036,,05,31,249,41,09,29,055,*7D
$GPGSV,3,2,11,12,27,279,24,13,10,189,,17,32,139,30,19,55,133,35*77
$GPGSV,3,3,11,20,26,253,36,25,07,309,25,50,60,166,36*44
$GPGLL,2458.00668,N,12111.22210,E,082646.00,A,D*60
$GPRMC,082647.00,A,2458.00668,N,12111.22208,E,0.078,,090621,,,D*72
$GPVTG,,T,,M,0.078,N,0.145,K,D*29
$GPGGA,082647.00,2458.00668,N,12111.22208,E,2,07,7.59,152.1,M,16.4,M,,0000*53
$GPGSA,A,3,50,02,05,20,17,12,19,,,,,,8.47,7.59,3.77*0C
$GPGSV,3,1,11,02,47,338,22,04,02,036,,05,31,249,42,09,29,055,*7D
$GPGSV,3,2,11,12,27,279,24,13,10,189,,17,32,139,30,19,55,133,35*77
$GPGSV,3,3,11,20,26,253,36,25,07,309,25,50,60,166,36*44
$GPGLL,2458.00668,N,12111.22208,E,082647.00,A,D*68
$GPRMC,082648.00,A,2458.00671,N,12111.22206,E,0.091,,090621,,,D*7C
$GPVTG,,T,,M,0.091,N,0.168,K,D*21
$GPGGA,082648.00,2458.00671,N,12111.22206,E,2,07,7.59,152.2,M,16.4,M,,0000*59
$GPGSA,A,3,50,02,05,20,17,12,19,,,,,,8.48,7.59,3.77*03
$GPGSV,3,1,11,02,47,338,21,04,02,036,,05,31,249,41,09,29,055,*7D
$GPGSV,3,2,11,12,27,279,23,13,10,189,,17,32,139,30,19,55,133,36*73
$GPGSV,3,3,11,20,26,253,36,25,07,309,25,50,60,166,36*44
$GPGLL,2458.00671,N,12111.22206,E,082648.00,A,D*61
$GPRMC,082649.00,A,2458.00671,N,12111.22206,E,0.107,,090621,,,D*73
$GPVTG,,T,,M,0.107,N,0.199,K,D*21
$GPGGA,082649.00,2458.00671,N,12111.22206,E,2,07,7.59,152.3,M,16.4,M,,0000*59
$GPGSA,A,3,50,02,05,20,17,12,19,,,,,,8.48,7.59,3.77*03
$GPGSV,3,1,11,02,47,338,20,04,02,036,,05,31,249,41,09,29,055,*7C
$GPGSV,3,2,11,12,27,279,23,13,10,189,,17,32,139,29,19,55,133,35*78
$GPGSV,3,3,11,20,26,253,36,25,07,309,25,50,60,166,36*44
$GPGLL,2458.00671,N,12111.22206,E,082649.00,A,D*60
$GPRMC,082650.00,A,2458.00662,N,12111.22205,E,0.168,,090621,,,D*73
$GPVTG,,T,,M,0.168,N,0.311,K,D*2A
$GPGGA,082650.00,2458.00662,N,12111.22205,E,2,07,7.60,152.3,M,16.4,M,,0000*5A
$GPGSA,A,3,50,02,05,20,17,12,19,,,,,,8.48,7.60,3.77*09
$GPGSV,3,1,11,02,47,338,20,04,02,036,,05,31,249,41,09,29,055,*7C
$GPGSV,3,2,11,12,27,279,23,13,10,189,,17,32,139,29,19,55,133,36*7B
$GPGSV,3,3,11,20,26,253,36,25,07,309,25,50,60,166,35*47
$GPGLL,2458.00662,N,12111.22205,E,082650.00,A,D*69
$GPGSA,A,3,50,02,05,20,17,09,12,19,,,,,8.50,7.62,3.77*0B
$GPGSV,3,1,11,02,47,338,20,04,02,036,,05,31,249,41,09,29,055,23*7D
$GPGSV,3,2,11,12,27,279,24,13,10,189,,17,32,139,29,19,55,133,36*7C
$GPGSV,3,3,11,20,26,253,36,25,07,309,24,50,60,166,36*45
$GPGLL,2458.00648,N,12111.22197,E,082657.00,A,D*6E
$GPRMC,082658.00,A,2458.00638,N,12111.22196,E,0.196,,090621,,,D*7C
$GPVTG,,T,,M,0.196,N,0.362,K,D*2F
$GPGGA,082658.00,2458.00638,N,12111.22196,E,2,06,7.62,152.1,M,16.4,M,,0000*55
$GPGSA,A,3,50,05,20,17,12,19,,,,,,,8.51,7.62,3.77*01
$GPGSV,3,1,11,02,47,338,,04,02,036,,05,31,249,41,09,29,055,*7E
$GPGSV,3,2,11,12,27,279,23,13,10,189,,17,32,139,29,19,55,133,36*7B
$GPGSV,3,3,11,20,26,253,36,25,07,309,25,50,60,166,36*44
$GPGLL,2458.00638,N,12111.22196,E,082658.00,A,D*67
$GPRMC,082659.00,A,2458.00628,N,12111.22195,E,0.178,,090621,,,D*7F
$GPVTG,,T,,M,0.178,N,0.330,K,D*28
$GPGGA,082659.00,2458.00628,N,12111.22195,E,2,08,7.63,152.0,M,16.4,M,,0000*58
$GPGSA,A,3,50,02,05,20,17,09,12,19,,,,,8.51,7.63,3.77*0B
$GPGSV,3,1,11,02,47,338,21,04,02,036,,05,31,249,41,09,29,055,21*7E
$GPGSV,3,2,11,12,27,279,23,13,10,189,,17,32,139,29,19,55,133,36*7B
$GPGSV,3,3,11,20,26,253,36,25,07,309,24,50,60,166,36*45
$GPGLL,2458.00628,N,12111.22195,E,082659.00,A,D*64
$GPRMC,082700.00,A,2458.00623,N,12111.22192,E,0.171,,090621,,,D*77
$GPVTG,,T,,M,0.171,N,0.316,K,D*25
$GPGGA,082700.00,2458.00623,N,12111.22192,E,2,06,7.63,152.1,M,16.4,M,,0000*56
$GPGSA,A,3,50,05,20,17,12,19,,,,,,,8.51,7.63,3.77*00
$GPGSV,3,1,11,02,47,338,,04,02,036,,05,31,249,41,09,29,055,*7E
$GPGSV,3,2,11,12,27,279,23,13,10,189,,17,32,139,29,19,55,133,36*7B
$GPGSV,3,3,11,20,26,253,36,25,07,309,25,50,60,166,36*44
$GPGLL,2458.00623,N,12111.22192,E,082700.00,A,D*65
$GPRMC,082701.00,A,2458.00624,N,12111.22191,E,0.182,,090621,,,D*7E
$GPVTG,,T,,M,0.182,N,0.338,K,D*25
$GPGGA,082701.00,2458.00624,N,12111.22191,E,2,07,7.63,152.1,M,16.4,M,,0000*52
$GPGSA,A,3,50,02,05,20,17,12,19,,,,,,8.51,7.63,3.77*02
$GPGSV,3,1,11,02,47,338,21,04,02,036,,05,31,249,41,09,29,055,*7D
$GPGSV,3,2,11,12,27,279,23,13,10,189,,17,32,139,29,19,55,133,36*7B
$GPGSV,3,3,11,20,26,253,36,25,07,309,25,50,60,166,36*44
$GPGLL,2458.00624,N,12111.22191,E,082701.00,A,D*60
$GPRMC,082702.00,A,2458.00599,N,12111.22189,E,0.269,,090621,,,D*77
$GPVTG,,T,,M,0.269,N,0.498,K,D*2E
$GPGGA,082702.00,2458.00599,N,12111.22189,E,2,07,7.64,152.0,M,16.4,M,,0000*5B
$GPGSA,A,3,50,02,05,20,17,12,19,,,,,,8.52,7.64,3.77*06
$GPGSV,3,1,11,02,47,338,22,04,02,036,,05,31,249,41,09,29,055,*7E
$GPGSV,3,2,11,12,27,279,23,13,10,189,,17,32,139,29,19,55,133,36*7B
$GPGSV,3,3,11,20,26,253,36,25,07,309,24,50,60,166,36*45
$GPGLL,2458.00599,N,12111.22189,E,082702.00,A,D*6F
$GPRMC,082703.00,A,2458.00585,N,12111.22184,E,0.087,,090621,,,D*74
$GPVTG,,T,,M,0.087,N,0.162,K,D*2C
$GPGGA,082703.00,2458.00585,N,12111.22184,E,2,07,7.64,152.1,M,16.4,M,,0000*5B
$GPGSA,A,3,50,02,05,20,17,12,19,,,,,,8.52,7.64,3.77*06
$GPGSV,3,1,11,02,47,338,22,04,02,036,,05,31,249,41,09,29,055,*7E
$GPGSV,3,2,11,12,27,279,23,13,10,189,,17,32,139,29,19,55,133,36*7B
$GPGSV,3,3,11,20,26,253,36,25,07,309,25,50,60,166,36*44
$GPGLL,2458.00585,N,12111.22184,E,082703.00,A,D*6E
$GPRMC,082704.00,A,2458.00570,N,12111.22180,E,0.042,,090621,,,D*74
$GPVTG,,T,,M,0.042,N,0.078,K,D*2F
$GPGGA,082704.00,2458.00570,N,12111.22180,E,2,07,7.64,152.1,M,16.4,M,,0000*52
$GPGSA,A,3,50,02,05,20,17,12,19,,,,,,8.52,7.64,3.77*06
$GPGSV,3,1,11,02,47,338,22,04,02,036,,05,31,249,41,09,29,055,*7E
$GPGSV,3,2,11,12,27,279,22,13,10,189,,17,32,139,28,19,55,133,36*7B
$GPGSV,3,3,11,20,26,253,36,25,07,309,25,50,60,166,36*44
$GPGLL,2458.00570,N,12111.22180,E,082704.00,A,D*67
$GPRMC,082705.00,A,2458.00567,N,12111.22178,E,0.107,,090621,,,D*74
$GPVTG,,T,,M,0.107,N,0.198,K,D*20
$GPGGA,082705.00,2458.00567,N,12111.22178,E,2,07,7.65,152.2,M,16.4,M,,0000*50
$GPGSA,A,3,50,02,05,20,17,12,19,,,,,,8.53,7.65,3.77*06
$GPGSV,3,1,11,02,47,338,22,04,02,036,,05,31,249,41,09,29,055,*7E
$GPGSV,3,2,11,12,27,279,22,13,10,189,,17,32,139,29,19,55,133,36*7A
$GPGSV,3,3,11,20,26,253,36,25,07,309,25,50,60,166,36*44
$GPGLL,2458.00567,N,12111.22178,E,082705.00,A,D*67
$GPRMC,082706.00,A,2458.00577,N,12111.22175,E,0.242,,090621,,,D*79
$GPVTG,,T,,M,0.242,N,0.449,K,D*2B
$GPGGA,082706.00,2458.00577,N,12111.22175,E,2,07,7.65,152.3,M,16.4,M,,0000*5E
$GPGSA,A,3,50,02,05,20,17,12,19,,,,,,8.53,7.65,3.77*06
$GPGSV,3,1,11,02,47,338,22,04,02,036,,05,31,249,41,09,29,055,*7E
$GPGSV,3,2,11,12,27,279,22,13,10,189,,17,32,139,29,19,55,133,36*7A
$GPGSV,3,3,11,20,26,253,36,25,07,309,24,50,60,166,36*45
$GPGLL,2458.00577,N,12111.22175,E,082706.00,A,D*68
$GPRMC,082707.00,A,2458.00563,N,12111.22174,E,0.148,,090621,,,D*75
$GPVTG,,T,,M,0.148,N,0.275,K,D*2B
$GPGGA,082707.00,2458.00563,N,12111.22174,E,2,07,7.65,152.3,M,16.4,M,,0000*5B
$GPGSA,A,3,50,02,05,20,17,12,19,,,,,,8.53,7.65,3.77*06
$GPGSV,3,1,12,02,47,338,21,04,02,036,,05,31,249,41,09,29,055,*7E
$GPGSV,3,2,12,12,27,279,22,13,10,189,,17,32,139,29,19,55,133,36*79
$GPGSV,3,3,12,20,26,253,36,25,07,309,24,28,06,176,,50,60,166,36*7A
$GPGLL,2458.00563,N,12111.22174,E,082707.00,A,D*6D
$GPRMC,082708.00,A,2458.00547,N,12111.22169,E,0.117,,090621,,,D*7A
$GPVTG,,T,,M,0.117,N,0.216,K,D*24
$GPGGA,082708.00,2458.00547,N,12111.22169,E,2,07,7.66,152.3,M,16.4,M,,0000*5D
$GPGSA,A,3,50,02,05,20,17,12,19,,,,,,8.53,7.66,3.77*05
$GPGSV,3,1,12,02,47,338,21,04,02,036,,05,31,249,41,09,29,055,*7E
$GPGSV,3,2,12,12,27,279,22,13,10,189,,17,32,139,29,19,55,133,36*79
$GPGSV,3,3,12,20,26,253,36,25,07,309,24,28,06,176,,50,60,166,36*7A
$GPGLL,2458.00547,N,12111.22169,E,082708.00,A,D*68
$GPRMC,082709.00,A,2458.00532,N,12111.22164,E,0.065,,090621,,,D*70
$GPVTG,,T,,M,0.065,N,0.120,K,D*26
$GPGGA,082709.00,2458.00532,N,12111.22164,E,2,07,7.66,152.3,M,16.4,M,,0000*53
$GPGSA,A,3,50,02,05,20,17,12,19,,,,,,8.54,7.66,3.77*02
$GPGSV,3,1,12,02,47,338,21,04,02,036,,05,31,249,41,09,29,055,*7E
$GPGSV,3,2,12,12,27,279,22,13,10,189,,17,32,139,29,19,55,133,36*79
$GPGSV,3,3,12,20,26,253,36,25,07,309,25,28,06,176,,50,60,166,35*78
$GPGLL,2458.00532,N,12111.22164,E,082709.00,A,D*66
$GPRMC,082710.00,A,2458.00523,N,12111.22161,E,0.079,,090621,,,D*70
$GPVTG,,T,,M,0.079,N,0.146,K,D*2B
$GPGGA,082710.00,2458.00523,N,12111.22161,E,2,07,7.66,152.4,M,16.4,M,,0000*59
$GPGSA,A,3,50,02,05,20,17,12,19,,,,,,8.54,7.66,3.77*02
$GPGSV,3,1,12,02,47,339,21,04,02,036,,05,31,249,41,09,29,055,*7F
$GPGSV,3,2,12,12,27,279,22,13,10,189,,17,32,139,29,19,55,133,36*79
$GPGSV,3,3,12,20,26,253,36,25,07,309,25,28,06,176,,50,60,166,36*7B
$GPGLL,2458.00523,N,12111.22161,E,082710.00,A,D*6B
$GPRMC,082711.00,A,2458.00502,N,12111.22156,E,0.031,,090621,,,D*7A
$GPVTG,,T,,M,0.031,N,0.057,K,D*26
$GPGGA,082711.00,2458.00502,N,12111.22156,E,2,07,7.67,152.4,M,16.4,M,,0000*5E
$GPGSA,A,3,50,02,05,20,17,12,19,,,,,,8.54,7.67,3.77*03
$GPGSV,3,1,12,02,47,339,21,04,02,036,,05,31,249,41,09,29,055,*7F
$GPGSV,3,2,12,12,27,279,22,13,10,189,,17,32,139,29,19,55,133,36*79
$GPRMC,082733.00,A,2458.00396,N,12111.22109,E,0.197,,090621,,,D*76
$GPVTG,,T,,M,0.197,N,0.365,K,D*29
$GPGGA,082733.00,2458.00396,N,12111.22109,E,2,06,7.74,153.2,M,16.4,M,,0000*5B
$GPGSA,A,3,50,05,20,17,12,19,,,,,,,8.61,7.74,3.77*05
$GPGSV,3,1,12,02,47,339,,04,01,036,,05,32,249,41,09,29,054,*7D
$GPGSV,3,2,12,12,27,279,20,13,10,189,,17,31,139,28,19,54,133,37*79
$GPGSV,3,3,12,20,26,253,35,25,07,308,23,28,06,176,,50,60,166,36*7F
$GPGLL,2458.00396,N,12111.22109,E,082733.00,A,D*6C
$GPRMC,082734.00,A,2458.00394,N,12111.22106,E,0.139,,090621,,,D*78
$GPVTG,,T,,M,0.139,N,0.258,K,D*22
$GPGGA,082734.00,2458.00394,N,12111.22106,E,2,06,7.74,153.2,M,16.4,M,,0000*51
$GPGSA,A,3,50,05,20,17,12,19,,,,,,,8.61,7.74,3.77*05
$GPGSV,3,1,12,02,47,339,,04,01,036,,05,32,249,41,09,29,054,*7D
$GPGSV,3,2,12,12,27,279,19,13,10,189,,17,31,139,28,19,54,133,37*73
$GPGSV,3,3,12,20,26,253,35,25,07,308,23,28,06,176,,50,60,166,36*7F
$GPGLL,2458.00394,N,12111.22106,E,082734.00,A,D*66
$GPRMC,082735.00,A,2458.00379,N,12111.22102,E,0.201,,090621,,,D*76
$GPVTG,,T,,M,0.201,N,0.372,K,D*23
$GPGGA,082735.00,2458.00379,N,12111.22102,E,2,06,7.75,153.3,M,16.4,M,,0000*57
$GPGSA,A,3,50,05,20,17,12,19,,,,,,,8.62,7.75,3.77*07
$GPGSV,3,1,12,02,47,339,,04,01,036,,05,32,249,41,09,29,054,*7D
$GPGSV,3,2,12,12,27,279,18,13,10,189,,17,31,139,28,19,54,133,36*73
$GPRMC,082736.00,A,2458.00359,N,12111.22097,E,0.220,,090621,,,D*79
$GPVTG,,T,,M,0.220,N,0.407,K,D*25
$GPGGA,082736.00,2458.00359,N,12111.22097,E,2,06,7.75,153.4,M,16.4,M,,0000*5C
$GPGSA,A,3,50,05,20,17,12,19,,,,,,,8.62,7.75,3.77*07
$GPGSV,3,1,12,02,47,339,,04,01,036,,05,32,249,41,09,29,054,*7D
$GPGSV,3,2,12,12,27,279,18,13,10,189,,17,31,139,28,19,54,133,37*72
$GPGSV,3,3,12,20,26,253,35,25,07,308,23,28,06,176,,50,60,166,36*7F
$GPGLL,2458.00359,N,12111.22097,E,082736.00,A,D*6C
$GPRMC,082737.00,A,2458.00342,N,12111.22091,E,0.188,,090621,,,D*75
$GPVTG,,T,,M,0.188,N,0.348,K,D*28
$GPGGA,082737.00,2458.00342,N,12111.22091,E,2,06,7.75,153.5,M,16.4,M,,0000*50
$GPGSA,A,3,50,05,20,17,12,19,,,,,,,8.62,7.75,3.77*07
$GPGSV,3,1,12,02,47,339,,04,01,036,,05,32,249,41,09,29,054,*7D
$GPGSV,3,2,12,12,27,279,18,13,10,189,,17,31,139,28,19,54,133,37*72
$GPGSV,3,3,12,20,26,253,35,25,07,308,24,28,06,176,,50,60,166,36*78
$GPGLL,2458.00342,N,12111.22091,E,082737.00,A,D*61
$GPRMC,082738.00,A,2458.00340,N,12111.22088,E,0.097,,090621,,,D*7F
$GPVTG,,T,,M,0.097,N,0.180,K,D*21
$GPGGA,082738.00,2458.00340,N,12111.22088,E,2,07,7.76,153.6,M,16.4,M,,0000*54
$GPGSA,A,3,50,05,20,17,09,12,19,,,,,,8.62,7.76,3.77*0D
$GPGSV,3,1,12,02,47,339,,04,01,036,,05,32,249,41,09,29,054,22*7D
$GPGSV,3,2,12,12,27,279,18,13,10,189,,17,31,139,28,19,54,133,37*72
$GPGSV,3,3,12,20,26,253,35,25,07,308,23,28,06,176,,50,60,166,36*7F
$GPGLL,2458.00340,N,12111.22088,E,082738.00,A,D*64
$GPRMC,082739.00,A,2458.00337,N,12111.22086,E,0.081,,090621,,,D*77
$GPVTG,,T,,M,0.081,N,0.151,K,D*2A
$GPGGA,082739.00,2458.00337,N,12111.22086,E,2,07,7.76,153.7,M,16.4,M,,0000*5A
$GPGSA,A,3,50,05,20,17,09,12,19,,,,,,8.63,7.76,3.77*0C
$GPGSV,3,1,12,02,47,339,,04,01,036,,05,32,249,41,09,29,054,20*7F
$GPGSV,3,2,12,12,27,279,19,13,10,189,,17,31,139,28,19,54,133,37*73
$GPGSV,3,3,12,20,26,253,35,25,07,308,23,28,06,176,,50,60,166,36*7F
$GPGLL,2458.00337,N,12111.22086,E,082739.00,A,D*6B
$GPRMC,082740.00,A,2458.00337,N,12111.22085,E,0.050,,090621,,,D*76
$GPVTG,,T,,M,0.050,N,0.093,K,D*29
$GPGGA,082740.00,2458.00337,N,12111.22085,E,2,06,7.76,153.7,M,16.4,M,,0000*56
$GPGSA,A,3,50,05,20,17,12,19,,,,,,,8.63,7.76,3.77*05
$GPGSV,3,1,12,02,47,339,,04,01,036,,05,32,249,41,09,29,054,*7D
$GPGSV,3,2,12,12,27,279,19,13,10,189,,17,31,139,28,19,54,133,37*73
$GPGSV,3,3,12,20,26,253,35,25,07,308,23,28,06,176,,50,60,166,36*7F
$GPGLL,2458.00337,N,12111.22085,E,082740.00,A,D*66
$GPRMC,082741.00,A,2458.00341,N,12111.22083,E,0.039,,090621,,,D*7F
$GPVTG,,T,,M,0.039,N,0.073,K,D*28
$GPGGA,082741.00,2458.00341,N,12111.22083,E,2,06,7.77,153.8,M,16.4,M,,0000*5E
$GPGSA,A,3,50,05,20,17,12,19,,,,,,,8.63,7.77,3.77*04
$GPGSV,3,1,12,02,47,339,,04,01,036,,05,32,249,41,09,29,054,*7D
$GPGSV,3,2,12,12,27,279,19,13,10,189,,17,31,139,28,19,54,133,37*73
$GPGSV,3,3,12,20,26,253,34,25,07,308,23,28,06,176,,50,60,166,36*7E
$GPGLL,2458.00341,N,12111.22083,E,082741.00,A,D*60
$GPRMC,082742.00,A,2458.00337,N,12111.22081,E,0.051,,090621,,,D*71
$GPVTG,,T,,M,0.051,N,0.095,K,D*2E
$GPGGA,082742.00,2458.00337,N,12111.22081,E,2,06,7.77,153.9,M,16.4,M,,0000*5F
$GPGSA,A,3,50,05,20,17,12,19,,,,,,,8.64,7.77,3.77*03
$GPGSV,3,1,12,02,47,339,,04,01,036,,05,32,249,41,09,29,054,*7D
$GPGSV,3,2,12,12,27,279,20,13,10,189,,17,31,139,28,19,54,133,36*78
$GPGSV,3,3,12,20,26,253,34,25,07,308,23,28,06,176,,50,60,166,36*7E
$GPGLL,2458.00337,N,12111.22081,E,082742.00,A,D*60
$GPRMC,082743.00,A,2458.00343,N,12111.22081,E,0.081,,090621,,,D*7E
$GPVTG,,T,,M,0.081,N,0.151,K,D*2A
$GPGGA,082743.00,2458.00343,N,12111.22081,E,2,06,7.77,153.9,M,16.4,M,,0000*5D
$GPGSA,A,3,50,05,20,17,12,19,,,,,,,8.64,7.77,3.77*03
$GPGSV,4,1,13,02,47,339,,04,01,036,,05,32,249,41,06,49,036,*76
$GPGSV,4,2,13,09,29,054,,12,27,279,20,13,10,189,,17,31,139,28*70
$GPGSV,4,3,13,19,54,133,37,20,26,253,34,25,07,308,24,28,06,176,*74
$GPGSV,4,4,13,50,60,166,36*4C
$GPGLL,2458.00343,N,12111.22081,E,082743.00,A,D*62
$GPRMC,082744.00,A,2458.00345,N,12111.22080,E,0.064,,090621,,,D*75
$GPVTG,,T,,M,0.064,N,0.118,K,D*2C
$GPGGA,082744.00,2458.00345,N,12111.22080,E,2,06,7.78,153.9,M,16.4,M,,0000*52
$GPGSA,A,3,50,05,20,17,12,19,,,,,,,8.64,7.78,3.77*0C
$GPGSV,4,1,13,02,47,339,,04,01,036,,05,32,249,41,06,49,036,*76
$GPGSV,4,2,13,09,29,054,,12,27,279,19,13,10,189,,17,31,139,28*7A
$GPGSV,4,3,13,19,54,133,37,20,26,253,34,25,07,308,23,28,06,176,*73
$GPGSV,4,4,13,50,60,166,36*4C
$GPGLL,2458.00345,N,12111.22080,E,082744.00,A,D*62
$GPRMC,082745.00,A,2458.00346,N,12111.22080,E,0.046,,090621,,,D*77
$GPVTG,,T,,M,0.046,N,0.085,K,D*29
$GPGGA,082745.00,2458.00346,N,12111.22080,E,2,06,7.78,153.8,M,16.4,M,,0000*51
$GPGSA,A,3,50,05,20,17,12,19,,,,,,,8.65,7.78,3.77*0D
$GPGSV,4,1,13,02,47,339,,04,01,036,,05,32,249,41,06,49,036,*76
$GPGSV,4,2,13,09,29,054,,12,27,279,18,13,10,189,,17,31,139,28*7B
$GPGSV,4,3,13,19,54,133,37,20,26,253,34,25,07,308,23,28,06,176,*73
$GPGSV,4,4,13,50,60,166,36*4C
$GPGSV,4,3,13,19,54,133,36,20,26,253,33,25,07,308,23,28,06,176,*75
$GPGSV,4,4,13,50,60,166,36*4C
$GPGLL,2458.00322,N,12111.22076,E,082802.00,A,D*67
$GPRMC,082803.00,A,2458.00322,N,12111.22075,E,0.180,,090621,,,D*79
$GPVTG,,T,,M,0.180,N,0.333,K,D*2C
$GPGGA,082803.00,2458.00322,N,12111.22075,E,2,06,7.84,152.4,M,16.4,M,,0000*5A
$GPGSA,A,3,50,05,20,17,12,19,,,,,,,8.70,7.84,3.77*0A
$GPGSV,4,1,13,02,47,339,,04,01,036,,05,32,249,41,06,49,036,*76
$GPGSV,4,2,13,09,29,054,,12,27,279,13,13,10,189,,17,31,139,28*70
$GPGSV,4,3,13,19,54,133,36,20,26,253,33,25,07,308,24,28,06,176,*72
$GPGSV,4,4,13,50,60,166,36*4C
$GPGLL,2458.00322,N,12111.22075,E,082803.00,A,D*65
$GPRMC,082804.00,A,2458.00323,N,12111.22074,E,0.195,,090621,,,D*7A
$GPVTG,,T,,M,0.195,N,0.361,K,D*2F
$GPGGA,082804.00,2458.00323,N,12111.22074,E,2,06,7.85,152.4,M,16.4,M,,0000*5C
$GPGSA,A,3,50,05,20,17,12,19,,,,,,,8.70,7.85,3.77*0B
$GPGSV,4,1,13,02,47,339,,04,01,036,,05,32,249,41,06,49,036,*76
$GPGSV,4,2,13,09,29,054,,12,27,279,13,13,10,189,,17,31,139,28*70
$GPGSV,4,3,13,19,54,133,36,20,26,253,33,25,07,308,23,28,06,176,*75
$GPGSV,4,4,13,50,60,166,36*4C
$GPGLL,2458.00323,N,12111.22074,E,082804.00,A,D*62
$GPRMC,082805.00,A,2458.00323,N,12111.22072,E,0.244,,090621,,,D*72
$GPVTG,,T,,M,0.244,N,0.452,K,D*27
$GPGGA,082805.00,2458.00323,N,12111.22072,E,2,06,7.85,152.3,M,16.4,M,,0000*5C
$GPGSA,A,3,50,05,20,17,12,19,,,,,,,8.71,7.85,3.77*0A
$GPGSV,4,1,13,02,47,339,,04,01,036,,05,32,249,41,06,49,036,*76
$GPGSV,4,2,13,09,29,054,,12,27,279,14,13,10,189,,17,31,139,27*78
$GPGSV,4,3,13,19,54,133,36,20,26,253,33,25,07,308,23,28,06,176,*75
$GPGSV,4,4,13,50,60,166,36*4C
$GPGLL,2458.00323,N,12111.22072,E,082805.00,A,D*65
$GPRMC,082806.00,A,2458.00344,N,12111.22075,E,0.169,,090621,,,D*7B
$GPVTG,,T,,M,0.169,N,0.312,K,D*28
$GPGGA,082806.00,2458.00344,N,12111.22075,E,2,06,7.85,152.3,M,16.4,M,,0000*59
$GPGSA,A,3,50,05,20,17,12,19,,,,,,,8.71,7.85,3.77*0A
$GPGSV,4,1,13,02,47,339,,04,01,036,,05,32,249,41,06,49,036,*76
$GPGSV,4,2,13,09,29,054,,12,27,279,13,13,10,189,,17,31,139,27*7F
$GPGSV,4,3,13,19,54,133,36,20,26,253,33,25,07,308,23,28,06,176,*75
$GPGSV,4,4,13,50,60,166,36*4C
$GPGLL,2458.00344,N,12111.22075,E,082806.00,A,D*60
$GPRMC,082807.00,A,2458.00339,N,12111.22075,E,0.251,,090621,,,D*78
$GPVTG,,T,,M,0.251,N,0.465,K,D*27
$GPGGA,082807.00,2458.00339,N,12111.22075,E,2,06,7.86,152.2,M,16.4,M,,0000*50
$GPGSA,A,3,50,05,20,17,12,19,,,,,,,8.71,7.86,3.77*09
$GPGSV,4,1,13,02,47,339,,04,01,036,,05,32,249,41,06,49,036,*76
$GPGSV,4,2,13,09,29,054,,12,27,279,13,13,10,189,,17,31,139,28*70
$GPGSV,4,3,13,19,54,133,36,20,26,253,33,25,07,308,23,28,06,176,*75
$GPGSV,4,4,13,50,60,166,36*4C
$GPGLL,2458.00339,N,12111.22075,E,082807.00,A,D*6B
$GPRMC,082808.00,A,2458.00350,N,12111.22078,E,0.184,,090621,,,D*7E
$GPVTG,,T,,M,0.184,N,0.340,K,D*2C
$GPGGA,082808.00,2458.00350,N,12111.22078,E,2,06,7.86,152.1,M,16.4,M,,0000*5E
$GPGSA,A,3,50,05,20,17,12,19,,,,,,,8.72,7.86,3.77*0A
$GPGSV,4,1,13,02,47,339,,04,01,036,,05,32,249,41,06,49,036,*76
$GPGSV,4,2,13,09,29,054,,12,27,279,11,13,10,189,,17,31,139,28*72
$GPGSV,4,3,13,19,54,133,36,20,26,253,33,25,07,308,24,28,06,176,*72
$GPGSV,4,4,13,50,60,166,36*4C
$GPRMC,082809.00,A,2458.00361,N,12111.22080,E,0.139,,090621,,,D*7C
$GPVTG,,T,,M,0.139,N,0.258,K,D*22
$GPGGA,082809.00,2458.00361,N,12111.22080,E,2,05,7.86,152.1,M,16.4,M,,0000*59
$GPRMC,082811.00,A,2458.00368,N,12111.22083,E,0.226,,090621,,,D*72
$GPVTG,,T,,M,0.226,N,0.418,K,D*2D
$GPGGA,082811.00,2458.00368,N,12111.22083,E,2,06,7.87,152.0,M,16.4,M,,0000*59
$GPGSA,A,3,50,02,05,20,17,19,,,,,,,8.73,7.87,3.77*0B
$GPRMC,082812.00,A,2458.00383,N,12111.22085,E,0.137,,090621,,,D*71
$GPVTG,,T,,M,0.137,N,0.253,K,D*27
$GPGGA,082812.00,2458.00383,N,12111.22085,E,2,06,7.87,151.9,M,16.4,M,,0000*53
$GPGSA,A,3,50,02,05,20,17,19,,,,,,,8.73,7.87,3.77*0B
$GPGSV,4,1,13,02,47,339,21,04,01,036,,05,32,249,41,06,49,036,22*75
$GPGSV,4,2,13,09,29,054,,12,27,279,,13,10,189,,17,31,139,28*72
$GPRMC,082813.00,A,2458.00389,N,12111.22086,E,0.098,,090621,,,D*7D
$GPVTG,,T,,M,0.098,N,0.182,K,D*2C
$GPGGA,082813.00,2458.00389,N,12111.22086,E,2,06,7.88,151.9,M,16.4,M,,0000*54
$GPGSA,A,3,50,02,05,20,17,19,,,,,,,8.73,7.88,3.77*04
$GPGSV,4,1,13,02,47,339,21,04,01,036,,05,32,249,41,06,49,036,22*75
$GPRMC,082814.00,A,2458.00404,N,12111.22087,E,0.127,,090621,,,D*7C
$GPVTG,,T,,M,0.127,N,0.234,K,D*27
$GPGGA,082814.00,2458.00404,N,12111.22087,E,2,06,7.88,151.9,M,16.4,M,,0000*50
$GPRMC,082815.00,A,2458.00411,N,12111.22087,E,0.177,,090621,,,D*7C
$GPVTG,,T,,M,0.177,N,0.327,K,D*21
$GPGGA,082815.00,2458.00411,N,12111.22087,E,2,06,7.88,151.8,M,16.4,M,,0000*54
$GPGSA,A,3,50,02,05,20,17,19,,,,,,,8.74,7.88,3.77*03
$GPRMC,082816.00,A,2458.00402,N,12111.22087,E,0.312,,090621,,,D*7C
$GPVTG,,T,,M,0.312,N,0.577,K,D*23
$GPGGA,082816.00,2458.00402,N,12111.22087,E,2,06,7.89,151.7,M,16.4,M,,0000*5B
$GPRMC,082817.00,A,2458.00402,N,12111.22089,E,0.260,,090621,,,D*77
$GPVTG,,T,,M,0.260,N,0.482,K,D*2C
$GPGGA,082817.00,2458.00402,N,12111.22089,E,2,06,7.89,151.6,M,16.4,M,,0000*55
$GPGSA,A,3,50,02,05,20,17,19,,,,,,,8.75,7.89,3.77*03
$GPGSV,4,1,13,02,47,339,23,04,01,036,,05,32,249,41,06,49,036,22*77
$GPGSV,4,2,13,09,29,054,,12,27,279,,13,10,189,,17,31,139,28*72
$GPGSV,4,3,13,19,54,133,36,20,26,253,33,25,07,308,25,28,06,176,*73
$GPGSV,4,4,13,50,60,166,36*4C
$GPRMC,082818.00,A,2458.00409,N,12111.22091,E,0.143,,090621,,,D*78
$GPVTG,,T,,M,0.143,N,0.265,K,D*21
$GPGGA,082818.00,2458.00409,N,12111.22091,E,2,06,7.89,151.5,M,16.4,M,,0000*5B
$GPGSA,A,3,50,02,05,20,17,19,,,,,,,8.75,7.89,3.77*03
$GPGSV,4,1,13,02,47,339,23,04,01,036,,05,32,249,42,06,49,036,23*75
$GPRMC,082819.00,A,2458.00426,N,12111.22092,E,0.065,,090621,,,D*72
$GPVTG,,T,,M,0.065,N,0.121,K,D*27
$GPGGA,082819.00,2458.00426,N,12111.22092,E,2,06,7.90,151.6,M,16.4,M,,0000*5F
$GPGSA,A,3,50,02,05,20,17,19,,,,,,,8.75,7.90,3.77*0B
$GPGSV,4,1,13,02,47,339,24,04,01,036,,05,32,249,41,06,49,036,23*71
$GPRMC,082820.00,A,2458.00425,N,12111.22093,E,0.119,,090621,,,D*70
$GPRMC,082821.00,A,2458.00430,N,12111.22094,E,0.063,,090621,,,D*7E
$GPVTG,,T,,M,0.063,N,0.117,K,D*24
$GPGGA,082821.00,2458.00430,N,12111.22094,E,2,06,7.90,151.5,M,16.4,M,,0000*56
$GPGSA,A,3,50,02,05,20,17,19,,,,,,,8.76,7.90,3.77*08
$GPGSV,4,1,13,02,47,339,24,04,01,036,,05,32,249,41,06,49,036,23*71
$GPGSV,4,2,13,09,29,054,,12,27,279,,13,10,189,,17,31,139,27*7D
$GPGSV,4,3,13,19,54,133,36,20,26,253,34,25,07,308,24,28,06,176,*75
$GPGSV,4,4,13,50,60,166,36*4C
$GPRMC,082823.00,A,2458.00444,N,12111.22100,E,0.093,,090621,,,D*7C
$GPVTG,,T,,M,0.093,N,0.171,K,D*2B
$GPGGA,082823.00,2458.00444,N,12111.22100,E,2,06,7.91,151.2,M,16.4,M,,0000*5D
$GPGSA,A,3,50,02,05,20,17,19,,,,,,,8.76,7.91,3.77*09
$GPGSV,4,1,13,02,47,339,24,04,01,036,,05,32,250,41,06,49,036,23*79
$GPRMC,082825.00,A,2458.00458,N,12111.22109,E,0.097,,090621,,,D*7A
$GPVTG,,T,,M,0.097,N,0.179,K,D*27
$GPGGA,082825.00,2458.00458,N,12111.22109,E,2,06,7.92,150.8,M,16.4,M,,0000*57
$GPGSA,A,3,50,02,05,20,17,19,,,,,,,8.77,7.92,3.77*0B
$GPGSV,4,1,13,02,47,339,24,04,01,036,,05,32,250,41,06,49,036,23*79
$GPRMC,082826.00,A,2458.00458,N,12111.22112,E,0.109,,090621,,,D*75
$GPVTG,,T,,M,0.109,N,0.202,K,D*2E
$GPGGA,082826.00,2458.00458,N,12111.22112,E,2,06,7.92,150.7,M,16.4,M,,0000*51
$GPGSA,A,3,50,02,05,20,17,19,,,,,,,8.77,7.92,3.77*0B
$GPGSV,4,1,13,02,47,339,24,04,01,036,,05,32,250,41,06,49,036,23*79
$GPGSV,4,2,13,09,29,054,,12,27,279,,13,10,189,,17,31,139,28*72
$GPGSV,4,3,13,19,54,133,36,20,26,253,34,25,07,308,23,28,06,176,*72
$GPRMC,082827.00,A,2458.00463,N,12111.22114,E,0.134,,090621,,,D*74
$GPVTG,,T,,M,0.134,N,0.248,K,D*2E
$GPRMC,082828.00,A,2458.00469,N,12111.22115,E,0.152,,090621,,,D*70
$GPVTG,,T,,M,0.152,N,0.282,K,D*28
$GPGGA,082828.00,2458.00469,N,12111.22115,E,2,06,7.93,150.5,M,16.4,M,,0000*59
$GPGSA,A,3,50,02,05,20,17,19,,,,,,,8.78,7.93,3.77*05
$GPGSV,4,1,13,02,47,339,23,04,01,036,,05,32,250,41,06,49,036,24*79
$GPRMC,082829.00,A,2458.00460,N,12111.22118,E,0.234,,090621,,,D*76
$GPRMC,082830.00,A,2458.00460,N,12111.22119,E,0.168,,090621,,,D*75
$GPVTG,,T,,M,0.168,N,0.311,K,D*2A
$GPGGA,082830.00,2458.00460,N,12111.22119,E,2,06,7.94,150.2,M,16.4,M,,0000*55
$GPGSA,A,3,50,02,05,20,17,19,,,,,,,8.79,7.94,3.77*03
$GPGSV,4,1,13,02,47,339,23,04,01,036,,05,32,250,42,06,49,036,24*7A
$GPRMC,082831.00,A,2458.00455,N,12111.22118,E,0.071,,090621,,,D*7A
$GPVTG,,T,,M,0.071,N,0.132,K,D*20
$GPGGA,082831.00,2458.00455,N,12111.22118,E,2,06,7.94,150.1,M,16.4,M,,0000*50
$GPGSA,A,3,50,02,05,20,17,19,,,,,,,8.79,7.94,3.77*03
$GPGSV,4,1,13,02,47,339,22,04,01,036,,05,32,250,42,06,49,036,25*7A
$GPGSV,4,2,13,09,29,054,,12,27,278,,13,10,189,,17,31,139,28*73
$GPGSV,4,3,13,19,54,133,36,20,26,253,34,25,07,308,22,28,06,176,*73
$GPRMC,082832.00,A,2458.00458,N,12111.22118,E,0.084,,090621,,,D*7E
$GPVTG,,T,,M,0.084,N,0.155,K,D*2B
$GPRMC,082833.00,A,2458.00466,N,12111.22119,E,0.154,,090621,,,D*7F
$GPVTG,,T,,M,0.154,N,0.286,K,D*2A
$GPGGA,082833.00,2458.00466,N,12111.22119,E,2,06,7.95,150.1,M,16.4,M,,0000*52
$GPGSA,A,3,50,02,05,20,17,19,,,,,,,8.80,7.95,3.77*04
$GPRMC,082834.00,A,2458.00476,N,12111.22119,E,0.175,,090621,,,D*7A
$GPVTG,,T,,M,0.175,N,0.323,K,D*27
$GPRMC,082835.00,A,2458.00496,N,12111.22122,E,0.110,,090621,,,D*7E
$GPVTG,,T,,M,0.110,N,0.204,K,D*20
$GPGGA,082835.00,2458.00496,N,12111.22122,E,2,06,7.95,150.2,M,16.4,M,,0000*50
$GPGSA,A,3,50,02,05,20,17,19,,,,,,,8.80,7.95,3.77*04
$GPGSV,4,1,13,02,47,339,21,04,01,036,,05,32,250,42,06,49,036,25*79
$GPRMC,082836.00,A,2458.00502,N,12111.22123,E,0.127,,090621,,,D*74
$GPVTG,,T,,M,0.127,N,0.235,K,D*26
$GPGGA,082836.00,2458.00502,N,12111.22123,E,2,06,7.96,150.2,M,16.4,M,,0000*5D
$GPGSA,A,3,50,02,05,20,17,19,,,,,,,8.81,7.96,3.77*06
$GPGSV,4,1,13,02,47,339,21,04,01,036,,05,32,250,41,06,49,036,25*7A
$GPGSV,4,2,13,09,29,054,,12,27,278,,13,11,189,,17,31,140,28*7C
$GPGSV,4,3,13,19,54,133,36,20,26,253,35,25,07,308,22,28,06,176,*72
$GPRMC,082837.00,A,2458.00520,N,12111.22125,E,0.083,,090621,,,D*7C
$GPVTG,,T,,M,0.083,N,0.154,K,D*2D
$GPGGA,082837.00,2458.00520,N,12111.22125,E,2,06,7.96,150.2,M,16.4,M,,0000*5A
$GPGSA,A,3,50,02,05,20,17,19,,,,,,,8.81,7.96,3.77*06
$GPGSV,4,1,14,02,47,339,21,04,01,036,,05,32,250,41,06,49,036,25*7D
$GPRMC,082838.00,A,2458.00524,N,12111.22126,E,0.012,,090621,,,D*7C
$GPVTG,,T,,M,0.012,N,0.022,K,D*25
$GPGGA,082838.00,2458.00524,N,12111.22126,E,2,06,7.96,150.1,M,16.4,M,,0000*51
$GPGSA,A,3,50,02,05,20,17,19,,,,,,,8.81,7.96,3.77*06
$GPGSV,4,1,14,02,47,339,21,04,01,036,,05,32,250,41,06,49,036,26*7E
$GPRMC,082840.00,A,2458.00542,N,12111.22128,E,0.138,,090621,,,D*74
$GPVTG,,T,,M,0.138,N,0.256,K,D*2D
$GPGGA,082840.00,2458.00542,N,12111.22128,E,2,05,7.97,150.1,M,16.4,M,,0000*52
$GPGSA,A,3,50,05,20,17,19,,,,,,,,8.82,7.97,3.77*06
$GPGSV,4,1,14,02,47,339,,04,01,036,,05,32,250,41,06,49,036,26*7D
$GPGSV,4,2,14,09,29,054,,12,27,278,,13,11,189,,17,31,140,28*7B
$GPGSV,4,3,14,19,54,134,36,20,26,254,35,25,07,308,23,28,06,176,*74
$GPGSV,4,4,14,30,02,137,,50,60,166,36*7F
$GPGLL,2458.00542,N,12111.22128,E,082840.00,A,D*6B
$GPRMC,082841.00,A,2458.00555,N,12111.22128,E,0.208,,090621,,,D*73
$GPVTG,,T,,M,0.208,N,0.385,K,D*22
$GPGGA,082841.00,2458.00555,N,12111.22128,E,2,05,7.97,150.2,M,16.4,M,,0000*56
$GPGSA,A,3,50,05,20,17,19,,,,,,,,8.82,7.97,3.77*06
$GPGSV,4,1,14,02,47,339,,04,01,036,,05,32,250,41,06,49,036,26*7D
$GPGSV,4,2,14,09,29,054,,12,27,278,,13,11,189,,17,31,140,29*7A
$GPRMC,082842.00,A,2458.00561,N,12111.22129,E,0.153,,090621,,,D*7B
$GPVTG,,T,,M,0.153,N,0.283,K,D*28
$GPGGA,082842.00,2458.00561,N,12111.22129,E,2,06,7.98,150.2,M,16.4,M,,0000*5F
$GPGSA,A,3,50,02,05,20,17,19,,,,,,,8.82,7.98,3.77*0B
$GPGSV,4,1,14,02,47,339,21,04,01,036,,05,32,250,41,06,49,036,26*7E
$GPGSV,4,2,14,09,29,054,,12,27,278,,13,11,189,,17,31,140,29*7A
$GPRMC,082843.00,A,2458.00560,N,12111.22130,E,0.075,,090621,,,D*76
$GPRMC,082844.00,A,2458.00569,N,12111.22133,E,0.082,,090621,,,D*73
$GPVTG,,T,,M,0.082,N,0.153,K,D*2B
$GPGGA,082844.00,2458.00569,N,12111.22133,E,2,06,7.98,150.1,M,16.4,M,,0000*59
$GPGSA,A,3,50,02,05,20,17,19,,,,,,,8.83,7.98,3.77*0A
$GPGSV,4,1,14,02,47,339,22,04,01,036,,05,32,250,41,06,49,036,27*7C
$GPGSV,4,2,14,09,29,054,,12,27,278,,13,11,189,,17,31,140,29*7A
$GPRMC,082845.00,A,2458.00583,N,12111.22134,E,0.101,,090621,,,D*7B
$GPVTG,,T,,M,0.101,N,0.187,K,D*28
$GPRMC,082846.00,A,2458.00604,N,12111.22138,E,0.134,,090621,,,D*7E
$GPVTG,,T,,M,0.134,N,0.247,K,D*21
$GPGGA,082846.00,2458.00604,N,12111.22138,E,2,06,7.99,150.2,M,16.4,M,,0000*5A
$GPGSA,A,3,50,02,05,20,17,19,,,,,,,8.84,7.99,3.77*0C
$GPRMC,082847.00,A,2458.00629,N,12111.22141,E,0.127,,090621,,,D*7C
$GPVTG,,T,,M,0.127,N,0.234,K,D*27
$GPGGA,082847.00,2458.00629,N,12111.22141,E,2,06,8.00,150.2,M,16.4,M,,0000*55
$GPGSA,A,3,50,02,05,20,17,19,,,,,,,8.84,8.00,3.77*03
$GPGSV,4,1,14,02,47,339,22,04,01,036,,05,32,250,41,06,49,036,26*7D
$GPRMC,082848.00,A,2458.00647,N,12111.22144,E,0.074,,090621,,,D*79
$GPVTG,,T,,M,0.074,N,0.138,K,D*2F
$GPGGA,082848.00,2458.00647,N,12111.22144,E,2,06,8.00,150.1,M,16.4,M,,0000*54
$GPGSA,A,3,50,02,05,20,17,19,,,,,,,8.84,8.00,3.77*03
$GPGSV,4,1,14,02,47,339,22,04,01,036,,05,32,250,41,06,49,036,26*7D
$GPGSV,4,2,14,09,29,054,,12,27,278,,13,11,189,,17,31,140,29*7A
$GPGSV,4,3,14,19,54,134,36,20,26,254,35,25,07,308,22,28,06,176,*75
$GPRMC,082849.00,A,2458.00654,N,12111.22147,E,0.012,,090621,,,D*79
$GPVTG,,T,,M,0.012,N,0.022,K,D*25
$GPGGA,082849.00,2458.00654,N,12111.22147,E,2,06,8.00,150.0,M,16.4,M,,0000*55
$GPGSA,A,3,50,02,05,20,17,19,,,,,,,8.85,8.00,3.77*02
$GPGSV,4,1,14,02,47,339,23,04,01,036,,05,32,250,41,06,49,036,26*7C
$GPRMC,082850.00,A,2458.00662,N,12111.22150,E,0.028,,090621,,,D*7B
$GPVTG,,T,,M,0.028,N,0.052,K,D*2B
$GPGGA,082850.00,2458.00662,N,12111.22150,E,2,06,8.01,150.0,M,16.4,M,,0000*5F
$GPGSA,A,3,50,02,05,20,17,19,,,,,,,8.85,8.01,3.77*03
$GPGSV,4,1,14,02,47,339,22,04,01,036,,05,32,250,41,06,49,036,26*7D
$GPGSV,4,2,14,09,29,054,,12,27,278,,13,11,189,,17,31,140,29*7A
$GPRMC,082851.00,A,2458.00692,N,12111.22155,E,0.064,,090621,,,D*78
$GPVTG,,T,,M,0.064,N,0.119,K,D*2D
$GPGGA,082851.00,2458.00692,N,12111.22155,E,2,06,8.01,150.1,M,16.4,M,,0000*55
$GPRMC,082853.00,A,2458.00730,N,12111.22164,E,0.011,,090621,,,D*73
$GPVTG,,T,,M,0.011,N,0.020,K,D*24
$GPGGA,082853.00,2458.00730,N,12111.22164,E,2,06,8.02,150.1,M,16.4,M,,0000*5F
$GPGSA,A,3,50,02,05,20,17,19,,,,,,,8.86,8.02,3.77*03
$GPGSV,4,1,14,02,47,339,23,04,01,036,,05,32,250,41,06,49,036,25*7F
$GPGSV,4,2,14,09,29,054,,12,27,278,,13,11,189,,17,31,140,29*7A
$GPGSV,4,3,14,19,54,134,36,20,26,254,35,25,07,308,22,28,06,176,*75
$GPGSV,4,4,14,30,02,137,,50,60,166,36*7F
$GPGLL,2458.00730,N,12111.22164,E,082853.00,A,D*66
$GPRMC,082854.00,A,2458.00741,N,12111.22167,E,0.067,,090621,,,D*70
$GPVTG,,T,,M,0.067,N,0.123,K,D*27
$GPGGA,082854.00,2458.00741,N,12111.22167,E,2,06,8.02,150.0,M,16.4,M,,0000*5C
$GPGSA,A,3,50,02,05,20,17,19,,,,,,,8.86,8.02,3.77*03
$GPGSV,4,1,14,02,47,339,23,04,01,036,,05,32,250,41,06,49,036,25*7F
$GPGSV,4,2,14,09,29,054,,12,27,278,,13,11,189,,17,31,140,29*7A
$GPRMC,082855.00,A,2458.00747,N,12111.22169,E,0.112,,090621,,,D*7A
$GPVTG,,T,,M,0.112,N,0.207,K,D*21
$GPGGA,082855.00,2458.00747,N,12111.22169,E,2,06,8.02,149.9,M,16.4,M,,0000*54
$GPGSA,A,3,50,02,05,20,17,19,,,,,,,8.87,8.02,3.77*02
$GPGSV,4,1,14,02,47,339,23,04,01,036,,05,32,250,41,06,49,036,24*7E
$GPGSV,4,2,14,09,29,054,,12,27,278,,13,11,189,,17,31,140,29*7A
$GPGSV,4,3,14,19,54,134,36,20,26,254,35,25,07,308,21,28,06,176,*76
$GPGSV,4,2,13,09,29,054,,12,27,279,19,13,10,189,,17,31,139,28*7A
$GPGSV,4,3,13,19,54,133,36,20,26,253,34,25,07,308,24,28,06,176,*75
$GPGSV,4,4,13,50,60,166,35*4F
$GPGLL,2458.00331,N,12111.22085,E,082752.00,A,D*63
$GPRMC,082753.00,A,2458.00327,N,12111.22085,E,0.179,,090621,,,D*7F
$GPVTG,,T,,M,0.179,N,0.331,K,D*28
$GPGGA,082753.00,2458.00327,N,12111.22085,E,2,06,7.81,153.1,M,16.4,M,,0000*5B
$GPGSA,A,3,50,05,20,17,12,19,,,,,,,8.67,7.81,3.77*09
$GPGSV,4,1,13,02,47,339,,04,01,036,,05,32,249,41,06,49,036,*76
$GPGSV,4,2,13,09,29,054,,12,27,279,17,13,10,189,,17,31,139,28*74
$GPGSV,4,3,13,19,54,133,36,20,26,253,34,25,07,308,24,28,06,176,*75
$GPGSV,4,4,13,50,60,166,36*4C
$GPGLL,2458.00327,N,12111.22085,E,082753.00,A,D*65
$GPRMC,082754.00,A,2458.00320,N,12111.22084,E,0.144,,090621,,,D*70
$GPVTG,,T,,M,0.144,N,0.266,K,D*25
$GPGGA,082754.00,2458.00320,N,12111.22084,E,2,06,7.81,153.0,M,16.4,M,,0000*5B
$GPGSA,A,3,50,05,20,17,12,19,,,,,,,8.67,7.81,3.77*09
$GPGSV,4,1,13,02,47,339,,04,01,036,,05,32,249,41,06,49,036,*76
$GPGSV,4,2,13,09,29,054,,12,27,279,17,13,10,189,,17,31,139,28*74
$GPGSV,4,3,13,19,54,133,36,20,26,253,33,25,07,308,23,28,06,176,*75
$GPGSV,4,4,13,50,60,166,36*4C
$GPGLL,2458.00320,N,12111.22084,E,082754.00,A,D*64
$GPRMC,082755.00,A,2458.00307,N,12111.22083,E,0.126,,090621,,,D*77
$GPVTG,,T,,M,0.126,N,0.233,K,D*21
$GPGGA,082755.00,2458.00307,N,12111.22083,E,2,06,7.81,152.8,M,16.4,M,,0000*51
$GPGSA,A,3,50,05,20,17,12,19,,,,,,,8.68,7.81,3.77*06
$GPGSV,4,1,13,02,47,339,,04,01,036,,05,32,249,41,06,49,036,*76
$GPGSV,4,2,13,09,29,054,,12,27,279,17,13,10,189,,17,31,139,28*74
$GPGSV,4,3,13,19,54,133,36,20,26,253,33,25,07,308,23,28,06,176,*75
$GPGSV,4,4,13,50,60,166,36*4C
$GPGLL,2458.00307,N,12111.22083,E,082755.00,A,D*67
$GPRMC,082756.00,A,2458.00315,N,12111.22081,E,0.051,,090621,,,D*74
$GPVTG,,T,,M,0.051,N,0.094,K,D*2F
$GPGGA,082756.00,2458.00315,N,12111.22081,E,2,06,7.82,152.9,M,16.4,M,,0000*51
$GPGSA,A,3,50,05,20,17,12,19,,,,,,,8.68,7.82,3.77*05
$GPGSV,4,1,13,02,47,339,,04,01,036,,05,32,249,41,06,49,036,*76
$GPGSV,4,2,13,09,29,054,,12,27,279,17,13,10,189,,17,31,139,28*74
$GPGSV,4,3,13,19,54,133,36,20,26,253,33,25,07,308,23,28,06,176,*75
$GPGSV,4,4,13,50,60,166,36*4C
$GPGLL,2458.00315,N,12111.22081,E,082756.00,A,D*65
$GPRMC,082757.00,A,2458.00328,N,12111.22079,E,0.093,,090621,,,D*72
$GPGSV,4,1,14,02,47,339,23,04,01,036,,05,32,250,41,06,49,036,22*78
$GPGSV,4,2,14,09,29,054,,12,27,278,,13,11,189,,17,31,140,29*7A
$GPGSV,4,3,14,19,54,134,36,20,26,254,35,25,07,308,20,28,06,
$GPGSV,4,4,14,30,02,137,,50,60,166,36*7F
$GPGLL,2458.00812,N,12111.22190,E,082901.00,A,D*64
$GPRMC,082902.00,A,2458.00821,N,12111.22193,E,0.180,,090621,,,D*78
$GPVTG,,T,,M,0.180,N,0.334,K,D*2B
$GPGGA,082902.00,2458.00821,N,12111.22193,E,2,07,8.05,149.6,M,16.4,M,,0000*54
$GPGSA,A,3,50,02,05,20,17,09,19,,,,,,8.89,8.05,3.77*02
$GPGSV,4,1,14,02,47,339,23,04,01,036,,05,32,250,41,06,49,036,22*78
$GPGSV,4,2,14,09,29,054,21,12,27,278,,13,11,189,,17,31,140,29*79
$GPGSV,4,3,14,19,54,134,36,20,26,254,35,25,07,308,20,28,06,176,*77
$GPGSV,4,4,14,30,02,137,,50,60,166,36*7F
$GPGLL,2458.00821,N,12111.22193,E,082902.00,A,D*64
$GPRMC,082903.00,A,2458.00827,N,12111.22196,E,0.160,,090621,,,D*74
$GPVTG,,T,,M,0.160,N,0.297,K,D*2D
$GPGGA,082903.00,2458.00827,N,12111.22196,E,2,07,8.05,149.5,M,16.4,M,,0000*55
$GPGSA,A,3,50,02,05,20,17,09,19,,,,,,8.89,8.05,3.77*02
$GPGSV,4,2,14,09,29,054,20,12,27,278,,13,11,189,,17,31,140,29*78
$GPGSV,4,3,14,19,54,134,36,20,26,254,35,25,07,308,20,28,06,176,*77
$GPGSV,4,4,14,30,02,137,,50,60,166,36*7F
$GPRMC,082904.00,A,2458.00832,N,12111.22199,E,0.158,,090621,,,D*73
$GPVTG,,T,,M,0.158,N,0.293,K,D*22
$GPRMC,082905.00,A,2458.00848,N,12111.22202,E,0.112,,090621,,,D*70
$GPVTG,,T,,M,0.112,N,0.207,K,D*21
$GPGGA,082905.00,2458.00848,N,12111.22202,E,2,06,8.06,149.4,M,16.4,M,,0000*57
$GPGSA,A,3,50,02,05,20,17,19,,,,,,,8.90,8.06,3.77*00
$GPGSV,4,1,14,02,47,339,22,04,01,036,,05,32,250,41,06,49,036,22*79
$GPRMC,082906.00,A,2458.00866,N,12111.22204,E,0.132,,090621,,,D*7B
$GPVTG,,T,,M,0.132,N,0.244,K,D*24
$GPGGA,082906.00,2458.00866,N,12111.22204,E,2,07,8.06,149.5,M,16.4,M,,0000*5E
$GPGSA,A,3,50,02,05,20,17,09,19,,,,,,8.90,8.06,3.77*09
$GPRMC,082907.00,A,2458.00873,N,12111.22209,E,0.174,,090621,,,D*71
$GPVTG,,T,,M,0.174,N,0.321,K,D*24
$GPGGA,082907.00,2458.00873,N,12111.22209,E,2,06,8.07,149.3,M,16.4,M,,0000*50
$GPGSA,A,3,50,02,05,20,17,19,,,,,,,8.91,8.07,3.77*00
$GPGSV,4,1,14,02,47,339,23,04,01,036,,05,32,250,41,06,49,036,22*78
$GPGSV,4,2,14,09,29,054,,12,27,278,,13,11,189,,17,31,140,29*7A
$GPGSV,4,3,14,19,54,134,36,20,26,254,35,25,07,308,21,28,06,176,*76
$GPRMC,082908.00,A,2458.00884,N,12111.22212,E,0.107,,090621,,,D*78
$GPVTG,,T,,M,0.107,N,0.198,K,D*20
$GPGGA,082908.00,2458.00884,N,12111.22212,E,2,08,8.07,149.3,M,16.4,M,,0000*53
$GPGSA,A,3,50,02,05,20,17,06,09,19,,,,,8.91,8.07,3.77*0F
$GPGSV,4,1,14,02,47,339,23,04,01,036,,05,32,250,41,06,49,036,21*7B
$GPGSV,4,2,14,09,29,054,21,12,27,278,,13,11,189,,17,31,140,28*78
$GPGSV,4,3,14,19,54,134,36,20,26,254,36,25,07,308,21,28,06,176,*75
$GPRMC,082909.00,A,2458.00891,N,12111.22212,E,0.078,,090621,,,D*74
$GPVTG,,T,,M,0.078,N,0.144,K,D*28
$GPGGA,082909.00,2458.00891,N,12111.22212,E,2,07,8.07,149.4,M,16.4,M,,0000*5E
$GPGSA,A,3,50,02,05,20,17,06,19,,,,,,8.91,8.07,3.77*06
$GPRMC,082911.00,A,2458.00899,N,12111.22213,E,0.141,,090621,,,D*7F
$GPVTG,,T,,M,0.141,N,0.260,K,D*26
$GPGGA,082911.00,2458.00899,N,12111.22213,E,2,07,8.08,149.5,M,16.4,M,,0000*50
$GPGSA,A,3,50,02,05,20,17,06,19,,,,,,8.92,8.08,3.77*0A
$GPGSV,4,1,14,02,47,339,23,04,01,036,,05,32,250,41,06,49,036,21*7B
$GPGSV,4,2,14,09,29,054,,12,27,278,,13,11,189,,17,31,140,28*7B
$GPGSV,4,3,14,19,54,134,36,20,26,254,36,25,07,308,22,28,06,176,*76
$GPGSV,4,4,14,30,02,137,,50,60,166,36*7F
$GPRMC,082912.00,A,2458.00903,N,12111.22212,E,0.083,,090621,,,D*70
$GPVTG,,T,,M,0.083,N,0.154,K,D*2D
$GPGGA,082912.00,2458.00903,N,12111.22212,E,2,07,8.08,149.6,M,16.4,M,,0000*53
$GPGSA,A,3,50,02,05,20,17,06,19,,,,,,8.92,8.08,3.77*0A
$GPGSV,4,1,14,02,47,339,24,04,01,036,,05,32,250,41,06,49,036,21*7C
$GPGSV,4,2,14,09,29,054,,12,27,278,,13,11,189,,17,31,140,28*7B
$GPGSV,4,3,14,19,54,134,36,20,26,254,36,25,07,308,22,28,06,176,*76
$GPRMC,082913.00,A,2458.00911,N,12111.22212,E,0.043,,090621,,,D*7E
$GPVTG,,T,,M,0.043,N,0.079,K,D*2F
$GPGGA,082913.00,2458.00911,N,12111.22212,E,2,07,8.09,149.6,M,16.4,M,,0000*50
$GPGSA,A,3,50,02,05,20,17,06,19,,,,,,8.93,8.09,3.77*0A
$GPGSV,4,1,14,02,47,339,23,04,01,036,,05,32,250,41,06,49,036,21*7B
$GPGSV,4,2,14,09,29,054,,12,27,278,,13,11,189,,17,31,140,28*7B
$GPRMC,082914.00,A,2458.00923,N,12111.22212,E,0.038,,090621,,,D*74
$GPRMC,082915.00,A,2458.00935,N,12111.22212,E,0.035,,090621,,,D*7F
$GPVTG,,T,,M,0.035,N,0.065,K,D*23
$GPGGA,082915.00,2458.00935,N,12111.22212,E,2,07,8.10,149.8,M,16.4,M,,0000*56
$GPGSA,A,3,50,02,05,20,17,06,19,,,,,,8.93,8.10,3.77*02
$GPGSV,4,1,14,02,47,339,23,04,01,036,,05,32,250,41,06,49,036,19*70
$GPGSV,4,2,14,09,29,054,,12,27,278,,13,11,189,,17,31,140,29*7A
$GPRMC,082916.00,A,2458.00942,N,12111.22213,E,0.038,,090621,,,D*70
$GPVTG,,T,,M,0.038,N,0.071,K,D*2B
$GPGGA,082916.00,2458.00942,N,12111.22213,E,2,07,8.10,149.9,M,16.4,M,,0000*55
$GPGSA,A,3,50,02,05,20,17,06,19,,,,,,8.94,8.10,3.78*0A
$GPGSV,4,1,14,02,47,339,23,04,01,036,,05,32,250,41,06,49,036,19*70
$GPGSV,4,2,14,09,29,054,,12,27,278,,13,11,189,,17,31,140,28*7B
$GPGSV,4,3,14,19,54,134,36,20,26,254,36,25,07,308,22,28,06,176,*76
$GPGSV,4,4,14,30,02,137,,50,60,166,36*7F
$GPRMC,082917.00,A,2458.00945,N,12111.22214,E,0.073,,090621,,,D*7E
$GPVTG,,T,,M,0.073,N,0.135,K,D*25
$GPGGA,082917.00,2458.00945,N,12111.22214,E,2,07,8.10,149.9,M,16.4,M,,0000*54
$GPGSA,A,3,50,02,05,20,17,06,19,,,,,,8.94,8.10,3.78*0A
$GPGSV,4,1,14,02,47,339,24,04,01,036,,05,32,250,41,06,49,036,18*76
$GPGSV,4,2,14,09,29,054,,12,27,278,,13,11,189,,17,31,140,28*7B
$GPGSV,4,3,14,19,54,134,36,20,26,254,36,25,07,308,22,28,06,176,*76
$GPGSV,4,4,14,30,02,137,,50,60,166,36*7F
$GPGLL,2458.00945,N,12111.22214,E,082917.00,A,D*6F
$GPRMC,082918.00,A,2458.00951,N,12111.22215,E,0.064,,090621,,,D*73
$GPVTG,,T,,M,0.064,N,0.118,K,D*2C
$GPGGA,082918.00,2458.00951,N,12111.22215,E,2,07,8.11,149.9,M,16.4,M,,0000*5E
$GPGSA,A,3,50,02,05,20,17,06,19,,,,,,8.94,8.11,3.78*0B
$GPGSV,4,1,14,02,47,339,24,04,01,036,,05,32,250,41,06,49,036,17*79
$GPRMC,082919.00,A,2458.00954,N,12111.22217,E,0.024,,090621,,,D*71
$GPVTG,,T,,M,0.024,N,0.045,K,D*21
$GPGGA,082919.00,2458.00954,N,12111.22217,E,2,07,8.11,149.8,M,16.4,M,,0000*59
$GPRMC,082920.00,A,2458.00957,N,12111.22220,E,0.079,,090621,,,D*74
$GPVTG,,T,,M,0.079,N,0.146,K,D*2B
$GPGGA,082920.00,2458.00957,N,12111.22220,E,2,07,8.11,149.6,M,16.4,M,,0000*5A
$GPGSA,A,3,50,02,05,20,17,06,19,,,,,,8.95,8.11,3.78*0A
$GPGSV,4,1,14,02,47,339,25,04,01,036,,05,32,250,41,06,49,036,15*7A
$GPGSV,4,2,14,09,29,054,,12,27,278,,13,11,189,,17,31,140,28*7B
$GPGSV,4,3,14,19,54,134,36,20,26,254,36,25,07,308,21,28,06,176,*75
$GPRMC,082921.00,A,2458.00961,N,12111.22224,E,0.237,,090621,,,D*7C
$GPVTG,,T,,M,0.237,N,0.438,K,D*2F
$GPGGA,082921.00,2458.00961,N,12111.22224,E,2,07,8.12,149.5,M,16.4,M,,0000*5A
$GPGSA,A,3,50,02,05,20,17,06,19,,,,,,8.95,8.12,3.78*09
$GPGSV,4,1,14,02,47,339,25,04,01,036,,05,32,250,41,06,49,036,14*7B
$GPGSV,4,2,14,09,29,054,,12,27,278,,13,11,189,,17,31,140,28*7B
$GPGSV,4,3,14,19,54,134,36,20,26,254,36,25,07,308,21,28,06,176,*75
$GPGSV,4,4,14,30,02,137,,50,60,166,36*7F
$GPRMC,082922.00,A,2458.00959,N,12111.22222,E,0.233,,090621,,,D*76
$GPVTG,,T,,M,0.233,N,0.431,K,D*22
$GPGGA,082922.00,2458.00959,N,12111.22222,E,2,07,8.12,149.5,M,16.4,M,,0000*54
$GPRMC,082923.00,A,2458.00970,N,12111.22222,E,0.230,,090621,,,D*7F
$GPVTG,,T,,M,0.230,N,0.427,K,D*26
$GPGGA,082923.00,2458.00970,N,12111.22222,E,2,07,8.12,149.6,M,16.4,M,,0000*5D
$GPGSA,A,3,50,02,05,20,17,06,19,,,,,,8.96,8.12,3.78*0A
$GPGSV,4,1,14,02,47,339,25,04,01,036,,05,32,250,41,06,49,036,13*7C
$GPGSV,4,2,14,09,29,054,,12,27,278,,13,11,189,,17,31,140,28*7B
$GPRMC,082924.00,A,2458.00988,N,12111.22222,E,0.302,,090621,,,D*7F
$GPVTG,,T,,M,0.302,N,0.559,K,D*2E
$GPGGA,082924.00,2458.00988,N,12111.22222,E,2,07,8.13,149.6,M,16.4,M,,0000*5C
$GPGSA,A,3,50,02,05,20,17,06,19,,,,,,8.96,8.13,3.78*0B
$GPRMC,082925.00,A,2458.00991,N,12111.22223,E,0.237,,090621,,,D*70
$GPVTG,,T,,M,0.237,N,0.438,K,D*2F
$GPGGA,082925.00,2458.00991,N,12111.22223,E,2,07,8.13,149.5,M,16.4,M,,0000*57
$GPGSA,A,3,50,02,05,20,17,06,19,,,,,,8.97,8.13,3.78*0A
$GPGSV,4,1,14,02,47,339,25,04,01,036,,05,32,250,41,06,49,036,13*7C
$GPRMC,082926.00,A,2458.00970,N,12111.22221,E,0.079,,090621,,,D*76
$GPVTG,,T,,M,0.079,N,0.146,K,D*2B
$GPRMC,082927.00,A,2458.00961,N,12111.22219,E,0.059,,090621,,,D*7E
$GPVTG,,T,,M,0.059,N,0.109,K,D*22
$GPRMC,082928.00,A,2458.00972,N,12111.22218,E,0.078,,090621,,,D*71
$GPVTG,,T,,M,0.078,N,0.144,K,D*28
$GPGGA,082928.00,2458.00972,N,12111.22218,E,2,07,8.14,149.4,M,16.4,M,,0000*59
$GPGSA,A,3,50,02,05,20,17,06,19,,,,,,8.98,8.14,3.78*02
$GPGSV,4,1,14,02,47,339,25,04,01,036,,05,32,250,41,06,49,036,13*7C
$GPRMC,082929.00,A,2458.00980,N,12111.22218,E,0.051,,090621,,,D*76
$GPVTG,,T,,M,0.051,N,0.095,K,D*2E
$GPGGA,082929.00,2458.00980,N,12111.22218,E,2,07,8.15,149.4,M,16.4,M,,0000*54
$GPRMC,082930.00,A,2458.00994,N,12111.22220,E,0.068,,090621,,,D*7A
$GPVTG,,T,,M,0.068,N,0.125,K,D*2E
$GPGGA,082930.00,2458.00994,N,12111.22220,E,2,07,8.15,149.5,M,16.4,M,,0000*53
$GPGSA,A,3,50,02,05,20,17,06,19,,,,,,8.98,8.15,3.78*03
$GPGSV,4,1,14,02,47,339,25,04,01,036,,05,32,250,41,06,49,036,13*7C
$GPGSV,4,2,14,09,29,054,,12,27,278,,13,11,189,,17,31,140,27*74
$GPRMC,082931.00,A,2458.00999,N,12111.22220,E,0.034,,090621,,,D*7F
$GPVTG,,T,,M,0.034,N,0.063,K,D*24
$GPGGA,082931.00,2458.00999,N,12111.22220,E,2,07,8.15,149.5,M,16.4,M,,0000*5F
$GPRMC,082932.00,A,2458.00991,N,12111.22217,E,0.035,,090621,,,D*71
$GPVTG,,T,,M,0.035,N,0.065,K,D*23
$GPGGA,082932.00,2458.00991,N,12111.22217,E,2,06,8.16,149.5,M,16.4,M,,0000*52
$GPRMC,082933.00,A,2458.00995,N,12111.22215,E,0.037,,090621,,,D*74
$GPVTG,,T,,M,0.037,N,0.069,K,D*2D
$GPRMC,082934.00,A,2458.00983,N,12111.22214,E,0.053,,090621,,,D*77
$GPVTG,,T,,M,0.053,N,0.098,K,D*21
$GPGGA,082934.00,2458.00983,N,12111.22214,E,2,06,8.16,149.6,M,16.4,M,,0000*57
$GPGSA,A,3,50,02,05,20,17,19,,,,,,,9.00,8.16,3.78*06
$GPGSV,4,1,14,02,48,340,25,04,01,035,,05,32,250,41,06,49,036,*7C
$GPRMC,082935.00,A,2458.00978,N,12111.22213,E,0.015,,090621,,,D*77
$GPVTG,,T,,M,0.015,N,0.028,K,D*28
$GPRMC,082936.00,A,2458.00964,N,12111.22206,E,0.082,,090621,,,D*73
$GPVTG,,T,,M,0.082,N,0.152,K,D*2A
$GPGGA,082936.00,2458.00964,N,12111.22206,E,2,07,8.17,149.7,M,16.4,M,,0000*5E
$GPGSA,A,3,50,02,05,20,17,12,19,,,,,,9.00,8.17,3.78*04
$GPGSV,4,1,14,02,48,340,24,04,01,035,,05,32,250,41,06,49,037,*7C
$GPRMC,082937.00,A,2458.00974,N,12111.22204,E,0.088,,090621,,,D*7B
$GPVTG,,T,,M,0.088,N,0.164,K,D*25
$GPGGA,082937.00,2458.00974,N,12111.22204,E,2,07,8.18,149.8,M,16.4,M,,0000*5C
$GPRMC,082938.00,A,2458.00985,N,12111.22204,E,0.090,,090621,,,D*73
$GPVTG,,T,,M,0.090,N,0.167,K,D*2F
$GPRMC,082939.00,A,2458.00986,N,12111.22205,E,0.096,,090621,,,D*76
$GPVTG,,T,,M,0.096,N,0.178,K,D*27
$GPGGA,082939.00,2458.00986,N,12111.22205,E,2,07,8.18,149.9,M,16.4,M,,0000*5F
$GPGSA,A,3,50,02,05,20,17,12,19,,,,,,9.01,8.18,3.78*0A
$GPGSV,4,1,14,02,48,340,24,04,01,035,,05,32,250,41,06,49,037,*7C
$GPRMC,082941.00,A,2458.00975,N,12111.22200,E,0.129,,090621,,,D*75
$GPVTG,,T,,M,0.129,N,0.239,K,D*24
$GPGGA,082941.00,2458.00975,N,12111.22200,E,2,07,8.19,150.0,M,16.4,M,,0000*59
$GPGSA,A,3,50,02,05,20,17,12,19,,,,,,9.02,8.19,3.78*08
$GPGSV,4,1,14,02,48,340,24,04,01,035,,05,32,250,41,06,49,037,*7C
$GPGSV,4,2,14,09,28,053,,12,27,278,18,13,11,189,,17,31,140,28*74
$GPGSV,4,3,14,19,54,134,37,20,26,254,36,25,07,308,21,28,06,176,*74
$GPRMC,082942.00,A,2458.00972,N,12111.22198,E,0.171,,090621,,,D*7E
$GPVTG,,T,,M,0.171,N,0.317,K,D*24
$GPGGA,082942.00,2458.00972,N,12111.22198,E,2,07,8.19,150.0,M,16.4,M,,0000*5F
$GPGSA,A,3,50,02,05,20,17,12,19,,,,,,9.02,8.19,3.78*08
$GPRMC,082943.00,A,2458.00966,N,12111.22196,E,0.161,,090621,,,D*75
$GPVTG,,T,,M,0.161,N,0.298,K,D*23
$GPGGA,082943.00,2458.00966,N,12111.22196,E,2,06,8.20,150.0,M,16.4,M,,0000*5E
$GPGSA,A,3,50,05,20,17,12,19,,,,,,,9.03,8.20,3.78*01
$GPGSV,4,1,14,02,48,340,24,04,01,035,,05,32,250,41,06,49,037,*7C
$GPGSV,4,2,14,09,28,053,,12,27,278,19,13,11,189,,17,31,140,27*7A
$GPRMC,082944.00,A,2458.00944,N,12111.22193,E,0.179,,090621,,,D*7E
$GPVTG,,T,,M,0.179,N,0.331,K,D*28
$GPGGA,082944.00,2458.00944,N,12111.22193,E,2,07,8.20,149.8,M,16.4,M,,0000*5D
$GPRMC,082945.00,A,2458.00948,N,12111.22191,E,0.095,,090621,,,D*72
$GPRMC,082946.00,A,2458.00959,N,12111.22196,E,0.061,,090621,,,D*7D
$GPVTG,,T,,M,0.061,N,0.112,K,D*23
$GPGGA,082946.00,2458.00959,N,12111.22196,E,2,07,8.21,149.8,M,16.4,M,,0000*57
$GPGSA,A,3,50,02,05,20,17,12,19,,,,,,9.04,8.21,3.78*05
$GPGSV,4,1,14,02,48,340,25,04,01,035,,05,32,250,41,06,49,037,*7D
$GPRMC,082947.00,A,2458.00953,N,12111.22195,E,0.115,,090621,,,D*77
$GPVTG,,T,,M,0.115,N,0.213,K,D*23
$GPGGA,082947.00,2458.00953,N,12111.22195,E,2,07,8.21,149.8,M,16.4,M,,0000*5F
$GPGSA,A,3,50,02,05,20,17,12,19,,,,,,9.04,8.21,3.78*05
$GPRMC,082948.00,A,2458.00941,N,12111.22192,E,0.134,,090621,,,D*7F
$GPRMC,082949.00,A,2458.00932,N,12111.22187,E,0.094,,090621,,,D*75
$GPVTG,,T,,M,0.094,N,0.175,K,D*28
$GPGGA,082949.00,2458.00932,N,12111.22187,E,2,07,8.22,149.9,M,16.4,M,,0000*57
$GPGSA,A,3,50,02,05,20,17,12,19,,,,,,9.05,8.22,3.78*07
$GPGSV,4,1,14,02,48,340,25,04,01,035,,05,32,250,41,06,49,037,*7D
$GPGSV,4,2,14,09,28,053,,12,27,278,18,13,11,189,,17,30,140,28*75
$GPGSV,4,3,14,19,53,135,37,20,26,254,36,25,07,308,22,28,06,176,*71
$GPRMC,082950.00,A,2458.00931,N,12111.22185,E,0.012,,090621,,,D*72
$GPVTG,,T,,M,0.012,N,0.022,K,D*25
$GPGGA,082950.00,2458.00931,N,12111.22185,E,2,07,8.22,150.0,M,16.4,M,,0000*5F
$GPGSA,A,3,50,02,05,20,17,12,19,,,,,,9.05,8.22,3.78*07
$GPGSV,4,1,14,02,48,340,25,04,01,035,,05,32,250,41,06,49,037,*7D
$GPRMC,082951.00,A,2458.00925,N,12111.22182,E,0.056,,090621,,,D*71
$GPRMC,082952.00,A,2458.00924,N,12111.22178,E,0.147,,090621,,,D*77
$GPVTG,,T,,M,0.147,N,0.273,K,D*22
$GPGGA,082952.00,2458.00924,N,12111.22178,E,2,07,8.23,150.2,M,16.4,M,,0000*58
$GPRMC,082953.00,A,2458.00916,N,12111.22178,E,0.159,,090621,,,D*78
$GPVTG,,T,,M,0.159,N,0.294,K,D*24
$GPGGA,082953.00,2458.00916,N,12111.22178,E,2,07,8.24,150.2,M,16.4,M,,0000*5F
$GPGSA,A,3,50,02,05,20,17,12,19,,,,,,9.06,8.24,3.78*02
$GPGSV,4,1,14,02,48,340,25,04,01,035,,05,32,250,41,06,49,037,*7D
$GPRMC,082954.00,A,2458.00914,N,12111.22176,E,0.161,,090621,,,D*78
$GPVTG,,T,,M,0.161,N,0.298,K,D*23
$GPRMC,082955.00,A,2458.00898,N,12111.22172,E,0.046,,090621,,,D*7C
$GPVTG,,T,,M,0.046,N,0.084,K,D*28
$GPGGA,082955.00,2458.00898,N,12111.22172,E,2,07,8.24,150.2,M,16.4,M,,0000*54
$GPGSA,A,3,50,02,05,20,17,12,19,,,,,,9.07,8.24,3.78*03
$GPGSV,4,1,14,02,48,340,25,04,01,035,,05,32,250,41,06,49,037,*7D
$GPGSV,4,2,14,09,28,053,,12,27,278,18,13,11,189,,17,30,140,28*75
$GPGSV,4,3,14,19,53,135,36,20,27,254,35,25,07,307,23,28,06,176,*7C
$GPRMC,082956.00,A,2458.00902,N,12111.22172,E,0.028,,090621,,,D*75
$GPVTG,,T,,M,0.028,N,0.053,K,D*2A
$GPGGA,082956.00,2458.00902,N,12111.22172,E,2,08,8.25,150.2,M,16.4,M,,0000*5B
$GPGSA,A,3,50,02,05,20,17,09,12,19,,,,,9.07,8.25,3.78*0B
$GPGSV,4,1,14,02,48,340,26,04,01,035,,05,32,250,41,06,49,037,*7E
$GPGSV,4,2,14,09,28,053,22,12,27,278,18,13,11,189,,17,30,140,28*75
$GPRMC,083324.00,A,2458.01211,N,12111.22225,E,0.069,,090621,,,D*77
$GPVTG,,T,,M,0.069,N,0.128,K,D*22
$GPGGA,083324.00,2458.01211,N,12111.22225,E,2,08,2.05,151.4,M,16.4,M,,0000*53
$GPGSA,A,3,25,50,02,05,20,17,09,19,,,,,3.36,2.05,2.67*00
$GPGSV,4,1,15,02,48,342,23,04,00,035,,05,33,252,41,06,48,039,*75
$GPGSV,4,2,15,07,00,099,,09,28,052,22,12,27,276,,13,13,188,*7C
$GPGSV,4,3,15,17,29,141,24,19,52,136,37,20,27,256,35,25,08,306,30*73
$GPGSV,4,4,15,28,05,175,,30,02,135,,50,60,166,36*40
$GPGLL,2458.01211,N,12111.22225,E,083324.00,A,D*6D
$GPRMC,083325.00,A,2458.01210,N,12111.22224,E,0.064,,090621,,,D*7B
$GPVTG,,T,,M,0.064,N,0.119,K,D*2D
$GPGGA,083325.00,2458.01210,N,12111.22224,E,2,08,2.05,151.4,M,16.4,M,,0000*52
$GPGSA,A,3,25,50,02,05,20,17,09,19,,,,,3.36,2.05,2.67*00
$GPGSV,4,1,15,02,48,342,22,04,00,035,,05,33,252,41,06,48,039,*74
$GPGSV,4,2,15,07,00,099,,09,28,052,20,12,27,276,,13,13,188,*7E
$GPGSV,4,3,15,17,29,141,24,19,52,136,37,20,27,256,35,25,08,306,30*73
$GPGSV,4,4,15,28,05,175,,30,02,135,,50,60,166,36*40
$GPGLL,2458.01210,N,12111.22224,E,083325.00,A,D*6C
$GPRMC,083326.00,A,2458.01207,N,12111.22222,E,0.033,,090621,,,D*7A
$GPVTG,,T,,M,0.033,N,0.060,K,D*20
$GPGGA,083326.00,2458.01207,N,12111.22222,E,2,08,2.05,151.4,M,16.4,M,,0000*51
$GPGSA,A,3,25,50,02,05,20,17,09,19,,,,,3.36,2.05,2.66*01
$GPGSV,4,1,15,02,48,342,24,04,00,035,,05,33,252,41,06,48,039,*72
$GPGSV,4,2,15,07,00,099,,09,28,052,17,12,27,276,,13,13,188,*7A
$GPGSV,4,3,15,17,29,141,24,19,52,136,37,20,27,256,35,25,08,306,30*73
$GPGSV,4,4,15,28,05,175,,30,02,135,,50,60,166,36*40
$GPGLL,2458.01207,N,12111.22222,E,083326.00,A,D*6F
$GPRMC,083327.00,A,2458.01207,N,12111.22222,E,0.028,,090621,,,D*71
$GPVTG,,T,,M,0.028,N,0.052,K,D*2B
$GPGGA,083327.00,2458.01207,N,12111.22222,E,2,08,2.05,151.3,M,16.4,M,,0000*57
$GPGSA,A,3,25,50,02,05,20,17,09,19,,,,,3.36,2.05,2.66*01
$GPGSV,4,1,15,02,48,342,24,04,00,035,,05,33,252,41,06,48,039,*72
$GPGSV,4,2,15,07,00,099,,09,28,052,17,12,27,276,,13,13,188,*7A
$GPGSV,4,3,15,17,29,141,25,19,52,136,37,20,27,256,35,25,08,306,30*72
$GPGSV,4,4,15,28,05,175,,30,02,135,,50,60,166,36*40
$GPGLL,2458.01207,N,12111.22222,E,083327.00,A,D*6E
$GPRMC,083328.00,A,2458.01208,N,12111.22220,E,0.072,,090621,,,D*7C
$GPVTG,,T,,M,0.072,N,0.134,K,D*25
$GPGGA,083328.00,2458.01208,N,12111.22220,E,2,08,2.05,151.4,M,16.4,M,,0000*52
$GPGSA,A,3,25,50,02,05,20,17,09,19,,,,,3.36,2.05,2.66*01
$GPGSV,4,1,15,02,48,342,25,04,00,035,,05,33,252,41,06,48,039,*73
$GPGSV,4,2,15,07,00,099,,09,28,052,16,12,27,276,,13,13,188,*7B
$GPGSV,4,3,15,17,29,141,24,19,52,136,37,20,27,256,35,25,08,306,30*73
$GPGSV,4,4,15,28,05,175,,30,02,135,,50,60,166,36*40
$GPGLL,2458.01208,N,12111.22220,E,083328.00,A,D*6C
$GPRMC,083329.00,A,2458.01219,N,12111.22223,E,0.176,,090621,,,D*7B
$GPVTG,,T,,M,0.176,N,0.326,K,D*21
$GPGGA,083329.00,2458.01219,N,12111.22223,E,2,08,2.05,151.3,M,16.4,M,,0000*57
$GPGSA,A,3,25,50,02,05,20,17,09,19,,,,,3.36,2.05,2.66*01
$GPGSV,4,1,15,02,48,342,25,04,00,035,,05,33,252,41,06,48,039,*73
$GPGSV,4,2,15,07,00,099,,09,28,052,17,12,27,276,,13,13,188,*7A
$GPGSV,4,3,15,17,29,141,24,19,52,136,37,20,27,256,35,25,08,306,30*73
$GPGSV,4,4,15,28,05,175,,30,02,135,,50,60,166,36*40
$GPGLL,2458.01219,N,12111.22223,E,083329.00,A,D*6E
$GPVTG,,T,,M,0.043,N,0.079,K,D*2F
$GPGGA,083300.00,2458.01163,N,12111.22242,E,2,09,2.04,150.8,M,16.4,M,,0000*5F
$GPGSA,A,3,25,50,02,05,20,17,06,09,19,,,,3.36,2.04,2.67*07
$GPGSV,4,1,15,02,48,341,17,04,00,035,,05,33,251,41,06,48,038,20*71
$GPGSV,4,2,15,07,00,100,,09,28,052,22,12,27,276,,13,12,188,*7C
$GPGSV,4,3,15,17,29,141,25,19,52,136,37,20,27,255,35,25,08,306,30*71
$GPGSV,4,4,15,28,05,175,,30,02,135,,50,60,166,36*40
$GPGLL,2458.01163,N,12111.22242,E,083300.00,A,D*6C
$GPRMC,083301.00,A,2458.01167,N,12111.22240,E,0.038,,090621,,,D*75
$GPVTG,,T,,M,0.038,N,0.070,K,D*2A
$GPGGA,083301.00,2458.01167,N,12111.22240,E,2,09,2.04,150.9,M,16.4,M,,0000*59
$GPGSA,A,3,25,50,02,05,20,17,06,09,19,,,,3.36,2.04,2.67*07
$GPGSV,4,1,15,02,48,341,15,04,00,035,,05,33,251,41,06,48,038,21*72
$GPGSV,4,2,15,07,00,100,,09,28,052,21,12,27,276,,13,12,188,*7F
$GPGSV,4,3,15,17,29,141,25,19,52,136,36,20,27,255,35,25,08,306,30*70
$GPGSV,4,4,15,28,05,175,,30,02,135,,50,60,166,36*40
$GPGLL,2458.01167,N,12111.22240,E,083301.00,A,D*6B
$GPRMC,083302.00,A,2458.01169,N,12111.22240,E,0.045,,090621,,,D*72
$GPVTG,,T,,M,0.045,N,0.083,K,D*2C
$GPGGA,083302.00,2458.01169,N,12111.22240,E,2,09,2.04,151.0,M,16.4,M,,0000*5C
$GPGSA,A,3,25,50,02,05,20,17,06,09,19,,,,3.36,2.04,2.67*07
$GPGSV,4,1,15,02,48,341,14,04,00,035,,05,33,251,41,06,48,038,21*73
$GPGSV,4,2,15,07,00,100,,09,28,052,21,12,27,276,,13,12,188,*7F
$GPGSV,4,3,15,17,29,141,25,19,52,136,36,20,27,255,35,25,08,306,30*70
$GPGSV,4,4,15,28,05,175,,30,02,135,,50,60,166,36*40
$GPGLL,2458.01169,N,12111.22240,E,083302.00,A,D*66
$GPRMC,083303.00,A,2458.01169,N,12111.22238,E,0.070,,090621,,,D*7A
$GPVTG,,T,,M,0.070,N,0.129,K,D*2B
