$GPRMC,093124.00,A,2458.22137,N,12111.45850,E,0.347,,080621,,,A*70
$GPVTG,,T,,M,0.347,N,0.643,K,A*22
$GPGGA,093124.00,2458.22137,N,12111.45850,E,1,09,0.95,122.8,M,16.4,M,,*5E
$GPGSA,A,3,02,05,06,20,13,19,12,07,15,,,,1.87,0.95,1.61*0F
$GPGSV,4,1,13,02,60,016,39,05,46,282,37,06,43,075,27,07,06,078,16*73
$GPGSV,4,2,13,09,10,039,25,12,19,250,20,13,36,184,26,15,12,210,33*7C
$GPGSV,4,3,13,17,07,150,11,19,28,152,30,20,38,281,29,25,09,283,*70
$GPGSV,4,4,13,29,07,323,13*47
$GPGLL,2458.22137,N,12111.45850,E,093124.00,A,A*64
$GPRMC,093125.00,A,2458.22164,N,12111.45844,E,0.288,,080621,,,A*70
$GPVTG,,T,,M,0.288,N,0.534,K,A*23
$GPGGA,093125.00,2458.22164,N,12111.45844,E,1,09,0.95,122.0,M,16.4,M,,*54
$GPGSA,A,3,02,05,06,20,13,19,12,07,15,,,,1.87,0.95,1.61*0F
$GPGSV,4,1,13,02,60,016,39,05,46,282,36,06,43,075,26,07,06,078,15*70
$GPGSV,4,2,13,09,10,039,24,12,19,250,20,13,36,184,26,15,12,210,33*7D
$GPGSV,4,3,13,17,07,150,11,19,28,152,30,20,38,281,28,25,09,283,*71
$GPGSV,4,4,13,29,07,323,11*45
$GPGLL,2458.22164,N,12111.45844,E,093125.00,A,A*66
$GPRMC,093126.00,A,2458.22181,N,12111.45835,E,0.289,,080621,,,A*7F
$GPVTG,,T,,M,0.289,N,0.534,K,A*22
$GPGSA,A,3,02,05,06,20,13,19,12,07,15,,,,1.87,0.95,1.61*0F
$GPGSV,4,1,13,02,60,016,39,05,46,282,36,06,43,075,27,07,06,078,15*71
$GPGSV,4,2,13,09,10,039,25,12,19,250,20,13,36,184,27,15,12,210,33*7D
$GPGSV,4,3,13,17,07,150,09,19,28,152,30,20,38,281,28,25,09,283,*78
$GPGSV,4,4,13,29,07,323,10*44
$GPGLL,2458.22181,N,12111.45835,E,093126.00,A,A*68
$GPRMC,093127.00,A,2458.22182,N,12111.45824,E,0.270,,080621,,,A*7B
$GPVTG,,T,,M,0.270,N,0.500,K,A*23
$GPGGA,093127.00,2458.22182,N,12111.45824,E,1,09,0.95,122.1,M,16.4,M,,*59
$GPGSA,A,3,02,05,06,20,13,19,12,07,15,,,,1.87,0.95,1.61*0F
$GPGSV,4,1,13,02,60,016,39,05,46,282,37,06,43,075,28,07,06,078,15*7F
$GPGSV,4,2,13,09,10,039,25,12,19,250,21,13,36,184,26,15,12,210,33*7D
$GPGSV,4,3,13,17,07,150,08,19,28,152,30,20,38,281,28,25,09,283,*79
$GPGSV,4,4,13,29,07,323,10*44
$GPGLL,2458.22182,N,12111.45824,E,093127.00,A,A*6A
$GPRMC,093128.00,A,2458.22188,N,12111.45813,E,0.284,,080621,,,A*71
$GPVTG,,T,,M,0.284,N,0.525,K,A*2F
$GPGGA,093128.00,2458.22188,N,12111.45813,E,1,09,0.95,122.4,M,16.4,M,,*5D
$GPGSA,A,3,02,05,06,20,13,19,12,07,15,,,,1.87,0.95,1.61*0F
$GPGSV,4,1,13,02,60,016,39,05,46,282,37,06,43,075,28,07,06,078,15*7F
$GPGSV,4,2,13,09,10,039,26,12,19,250,20,13,36,184,27,15,12,210,33*7E
$GPGSV,4,3,13,17,07,150,08,19,28,152,30,20,38,281,28,25,09,283,*79
$GPGSV,4,4,13,29,07,323,10*44
$GPGLL,2458.22188,N,12111.45813,E,093128.00,A,A*6B
$GPRMC,093129.00,A,2458.22197,N,12111.45806,E,0.271,,080621,,,A*70
$GPVTG,,T,,M,0.271,N,0.501,K,A*23
$GPGGA,093129.00,2458.22197,N,12111.45806,E,1,09,0.95,122.4,M,16.4,M,,*56
$GPGSA,A,3,02,05,06,20,13,19,12,07,15,,,,1.87,0.95,1.61*0F
$GPGSV,4,1,13,02,60,016,40,05,46,282,37,06,43,075,28,07,06,078,16*72
$GPGSV,4,2,13,09,10,039,26,12,19,250,19,13,36,184,26,15,12,210,33*75
$GPGSV,4,3,13,17,07,150,06,19,28,152,29,20,38,281,29,25,09,283,*7E
$GPGSV,4,4,13,29,07,323,10*44
$GPGLL,2458.22197,N,12111.45806,E,093129.00,A,A*60
$GPRMC,093130.00,A,2458.22202,N,12111.45800,E,0.278,,080621,,,A*78
$GPVTG,,T,,M,0.278,N,0.514,K,A*2E
$GPGGA,093130.00,2458.22202,N,12111.45800,E,1,09,0.95,122.6,M,16.4,M,,*55
$GPGSA,A,3,02,05,06,20,13,19,12,07,15,,,,1.87,0.95,1.61*0F
$GPGSV,4,1,13,02,60,016,39,05,46,282,37,06,43,075,25,07,06,078,20*74
$GPGSV,4,2,13,09,10,039,26,12,19,250,18,13,36,184,26,15,12,210,33*74
$GPGSV,4,3,13,17,07,150,06,19,28,152,29,20,38,281,29,25,09,283,*7E
$GPGSV,4,4,13,29,07,323,10*44
$GPGLL,2458.22202,N,12111.45800,E,093130.00,A,A*61
$GPRMC,093131.00,A,2458.22206,N,12111.45788,E,0.283,,080621,,,A*76
$GPVTG,,T,,M,0.283,N,0.525,K,A*28
$GPGGA,093131.00,2458.22206,N,12111.45788,E,1,09,0.95,122.8,M,16.4,M,,*51
$GPGSA,A,3,02,05,06,20,13,19,12,07,15,,,,1.87,0.95,1.61*0F
$GPGSV,4,1,13,02,60,016,39,05,46,282,37,06,43,075,23,07,06,078,21*73
$GPGSV,4,2,13,09,10,039,25,12,19,250,16,13,36,184,26,15,12,210,33*79
$GPGSV,4,3,13,17,07,150,06,19,28,152,28,20,38,281,29,25,09,283,*7F
$GPRMC,093132.00,A,2458.22223,N,12111.45785,E,0.245,,080621,,,A*75
$GPRMC,093133.00,A,2458.22240,N,12111.45783,E,0.257,,080621,,,A*74
$GPVTG,,T,,M,0.257,N,0.475,K,A*25
$GPGGA,093133.00,2458.22240,N,12111.45783,E,1,09,0.95,121.8,M,16.4,M,,*59
$GPGSA,A,3,02,05,06,20,13,19,12,07,15,,,,1.87,0.95,1.61*0F
$GPRMC,093134.00,A,2458.22257,N,12111.45783,E,0.247,,080621,,,A*74
$GPVTG,,T,,M,0.247,N,0.457,K,A*24
$GPGGA,093134.00,2458.22257,N,12111.45783,E,1,09,0.95,121.3,M,16.4,M,,*53
$GPGSA,A,3,02,05,06,20,13,19,12,07,15,,,,1.87,0.95,1.61*0F
$GPGSV,4,1,13,02,60,016,40,05,46,282,37,06,43,075,18,07,06,078,19*7E
$GPGSV,4,2,13,09,10,039,23,12,19,250,13,13,36,184,26,15,12,210,33*7A
$GPRMC,093135.00,A,2458.22272,N,12111.45785,E,0.279,,080621,,,A*79
$GPVTG,,T,,M,0.279,N,0.517,K,A*2C
$GPGGA,093135.00,2458.22272,N,12111.45785,E,1,09,0.95,120.7,M,16.4,M,,*56
$GPGSA,A,3,02,05,06,20,13,19,12,07,15,,,,1.87,0.95,1.61*0F
$GPGSV,4,1,13,02,60,016,40,05,46,282,37,06,43,075,18,07,06,078,18*7F
$GPGSV,4,2,13,09,10,039,23,12,19,250,11,13,36,184,25,15,12,210,33*7B
$GPGSV,4,3,13,17,07,150,,19,28,152,26,20,38,281,29,25,09,283,*77
$GPGSV,4,4,13,29,07,323,*45
$GPRMC,093136.00,A,2458.22285,N,12111.45785,E,0.276,,080621,,,A*7D
$GPRMC,093137.00,A,2458.22302,N,12111.45788,E,0.276,,080621,,,A*7F
$GPVTG,,T,,M,0.276,N,0.512,K,A*26
$GPGGA,093137.00,2458.22302,N,12111.45788,E,1,09,0.95,119.6,M,16.4,M,,*54
$GPRMC,093138.00,A,2458.22322,N,12111.45789,E,0.275,,080621,,,A*70
$GPVTG,,T,,M,0.275,N,0.509,K,A*2F
$GPGGA,093138.00,2458.22322,N,12111.45789,E,1,09,0.95,118.8,M,16.4,M,,*57
$GPRMC,093139.00,A,2458.22339,N,12111.45793,E,0.297,,080621,,,A*7C
$GPVTG,,T,,M,0.297,N,0.550,K,A*2F
$GPGGA,093139.00,2458.22339,N,12111.45793,E,1,09,0.95,118.1,M,16.4,M,,*5E
$GPGSA,A,3,02,05,06,20,13,19,12,07,15,,,,1.87,0.95,1.61*0F
$GPGSV,4,1,13,02,60,016,41,05,46,282,37,06,43,075,23,07,06,078,18*76
$GPGSV,4,2,13,09,10,039,22,12,19,250,10,13,36,184,24,15,12,210,33*7A
$GPGSV,4,3,13,17,07,150,,19,28,152,27,20,38,281,29,25,09,283,*76
$GPRMC,093140.00,A,2458.22348,N,12111.45791,E,0.254,,080621,,,A*79
$GPRMC,093141.00,A,2458.22356,N,12111.45787,E,0.293,,080621,,,A*7B
$GPRMC,093142.00,A,2458.22362,N,12111.45784,E,0.299,,080621,,,A*76
$GPVTG,,T,,M,0.299,N,0.554,K,A*25
$GPGGA,093142.00,2458.22362,N,12111.45784,E,1,09,0.95,117.2,M,16.4,M,,*56
$GPGSA,A,3,02,05,06,20,13,19,12,07,15,,,,1.87,0.95,1.61*0F
$GPGSV,4,1,13,02,60,016,41,05,46,282,36,06,43,075,23,07,06,078,20*7C
$GPRMC,093143.00,A,2458.22356,N,12111.45779,E,0.226,,080621,,,A*76
$GPVTG,,T,,M,0.226,N,0.419,K,A*29
$GPGGA,093143.00,2458.22356,N,12111.45779,E,1,09,0.95,117.4,M,16.4,M,,*54
$GPGSA,A,3,02,05,06,20,13,19,12,07,15,,,,1.87,0.95,1.61*0F
$GPGSV,4,1,13,02,60,016,41,05,46,282,35,06,43,075,22,07,06,078,21*7F
$GPGSV,4,2,13,09,10,039,22,12,19,250,11,13,36,184,22,15,12,210,33*7D
$GPGSV,4,3,13,17,07,150,,19,28,152,27,20,38,281,29,25,09,283,*76
$GPRMC,093144.00,A,2458.22364,N,12111.45779,E,0.223,,080621,,,A*75
$GPVTG,,T,,M,0.223,N,0.412,K,A*27
$GPGGA,093144.00,2458.22364,N,12111.45779,E,1,09,1.46,116.9,M,16.4,M,,*51
$GPRMC,093145.00,A,2458.22370,N,12111.45780,E,0.210,,080621,,,A*77
$GPVTG,,T,,M,0.210,N,0.389,K,A*22
$GPRMC,093146.00,A,2458.22374,N,12111.45783,E,0.236,,080621,,,A*77
$GPRMC,093147.00,A,2458.22370,N,12111.45776,E,0.307,,080621,,,A*7B
$GPVTG,,T,,M,0.307,N,0.568,K,A*2C
$GPGGA,093147.00,2458.22370,N,12111.45776,E,1,09,0.95,116.3,M,16.4,M,,*5D
$GPGSA,A,3,02,05,06,20,13,19,12,07,15,,,,1.87,0.95,1.61*0F
$GPRMC,093148.00,A,2458.22370,N,12111.45776,E,0.220,,080621,,,A*70
$GPVTG,,T,,M,0.220,N,0.408,K,A*2F
$GPGGA,093148.00,2458.22370,N,12111.45776,E,1,09,1.46,116.1,M,16.4,M,,*5F
$GPGSA,A,3,02,05,06,20,13,19,12,07,15,,,,3.63,1.46,3.32*0C
$GPRMC,093149.00,A,2458.22369,N,12111.45775,E,0.242,,080621,,,A*7E
$GPVTG,,T,,M,0.242,N,0.449,K,A*2E
$GPGGA,093149.00,2458.22369,N,12111.45775,E,1,09,1.46,116.0,M,16.4,M,,*54
$GPGSA,A,3,02,05,06,20,13,19,12,07,15,,,,3.63,1.46,3.32*0C
$GPRMC,093150.00,A,2458.22364,N,12111.45778,E,0.230,,080621,,,A*73
$GPRMC,093151.00,A,2458.22350,N,12111.45772,E,0.278,,080621,,,A*73
$GPRMC,093152.00,A,2458.22341,N,12111.45772,E,0.243,,080621,,,A*78
$GPVTG,,T,,M,0.243,N,0.450,K,A*27
$GPRMC,093153.00,A,2458.22323,N,12111.45766,E,0.219,,080621,,,A*77
$GPVTG,,T,,M,0.219,N,0.405,K,A*28
$GPGGA,093153.00,2458.22323,N,12111.45766,E,1,09,0.95,117.2,M,16.4,M,,*5F
$GPRMC,093154.00,A,2458.22303,N,12111.45765,E,0.221,,080621,,,A*7A
$GPVTG,,T,,M,0.221,N,0.410,K,A*27
$GPRMC,093155.00,A,2458.22274,N,12111.45761,E,0.216,,080621,,,A*7A
$GPVTG,,T,,M,0.216,N,0.400,K,A*22
$GPRMC,093156.00,A,2458.22250,N,12111.45764,E,0.170,,080621,,,A*79
$GPVTG,,T,,M,0.170,N,0.315,K,A*22
$GPRMC,093157.00,A,2458.22225,N,12111.45773,E,0.165,,080621,,,A*78
$GPVTG,,T,,M,0.165,N,0.306,K,A*24
$GPGGA,093157.00,2458.22225,N,12111.45773,E,1,09,0.95,120.2,M,16.4,M,,*5C
$GPRMC,093158.00,A,2458.22207,N,12111.45782,E,0.235,,080621,,,A*7F
$GPVTG,,T,,M,0.235,N,0.435,K,A*25
$GPGGA,093158.00,2458.22207,N,12111.45782,E,1,09,0.95,120.7,M,16.4,M,,*58
$GPGSA,A,3,02,05,06,20,13,19,12,07,15,,,,1.87,0.95,1.61*0F
$GPGSV,4,1,13,02,60,017,39,05,46,283,34,06,43,076,23,07,07,078,15*75
$GPRMC,093159.00,A,2458.22192,N,12111.45793,E,0.224,,080621,,,A*71
$GPVTG,,T,,M,0.224,N,0.415,K,A*27
$GPGGA,093159.00,2458.22192,N,12111.45793,E,1,09,0.95,121.0,M,16.4,M,,*50
$GPRMC,093200.00,A,2458.22182,N,12111.45810,E,0.267,,080621,,,A*7C
$GPRMC,093202.00,A,2458.22143,N,12111.45825,E,0.172,,080621,,,A*72
$GPVTG,,T,,M,0.172,N,0.319,K,A*2C
$GPGGA,093202.00,2458.22143,N,12111.45825,E,1,08,1.46,122.2,M,16.4,M,,*5C
$GPGSA,A,3,02,05,06,20,13,19,12,15,,,,,3.63,1.46,3.32*0B
$GPRMC,093203.00,A,2458.22120,N,12111.45836,E,0.155,,080621,,,A*71
$GPVTG,,T,,M,0.155,N,0.287,K,A*2F
$GPGGA,093203.00,2458.22120,N,12111.45836,E,1,08,1.46,122.9,M,16.4,M,,*51
$GPGSA,A,3,02,05,06,20,13,19,12,15,,,,,3.63,1.46,3.32*0B
$GPGSV,4,1,13,02,60,017,41,05,46,283,35,06,43,076,19,07,07,078,08*7E
$GPRMC,093204.00,A,2458.22102,N,12111.45843,E,0.109,,080621,,,A*7D
$GPVTG,,T,,M,0.109,N,0.202,K,A*2B
$GPGGA,093204.00,2458.22102,N,12111.45843,E,1,08,1.46,123.3,M,16.4,M,,*5F
$GPGSA,A,3,02,05,06,20,13,19,12,15,,,,,3.63,1.46,3.32*0B
$GPGSV,4,1,13,02,60,017,40,05,46,283,36,06,43,076,21,07,07,078,*7F
$GPGSV,4,2,13,09,10,039,22,12,19,249,22,13,36,184,25,15,12,210,30*71
$GPRMC,093205.00,A,2458.22087,N,12111.45846,E,0.063,,080621,,,A*78
$GPVTG,,T,,M,0.063,N,0.117,K,A*21
$GPRMC,093207.00,A,2458.22050,N,12111.45857,E,0.131,,080621,,,A*76
$GPVTG,,T,,M,0.131,N,0.243,K,A*25
$GPGGA,093207.00,2458.22050,N,12111.45857,E,1,08,1.46,124.9,M,16.4,M,,*52
$GPGSA,A,3,02,05,06,20,13,19,12,15,,,,,3.63,1.46,3.32*0B
$GPRMC,093208.00,A,2458.22035,N,12111.45862,E,0.108,,080621,,,A*76
$GPVTG,,T,,M,0.108,N,0.200,K,A*28
$GPGGA,093208.00,2458.22035,N,12111.45862,E,1,09,1.46,125.4,M,16.4,M,,*55
$GPRMC,093209.00,A,2458.22020,N,12111.45868,E,0.142,,080621,,,A*77
$GPVTG,,T,,M,0.142,N,0.263,K,A*23
$GPRMC,093210.00,A,2458.22001,N,12111.45874,E,0.110,,080621,,,A*76
$GPVTG,,T,,M,0.110,N,0.203,K,A*22
$GPGGA,093210.00,2458.22001,N,12111.45874,E,1,09,1.46,126.5,M,16.4,M,,*5E
$GPRMC,093211.00,A,2458.21986,N,12111.45880,E,0.096,,080621,,,A*76
$GPVTG,,T,,M,0.096,N,0.177,K,A*2D
$GPGGA,093211.00,2458.21986,N,12111.45880,E,1,09,1.46,126.9,M,16.4,M,,*5D
$GPGSA,A,3,02,05,06,20,13,19,12,07,15,,,,3.62,1.46,3.32*0D
$GPRMC,093212.00,A,2458.21971,N,12111.45883,E,0.123,,080621,,,A*71
$GPVTG,,T,,M,0.123,N,0.227,K,A*24
$GPRMC,093213.00,A,2458.21953,N,12111.45885,E,0.064,,080621,,,A*74
$GPVTG,,T,,M,0.064,N,0.118,K,A*29
$GPGGA,093213.00,2458.21953,N,12111.45885,E,1,09,1.46,128.1,M,16.4,M,,*54
$GPRMC,093214.00,A,2458.21938,N,12111.45887,E,0.068,,080621,,,A*70
$GPVTG,,T,,M,0.068,N,0.126,K,A*28
$GPRMC,093215.00,A,2458.21919,N,12111.45887,E,0.079,,080621,,,A*72
$GPVTG,,T,,M,0.079,N,0.147,K,A*2F
$GPGGA,093215.00,2458.21919,N,12111.45887,E,1,08,1.46,129.3,M,16.4,M,,*5C
$GPRMC,093216.00,A,2458.21902,N,12111.45884,E,0.098,,080621,,,A*77
$GPVTG,,T,,M,0.098,N,0.182,K,A*29
$GPRMC,093217.00,A,2458.21898,N,12111.45885,E,0.167,,080621,,,A*74
$GPVTG,,T,,M,0.167,N,0.310,K,A*21
$GPGGA,093217.00,2458.21898,N,12111.45885,E,1,09,0.95,130.1,M,16.4,M,,*50
$GPGSA,A,3,02,05,06,20,13,19,12,07,15,,,,1.86,0.95,1.60*0F
$GPRMC,093218.00,A,2458.21894,N,12111.45889,E,0.138,,080621,,,A*71
$GPRMC,093219.00,A,2458.21885,N,12111.45892,E,0.120,,080621,,,A*73
$GPVTG,,T,,M,0.120,N,0.222,K,A*22
$GPGGA,093219.00,2458.21885,N,12111.45892,E,1,09,0.95,130.7,M,16.4,M,,*52
$GPGSA,A,3,02,05,06,20,13,19,12,07,15,,,,1.86,0.95,1.60*0F
$GPRMC,093220.00,A,2458.21879,N,12111.45897,E,0.154,,080621,,,A*7C
$GPGLL,2458.21821,N,12111.45888,E,093224.00,A,A*6F
$GPRMC,093225.00,A,2458.21814,N,12111.45885,E,0.031,,080621,,,A*73
$GPVTG,,T,,M,0.031,N,0.057,K,A*23
$GPGGA,093225.00,2458.21814,N,12111.45885,E,1,09,1.46,134.6,M,16.4,M,,*59
$GPGSA,A,3,02,05,06,20,13,19,12,07,15,,,,3.62,1.46,3.31*0E
$GPGSV,4,1,13,02,60,017,39,05,46,283,36,06,43,076,22,07,07,078,13*70
$GPGSV,4,2,13,09,10,039,25,12,19,249,19,13,36,184,27,15,12,210,31*7D
$GPGSV,4,3,13,17,06,150,,19,28,152,34,20,39,282,31,25,09,283,*7E
$GPGSV,4,4,13,29,07,323,*45
$GPGLL,2458.21814,N,12111.45885,E,093225.00,A,A*65
$GPRMC,093226.00,A,2458.21805,N,12111.45883,E,0.084,,080621,,,A*78
$GPVTG,,T,,M,0.084,N,0.156,K,A*2D
$GPGGA,093226.00,2458.21805,N,12111.45883,E,1,09,1.46,135.2,M,16.4,M,,*59
$GPGSA,A,3,02,05,06,20,13,19,12,07,15,,,,3.62,1.46,3.31*0E
$GPGSV,4,1,13,02,60,017,39,05,46,283,36,06,43,076,23,07,07,078,15*77
$GPGSV,4,2,13,09,10,039,25,12,19,249,16,13,36,184,27,15,12,210,31*72
$GPGSV,4,3,13,17,06,150,,19,28,152,34,20,39,282,31,25,09,283,*7E
$GPGSV,4,4,13,29,07,323,*45
$GPGLL,2458.21805,N,12111.45883,E,093226.00,A,A*60
$GPRMC,093227.00,A,2458.21796,N,12111.45881,E,0.037,,080621,,,A*76
$GPVTG,,T,,M,0.037,N,0.069,K,A*28
$GPGGA,093227.00,2458.21796,N,12111.45881,E,1,09,1.46,135.7,M,16.4,M,,*5A
$GPGSA,A,3,02,05,06,20,13,19,12,07,15,,,,3.62,1.46,3.31*0E
$GPGSV,4,1,13,02,60,017,40,05,46,283,35,06,43,076,24,07,07,078,16*7E
$GPGSV,4,2,13,09,10,039,23,12,19,249,14,13,36,184,27,15,12,210,31*76
$GPGSV,4,3,13,17,06,150,16,19,28,152,34,20,39,282,31,25,09,283,*79
$GPGSV,4,4,13,29,07,323,*45
$GPRMC,093228.00,A,2458.21789,N,12111.45878,E,0.019,,080621,,,A*7D
$GPVTG,,T,,M,0.019,N,0.034,K,A*2C
$GPGGA,093228.00,2458.21789,N,12111.45878,E,1,09,1.46,136.2,M,16.4,M,,*5B
$GPGSA,A,3,02,05,06,20,13,19,12,07,15,,,,3.62,1.46,3.31*0E
$GPRMC,093229.00,A,2458.21782,N,12111.45873,E,0.023,,080621,,,A*75
$GPRMC,093230.00,A,2458.21778,N,12111.45869,E,0.031,,080621,,,A*70
$GPVTG,,T,,M,0.031,N,0.057,K,A*23
$GPRMC,093231.00,A,2458.21774,N,12111.45865,E,0.020,,080621,,,A*71
$GPVTG,,T,,M,0.020,N,0.037,K,A*25
$GPGGA,093231.00,2458.21774,N,12111.45865,E,1,09,1.46,137.1,M,16.4,M,,*5F
$GPRMC,093232.00,A,2458.21772,N,12111.45861,E,0.038,,080621,,,A*79
$GPVTG,,T,,M,0.038,N,0.071,K,A*2E
$GPGGA,093232.00,2458.21772,N,12111.45861,E,1,09,1.46,137.4,M,16.4,M,,*5B
$GPGSA,A,3,02,05,06,20,13,19,12,07,15,,,,3.62,1.46,3.31*0E
$GPGSV,4,1,13,02,60,017,41,05,46,283,36,06,43,076,22,07,07,078,20*7F
$GPRMC,093234.00,A,2458.21774,N,12111.45853,E,0.022,,080621,,,A*73
$GPVTG,,T,,M,0.022,N,0.041,K,A*26
$GPRMC,093236.00,A,2458.21779,N,12111.45840,E,0.073,,080621,,,A*7A
$GPVTG,,T,,M,0.073,N,0.136,K,A*23
$GPGGA,093236.00,2458.21779,N,12111.45840,E,1,09,1.46,137.2,M,16.4,M,,*51
$GPGSA,A,3,02,05,06,20,13,19,12,07,15,,,,3.62,1.46,3.31*0E
$GPGSV,4,1,13,02,60,017,42,05,46,283,36,06,43,076,24,07,07,078,20*7A
$GPRMC,093238.00,A,2458.21789,N,12111.45824,E,0.073,,080621,,,A*79
$GPVTG,,T,,M,0.073,N,0.135,K,A*20
$GPGGA,093238.00,2458.21789,N,12111.45824,E,1,09,1.46,136.7,M,16.4,M,,*56
$GPGSA,A,3,02,05,06,20,13,19,12,07,15,,,,3.62,1.46,3.31*0E
$GPGSV,4,1,13,02,60,017,42,05,46,283,36,06,43,076,23,07,07,078,17*79
$GPGSV,4,2,13,09,10,039,21,12,19,249,17,13,36,184,26,15,12,210,28*7E
$GPGSV,4,3,13,17,06,150,11,19,28,152,31,20,39,282,27,25,09,283,*7C
$GPRMC,093239.00,A,2458.21795,N,12111.45817,E,0.047,,080621,,,A*72
$GPVTG,,T,,M,0.047,N,0.087,K,A*2F
$GPGGA,093239.00,2458.21795,N,12111.45817,E,1,09,1.46,136.5,M,16.4,M,,*58
$GPRMC,093240.00,A,2458.21801,N,12111.45812,E,0.036,,080621,,,A*7D
$GPVTG,,T,,M,0.036,N,0.066,K,A*26
$GPGGA,093240.00,2458.21801,N,12111.45812,E,1,09,1.46,136.4,M,16.4,M,,*50
$GPGSA,A,3,02,05,06,20,13,19,12,07,15,,,,3.62,1.46,3.31*0E
$GPGSV,4,1,13,02,60,017,41,05,46,283,36,06,43,076,25,07,07,078,12*79
$GPGSV,4,2,13,09,10,039,22,12,19,249,20,13,36,184,27,15,12,210,27*77
$GPGSV,4,3,13,17,06,150,11,19,28,152,30,20,39,282,29,25,09,283,*73
$GPGSV,4,4,13,29,07,323,*45
$GPRMC,093242.00,A,2458.21816,N,12111.45800,E,0.145,,080621,,,A*7F
$GPVTG,,T,,M,0.145,N,0.269,K,A*2E
$GPGGA,093242.00,2458.21816,N,12111.45800,E,1,09,1.46,136.0,M,16.4,M,,*53
$GPGSA,A,3,02,05,06,20,13,19,12,07,15,,,,3.62,1.46,3.31*0E
$GPGSV,4,1,13,02,60,017,42,05,46,283,36,06,43,076,26,07,07,078,13*78
$GPGSV,4,2,13,09,10,039,22,12,19,249,21,13,36,184,26,15,12,210,27*77
$GPGSV,4,3,13,17,06,150,07,19,28,152,29,20,39,282,29,25,09,283,*7C
$GPGSV,4,4,13,29,07,323,*45
$GPRMC,093243.00,A,2458.21825,N,12111.45795,E,0.055,,080621,,,A*7D
$GPVTG,,T,,M,0.055,N,0.101,K,A*23
$GPGGA,093243.00,2458.21825,N,12111.45795,E,1,09,1.46,135.6,M,16.4,M,,*54
$GPRMC,093244.00,A,2458.21835,N,12111.45791,E,0.073,,080621,,,A*7B
$GPVTG,,T,,M,0.073,N,0.135,K,A*20
$GPGGA,093244.00,2458.21835,N,12111.45791,E,1,09,1.46,135.3,M,16.4,M,,*53
$GPGSA,A,3,02,05,06,20,13,19,12,07,15,,,,3.61,1.46,3.31*0D
$GPGSV,4,1,13,02,60,017,42,05,46,283,36,06,43,076,28,07,07,078,13*76
$GPGSV,4,2,13,09,10,039,21,12,19,249,24,13,36,184,26,15,12,210,25*73
$GPGSV,4,3,13,17,06,150,07,19,28,152,29,20,39,282,29,25,09,283,*7C
$GPRMC,093318.00,A,2458.22188,N,12111.45707,E,0.120,,080621,,,A*77
$GPVTG,,T,,M,0.120,N,0.223,K,A*23
$GPGGA,093318.00,2458.22188,N,12111.45707,E,1,09,1.46,123.9,M,16.4,M,,*55
$GPGSA,A,3,02,05,06,20,13,19,12,07,15,,,,3.60,1.46,3.30*0D
$GPGSV,4,1,13,02,60,018,41,05,46,284,36,06,43,077,25,07,07,077,20*7E
$GPRMC,093326.00,A,2458.21983,N,12111.45698,E,0.073,,080621,,,A*7A
$GPVTG,,T,,M,0.073,N,0.135,K,A*20
$GPGGA,093
$GPGSA,A,3,02,05,06,20,13,19,12,07,15,,,,3.60,1.46,3.29*05
$GPGSV,4,1,13,02,60,018,40,05,46,284,36,06,43,077,23,07,07,077,17*7D
$GPGSV,4,2,13,09,09,038,23,12,19,249,21,13,37,184,32,15,13,210,18*76
$GPGSV,4,3,13,17,06,150,17,19,27,152,26,20,39,283,25,25,09,282,08*79
$GPGSV,4,4,13,29,08,323,16*4D
$GPGLL,2458.21983,N,12111.45698,E,093326.00,A,A*6A
$GPRMC,093327.00,A,2458.21965,N,12111.45698,E,0.063,,080621,,,A*72
$GPVTG,,T,,M,0.063,N,0.116,K,A*20
$GPGGA,093327.00,2458.21965,N,12111.45698,E,1,09,1.46,132.8,M,16.4,M,,*57
$GPGSA,A,3,02,05,06,20,13,19,12,07,15,,,,3.60,1.46,3.29*05
$GPGSV,4,1,13,02,60,018,40,05,46,284,37,06,43,077,24,07,07,077,16*7A
$GPGSV,4,2,13,09,09,038,23,12,19,249,19,13,37,184,32,15,13,210,19*7C
$GPGSV,4,3,13,17,06,150,17,19,27,152,26,20,39,283,25,25,09,282,08*79
$GPGSV,4,4,13,29,08,323,17*4C
$GPGLL,2458.21965,N,12111.45698,E,093327.00,A,A*63
$GPRMC,093328.00,A,2458.21945,N,12111.45699,E,0.011,,080621,,,A*7B
$GPVTG,,T,,M,0.011,N,0.021,K,A*20
$GPGGA,093328.00,2458.21945,N,12111.45699,E,1,09,1.46,133.5,M,16.4,M,,*57
$GPGSA,A,3,02,05,06,20,13,19,12,07,15,,,,3.60,1.46,3.29*05
$GPGSV,4,1,13,02,60,018,40,05,46,284,37,06,43,077,25,07,07,077,15*78
$GPGSV,4,2,13,09,09,038,23,12,19,249,17,13,37,184,32,15,13,210,19*72
$GPGSV,4,3,13,17,06,150,15,19,27,152,25,20,39,283,26,25,09,282,*73
$GPGSV,4,4,13,29,08,323,17*4C
$GPGLL,2458.21945,N,12111.45699,E,093328.00,A,A*6F
$GPRMC,093329.00,A,2458.21937,N,12111.45694,E,0.272,,080621,,,A*75
$GPVTG,,T,,M,0.272,N,0.504,K,A*25
$GPGGA,093329.00,2458.21937,N,12111.45694,E,1,09,1.46,134.1,M,16.4,M,,*5D
$GPGSA,A,3,02,05,06,20,13,19,12,07,15,,,,3.60,1.46,3.29*05
$GPGSV,4,1,13,02,60,018,38,05,46,284,35,06,43,077,23,07,07,077,12*74
$GPGSV,4,2,13,09,09,038,23,12,19,249,14,13,37,184,28,15,13,210,19*7A
$GPGSV,4,3,13,17,06,150,14,19,27,152,24,20,39,283,27,25,09,282,*72
$GPGSV,4,4,13,29,08,323,15*4E
$GPGLL,2458.21937,N,12111.45694,E,093329.00,A,A*66
$GPRMC,093331.00,A,2458.21898,N,12111.45678,E,0.120,,080621,,,A*7E
$GPVTG,,T,,M,0.120,N,0.222,K,A*22
$GPGGA,093331.00,2458.21898,N,12111.45678,E,1,09,1.55,135.9,M,16.4,M,,*59
$GPGSA,A,3,02,05,06,20,13,19,12,07,15,,,,4.07,1.55,3.76*0B
$GPRMC,093332.00,A,2458.21891,N,12111.45683,E,0.046,,080621,,,A*71
$GPVTG,,T,,M,0.046,N,0.085,K,A*2C
$GPRMC,093333.00,A,2458.21884,N,12111.45699,E,0.140,,080621,,,A*78
$GPVTG,,T,,M,0.140,N,0.260,K,A*22
$GPGGA,093333.00,2458.21884,N,12111.45699,E,1,09,1.55,135.9,M,16.4,M,,*59
$GPGSA,A,3,02,05,06,20,13,19,12,07,15,,,,4.07,1.55,3.76*0B
$GPGSV,4,1,13,02,60,018,40,05,46,284,38,06,43,077,26,07,07,077,13*72
$GPRMC,093334.00,A,2458.21882,N,12111.45715,E,0.070,,080621,,,A*7E
$GPRMC,093335.00,A,2458.21883,N,12111.45729,E,0.053,,080621,,,A*70
$GPVTG,,T,,M,0.053,N,0.098,K,A*24
$GPRMC,093336.00,A,2458.21885,N,12111.45740,E,0.111,,080621,,,A*7D
$GPRMC,093337.00,A,2458.21876,N,12111.45754,E,0.286,,080621,,,A*78
$GPVTG,,T,,M,0.286,N,0.529,K,A*21
$GPGGA,093337.00,2458.21876,N,12111.45754,E,1,09,1.55,134.7,M,16.4,M,,*5F
$GPGSA,A,3,02,05,06,20,13,19,12,07,15,,,,4.06,1.55,3.76*0A
$GPGSV,4,1,13,02,60,018,39,05,46,284,39,06,43,077,29,07,07,077,09*79
$GPGSV,4,2,13,09,09,038,25,12,19,249,09,13,37,184,28,15,13,210,20*7A
$GPRMC,093343.00,A,2458.21843,N,12111.45813,E,0.076,,080621,,,A*7C
$GPVTG,,T,,M,0.076,N,0.142,K,A*25
$GPGGA,093343.00,2458.21843,N,12111.45813,E,1,08,1.46,133.3,M,16.4,M,,*56
$GPGSA,A,3,02,05,06,20,13,19,12,15,,,,,3.59,1.46,3.29*08
$GPGSV,4,1,14,02,60,018,39,05,46,284,40,06,43,077,29,07,07,077,06*7F
$GPRMC,093347.00,A,2458.21796,N,12111.45840,E,0.145,,080621,,,A*78
$GPVTG,,T,,M,0.145,N,0.269,K,A*2E
$GPGGA,093347.00,2458.21796,N,12111.45840,E,1,09,1.46,134.5,M,16.4,M,,*53
$GPGSA,A,3,02,05,06,20,13,19,12,07,15,,,,3.59,1.46,3.29*0F
$GPGSV,4,1,14,02,60,018,38,05,46,284,40,06,43,077,33,07,07,077,07*74
$GPRMC,093422.00,A,2458.21851,N,12111.45915,E,0.056,,080621,,,A*7A
$GPVTG,,T,,M,0.056,N,0.103,K,A*22
$GPGGA,093422.00,2458.21851,N,12111.45915,E,1,10,0.92,134.7,M,16.4,M,,*50
$GPGSA,A,3,02,05,06,20,13,19,30,12,07,15,,,1.81,0.92,1.55*0A
$GPGSV,4,1,14,02,61,019,42,05,46,285,37,06,43,077,25,07,07,077,17*7E
$GPRMC,093423.00,A,2458.21864,N,12111.45920,E,0.051,,080621,,,A*7C
$GPVTG,,T,,M,0.051,N,0.095,K,A*2B
$GPGGA,093423.00,2458.21864,N,12111.45920,E,1,09,1.15,134.3,M,16.4,M,,*53
$GPGSV,4,4,14,29,08,323,,30,12,113,28*74
$GPGLL,2458.21901,N,12111.45908,E,093429.00,A,A*6E
$GPRMC,093430.00,A,2458.21899,N,12111.45901,E,0.081,,080621,,,A*72
$GPVTG,,T,,M,0.081,N,0.149,K,A*26
$GPGGA,093430.00,2458.21899,N,12111.45901,E,1,10,1.15,133.0,M,16.4,M,,*5C
$GPGSA,A,3,02,05,06,20,13,19,30,12,07,15,,,2.48,1.15,2.20*03
$GPGSV,4,1,14,02,61,019,42,05,46,285,38,06,43,077,30,07,07,077,19*7B
$GPGSV,4,2,14,09,09,038,20,12,18,248,30,13,37,184,30,15,13,210,28*73
$GPRMC,093431.00,A,2458.21890,N,12111.45889,E,0.078,,080621,,,A*7D
$GPVTG,,T,,M,0.078,N,0.144,K,A*2D
$GPGGA,093431.00,2458.21890,N,12111.45889,E,1,10,1.15,133.5,M,16.4,M,,*50
$GPRMC,093433.00,A,2458.21874,N,12111.45878,E,0.032,,080621,,,A*75
$GPVTG,,T,,M,0.032,N,0.060,K,A*24
$GPGGA,093433.00,2458.21874,N,12111.45878,E,1,10,1.15,134.0,M,16.4,M,,*54
$GPGSA,A,3,02,05,06,20,13,19,30,12,07,15,,,2.48,1.15,2.20*03
$GPGSV,4,1,14,02,61,019,43,05,46,285,39,06,43,077,32,07,07,077,22*71
$GPGSV,4,2,14,09,09,038,22,12,18,248,30,13,37,184,28,15,13,210,25*75
$GPGSV,4,3,14,17,05,150,,19,27,153,32,20,39,283,37,25,09,282,15*70
$GPGSV,4,4,14,29,08,323,,30,12,113,27*7B
$GPRMC,093439.00,A,2458.21811,N,12111.45884,E,0.097,,080621,,,A*70
$GPVTG,,T,,M,0.097,N,0.179,K,A*22
$GPGGA,093439.00,2458.21811,N,12111.45884,E,1,10,0.92,135.6,M,16.4,M,,*57
$GPGSA,A,3,02,05,06,20,13,19,30,12,07,15,,,1.81,0.92,1.55*0A
$GPGSV,4,1,14,02,61,019,42,05,46,285,39,06,43,077,34,07,07,077,25*71
$GPRMC,093443.00,A,2458.21769,N,12111.45893,E,0.009,,080621,,,A*7C
$GPVTG,,T,,M,0.009,N,0.017,K,A*2C
$GPGGA,093443.00,2458.21769,N,12111.45893,E,1,10,0.92,137.0,M,16.4,M,,*58
$GPGSA,A,3,02,05,06,20,13,19,30,12,07,15,,,1.80,0.92,1.55*0B
$GPGSV,4,1,14,02,61,019,42,05,46,285,38,06,43,077,33,07,07,077,25*77
$GPRMC,093444.00,A,2458.21768,N,12111.45896,E,0.028,,080621,,,A*7C
$GPVTG,,T,,M,0.028,N,0.051,K,A*2D
$GPRMC,093445.00,A,2458.21770,N,12111.45899,E,0.026,,080621,,,A*75
$GPVTG,,T,,M,0.026,N,0.048,K,A*2B
$GPGGA,093445.00,2458.21770,N,12111.45899,E,1,10,1.15,137.0,M,16.4,M,,*52
$GPGSA,A,3,02,05,06,20,13,19,30,12,07,15,,,2.48,1.15,2.20*03
$GPGSV,4,1,14,02,61,019,42,05,46,285,38,06,43,077,33,07,07,077,25*77
$GPRMC,093446.00,A,2458.21766,N,12111.45904,E,0.010,,080621,,,A*71
$GPRMC,093447.00,A,2458.21761,N,12111.45909,E,0.116,,080621,,,A*7D
$GPVTG,,T,,M,0.116,N,0.214,K,A*22
$GPGGA,093447.00,2458.21761,N,12111.45909,E,1,10,0.92,137.3,M,16.4,M,,*55
$GPGSA,A,3,02,05,06,20,13,19,30,12,07,15,,,1.80,0.92,1.55*0B
$GPGSV,4,1,14,02,61,019,43,05,46,285,28,06,43,077,33,07,07,077,22*70
$GPGSV,4,2,14,09,09,038,20,12,18,248,31,13,37,184,30,15,13,210,24*7E
$GPRMC,093448.00,A,2458.21758,N,12111.45912,E,0.012,,080621,,,A*77
$GPVTG,,T,,M,0.012,N,0.021,K,A*23
$GPGGA,093448.00,2458.21758,N,12111.45912,E,1,10,1.15,137.4,M,16.4,M,,*53
$GPRMC,093449.00,A,2458.21756,N,12111.45913,E,0.089,,080621,,,A*7B
$GPVTG,,T,,M,0.089,N,0.164,K,A*21
$GPGGA,093449.00,2458.21756,N,12111.45913,E,1,10,1.15,137.6,M,16.4,M,,*5F
$GPGSA,A,3,02,05,06,20,13,19,30,12,07,15,,,2.48,1.15,2.20*03
$GPGSV,4,1,14,02,61,019,43,05,46,285,36,06,43,077,33,07,07,077,22*7F
$GPRMC,093451.00,A,2458.21761,N,12111.45910,E,0.109,,080621,,,A*7C
$GPVTG,,T,,M,0.109,N,0.202,K,A*2B
$GPGGA,093451.00,2458.21761,N,12111.45910,E,1,10,1.15,137.8,M,16.4,M,,*5F
$GPGSA,A,3,02,05,06,20,13,19,30,12,07,15,,,2.48,1.15,2.20*03
$GPGSV,4,1,14,02,61,019,44,05,46,285,36,06,43,077,32,07,07,077,20*7B
$GPRMC,093503.00,A,2458.21705,N,12111.45931,E,0.144,,080621,,,A*72
$GPVTG,,T,,M,0.144,N,0.267,K,A*21
$GPGGA,093503.00,2458.21705,N,12111.45931,E,1,10,0.92,140.1,M,16.4,M,,*5F
$GPGSA,A,3,02,05,06,20,13,19,30,12,07,15,,,1.80,0.92,1.55*0B
$GPGSV,4,1,14,02,61,019,43,05,46,285,38,06,43,077,29,07,07,077,13*78
$GPRMC,093504.00,A,2458.21716,N,12111.45935,E,0.048,,080621,,,A*7E
$GPVTG,,T,,M,0.048,N,0.088,K,A*2F
$GPGGA,093504.00,2458.21716,N,12111.45935,E,1,10,0.92,139.6,M,16.4,M,,*57
$GPGSA,A,3,02,05,06,20,13,19,30,12,07,15,,,1.80,0.92,1.55*0B
$GPGSV,4,1,14,02,61,019,44,05,46,285,40,06,43,077,28,07,07,077,13*71
$GPRMC,093508.00,A,2458.21755,N,12111.45951,E,0.018,,080621,,,A*72
$GPVTG,,T,,M,0.018,N,0.033,K,A*2A
$GPGGA,093508.00,2458.21755,N,12111.45951,E,1,09,1.15,137.4,M,16.4,M,,*54
$GPGSA,A,3,02,05,06,20,13,19,30,12,15,,,,2.48,1.15,2.19*0E
$GPGSV,4,1,14,02,61,019,44,05,46,285,38,06,43,077,29,07,07,077,08*75
$GPRMC,093509.00,A,2458.21754,N,12111.45953,E,0.097,,080621,,,A*77
$GPVTG,,T,,M,0.097,N,0.179,K,A*22
$GPGGA,093509.00,2458.21754,N,12111.45953,E,1,09,1.15,137.4,M,16.4,M,,*56
$GPGSA,A,3,02,05,06,20,13,19,30,12,15,,,,2.48,1.15,2.19*0E
$GPGSV,4,1,14,02,61,019,44,05,46,285,38,06,43,077,28,07,07,077,08*74
$GPRMC,093510.00,A,2458.21756,N,12111.45953,E,0.064,,080621,,,A*71
$GPVTG,,T,,M,0.064,N,0.118,K,A*29
$GPRMC,093511.00,A,2458.21756,N,12111.45954,E,0.040,,080621,,,A*71
$GPRMC,093512.00,A,2458.21758,N,12111.45955,E,0.038,,080621,,,A*72
$GPVTG,,T,,M,0.038,N,0.071,K,A*2E
$GPGGA,093512.00,2458.21758,N,12111.45955,E,1,09,1.15,137.3,M,16.4,M,,*51
$GPRMC,093513.00,A,2458.21763,N,12111.45956,E,0.036,,080621,,,A*76
$GPVTG,,T,,M,0.036,N,0.066,K,A*26
$GPGGA,093513.00,2458.21763,N,12111.45956,E,1,09,1.15,137.2,M,16.4,M,,*5A
$GPRMC,093514.00,A,2458.21768,N,12111.45957,E,0.061,,080621,,,A*79
$GPVTG,,T,,M,0.061,N,0.113,K,A*27
$GPGGA,093514.00,2458.21768,N,12111.45957,E,1,10,1.15,137.0,M,16.4,M,,*5D
$GPRMC,093515.00,A,2458.21773,N,12111.45959,E,0.034,,080621,,,A*7C
$GPVTG,,T,,M,0.034,N,0.062,K,A*20
$GPRMC,093516.00,A,2458.21780,N,12111.45961,E,0.030,,080621,,,A*7C
$GPVTG,,T,,M,0.030,N,0.056,K,A*23
$GPRMC,093517.00,A,2458.21793,N,12111.45963,E,0.174,,080621,,,A*7C
$GPRMC,093518.00,A,2458.21797,N,12111.45962,E,0.032,,080621,,,A*75
$GPVTG,,T,,M,0.032,N,0.059,K,A*2E
$GPGGA,093518.00,2458.21797,N,12111.45962,E,1,09,1.15,136.2,M,16.4,M,,*5C
$GPRMC,093519.00,A,2458.21804,N,12111.45962,E,0.128,,080621,,,A*7B
$GPVTG,,T,,M,0.128,N,0.237,K,A*2E
$GPGGA,093519.00,2458.21804,N,12111.45962,E,1,09,1.15,136.1,M,16.4,M,,*5B
$GPRMC,093520.00,A,2458.21806,N,12111.45959,E,0.021,,080621,,,A*73
$GPVTG,,T,,M,0.021,N,0.040,K,A*24
$GPGGA,093520.00,2458.21806,N,12111.45959,E,1,10,1.15,136.0,M,16.4,M,,*52
$GPGSA,A,3,02,05,06,20,13,19,30,12,07,15,,,2.48,1.15,2.19*09
$GPRMC,093521.00,A,2458.21809,N,12111.45955,E,0.038,,080621,,,A*79
$GPVTG,,T,,M,0.038,N,0.070,K,A*2F
$GPGGA,093521.00,2458.21809,N,12111.45955,E,1,10,1.15,135.8,M,16.4,M,,*5B
$GPRMC,093522.00,A,2458.21819,N,12111.45952,E,0.053,,080621,,,A*71
$GPVTG,,T,,M,0.053,N,0.099,K,A*25
$GPRMC,093523.00,A,2458.21826,N,12111.45944,E,0.023,,080621,,,A*7C
$GPVTG,,T,,M,0.023,N,0.043,K,A*25
$GPRMC,093524.00,A,2458.21831,N,12111.45934,E,0.022,,080621,,,A*7B
$GPVTG,,T,,M,0.022,N,0.041,K,A*26
$GPGGA,093524.00,2458.21831,N,12111.45934,E,1,10,1.15,135.8,M,16.4,M,,*52
$GPGSA,A,3,02,05,06,20,13,19,30,12,07,15,,,2.48,1.15,2.19*09
$GPRMC,093605.00,A,2458.22030,N,12111.46064,E,0.104,,080621,,,A*7B
$GPVTG,,T,,M,0.104,N,0.193,K,A*2D
$GPGGA,093605.00,2458.22030,N,12111.46064,E,1,10,1.15,138.4,M,16.4,M,,*56
$GPGSA,A,3,02,05,06,20,13,19,30,12,07,15,,,2.47,1.15,2.19*06
$GPGSV,4,1,14,02,61,020,42,05,46,285,30,06,42,078,34,07,07,076,19*72
$GPGSV,4,2,14,09,09,038,,12,18,248,27,13,38,184,31,15,14,210,21*77
$GPGSV,4,3,14,17,05,151,08,19,26,153,23,20,39,284,41,25,09,281,*79
$GPGSV,4,4,14,29,09,323,13,30,13,113,26*78
$GPGLL,2458.22030,N,12111.46064,E,093605.00,A,A*6A
$GPRMC,093606.00,A,2458.22020,N,12111.46075,E,0.118,,080621,,,A*74
$GPVTG,,T,,M,0.118,N,0.218,K,A*20
$GPGGA,093606.00,2458.22020,N,12111.46075,E,1,10,1.15,138.5,M,1
$GPGSA,A,3,02,05,06,20,13,19,30,12,07,15,,,2.47,1.15,2.19*06
$GPGSV,4,1,14,02,61,020,42,05,46,285,30,06,42,078,34,07,07,076,18*73
$GPGSV,4,3,14,17,05,151,08,19,26,153,24,20,39,284,41,25,09,281,*7E
$GPGSV,4,4,14,29,09,323,12,30,13,113,27*78
$GPGLL,2458.22020,N,12111.46075,E,093606.00,A,A*68
$GPRMC,093607.00,A,2458.22012,N,12111.46077,E,0.051,,080621,,,A*7A
$GPVTG,,T,,M,0.051,N,0.095,K,A*2B
$GPGGA,093607.00,2458.22012,N,12111.46077,E,1,10,1.15,138.9,M,16.4,M,,*5B
$GPGSA,A,3,02,05,06,20,13,19,30,12,07,15,,,2.47,1.15,2.19*06
$GPGSV,4,1,14,02,61,020,41,05,46,285,31,06,42,078,31,07,07,076,16*7A
$GPGSV,4,2,14,09,09,038,,12,18,248,25,13,38,184,31,15,14,210,22*76
$GPGSV,4,3,14,17,05,151,08,19,26,153,25,20,39,284,40,25,09,281,*7E
$GPGSV,4,4,14,29,09,323,12,30,13,113,26*79
$GPGLL,2458.22012,N,12111.46077,E,093607.00,A,A*6A
$GPRMC,093608.00,A,2458.22003,N,12111.46082,E,0.089,,080621,,,A*7A
$GPVTG,,T,,M,0.089,N,0.164,K,A*21
$GPGGA,093608.00,2458.22003,N,12111.46082,E,1,10,1.15,139.2,M,16.4,M,,*54
$GPGSA,A,3,02,05,06,20,13,19,30,12,07,15,,,2.47,1.15,2.19*06
$GPGSV,4,1,14,02,61,020,42,05,46,285,31,06,42,078,33,07,07,076,18*75
$GPGSV,4,2,14,09,09,038,,12,18,248,26,13,38,184,29,15,14,210,22*7C
$GPGSV,4,3,14,17,05,151,08,19,26,153,24,20,39,284,40,25,09,281,*7F
$GPGSV,4,4,14,29,09,323,12,30,13,113,28*77
$GPGLL,2458.22003,N,12111.46082,E,093608.00,A,A*6F
$GPRMC,093609.00,A,2458.21988,N,12111.46086,E,0.053,,080621,,,A*71
$GPVTG,,T,,M,0.053,N,0.098,K,A*24
$GPGGA,093609.00,2458.21988,N,12111.46086,E,1,10,1.15,139.7,M,16.4,M,,*5D
$GPGSA,A,3,02,05,06,20,13,19,30,12,07,15,,,2.47,1.15,2.19*06
$GPGSV,4,1,14,02,61,020,41,05,46,285,30,06,42,078,33,07,07,076,21*7D
$GPGSV,4,2,14,09,09,038,,12,18,248,26,13,38,184,30,15,14,210,24*72
$GPGSV,4,3,14,17,05,151,08,19,26,153,25,20,39,284,40,25,09,281,*7E
$GPGSV,4,4,14,29,09,323,12,30,13,113,27*78
$GPRMC,093610.00,A,2458.21972,N,12111.46084,E,0.050,,080621,,,A*7D
$GPVTG,,T,,M,0.050,N,0.093,K,A*2C
$GPRMC,093612.00,A,2458.21940,N,12111.46080,E,0.047,,080621,,,A*7C
$GPVTG,,T,,M,0.047,N,0.086,K,A*2E
$GPGGA,093612.00,2458.21940,N,12111.46080,E,1,10,1.15,141.7,M,16.4,M,,*5A
$GPGSA,A,3,02,05,06,20,13,19,30,12,07,15,,,2.47,1.15,2.19*06
$GPGSV,4,1,14,02,61,020,42,05,46,285,32,06,42,078,34,07,07,076,21*7B
$GPGSV,4,2,14,09,09,038,,12,18,248,28,13,38,184,29,15,14,210,19*7A
$GPGSV,4,3,14,17,05,151,,19,26,153,25,20,39,284,40,25,09,281,*76
$GPRMC,093613.00,A,2458.21919,N,12111.46076,E,0.061,,080621,,,A*7C
$GPVTG,,T,,M,0.061,N,0.113,K,A*27
$GPRMC,093614.00,A,2458.21900,N,12111.46072,E,0.049,,080621,,,A*7D
$GPVTG,,T,,M,0.049,N,0.090,K,A*27
$GPGGA,093614.00,2458.21900,N,12111.46072,E,1,10,1.15,143.4,M,16.4,M,,*54
$GPRMC,093615.00,A,2458.21874,N,12111.46067,E,0.172,,080621,,,A*73
$GPRMC,093616.00,A,2458.21856,N,12111.46059,E,0.061,,080621,,,A*7E
$GPVTG,,T,,M,0.061,N,0.113,K,A*27
$GPGGA,093616.00,2458.21856,N,12111.46059,E,1,10,1.15,145.0,M,16.4,M,,*5F
$GPGSA,A,3,02,05,06,20,13,19,30,12,07,15,,,2.47,1.15,2.19*06
$GPGSV,4,1,14,02,61,020,43,05,46,285,33,06,42,078,35,07,07,076,23*78
$GPRMC,093617.00,A,2458.21849,N,12111.46050,E,0.061,,080621,,,A*78
$GPRMC,093618.00,A,2458.21845,N,12111.46044,E,0.059,,080621,,,A*75
$GPVTG,,T,,M,0.059,N,0.109,K,A*27
$GPGGA,093618.00,2458.21845,N,12111.46044,E,1,10,1.15,145.5,M,16.4,M,,*5A
$GPGSA,A,3,02,05,06,20,13,19,30,12,07,15,,,2.47,1.15,2.19*06
$GPRMC,093619.00,A,2458.21831,N,12111.46036,E,0.176,,080621,,,A*7E
$GPRMC,093620.00,A,2458.21815,N,12111.46033,E,0.063,,080621,,,A*72
$GPVTG,,T,,M,0.063,N,0.117,K,A*21
$GPGGA,093620.00,2458.21815,N,12111.46033,E,1,10,1.15,146.0,M,16.4,M,,*52
$GPGSA,A,3,02,05,06,20,13,19,30,12,07,15,,,2.47,1.15,2.19*06
$GPRMC,093621.00,A,2458.21789,N,12111.46031,E,0.239,,080621,,,A*76
$GPVTG,,T,,M,0.239,N,0.442,K,A*29
$GPGGA,093621.00,2458.21789,N,12111.46031,E,1,10,1.15,146.1,M,16.4,M,,*5A
$GPRMC,093622.00,A,2458.21772,N,12111.46030,E,0.256,,080621,,,A*79
$GPVTG,,T,,M,0.256,N,0.474,K,A*25
$GPGGA,093622.00,2458.21772,N,12111.46030,E,1,10,1.15,146.1,M,16.4,M,,*5C
$GPGSA,A,3,02,05,06,20,13,19,30,12,07,15,,,2.47,1.15,2.19*06
$GPRMC,093623.00,A,2458.21741,N,12111.46030,E,0.630,,080621,,,A*7C
$GPVTG,,T,,M,0.630,N,1.166,K,A*26
$GPRMC,093624.00,A,2458.21723,N,12111.46025,E,0.075,,080621,,,A*7C
$GPVTG,,T,,M,0.075,N,0.139,K,A*2A
$GPGGA,093624.00,2458.21723,N,12111.46025,E,1,10,1.15,146.6,M,16.4,M,,*5D
$GPGSA,A,3,02,05,06,20,13,19,30,12,07,15,,,2.47,1.15,2.19*06
$GPRMC,093625.00,A,2458.21703,N,12111.46021,E,0.430,,080621,,,A*7E
$GPVTG,,T,,M,0.430,N,0.796,K,A*2C
$GPGGA,093625.00,2458.21703,N,12111.46021,E,1,10,1.15,146.9,M,16.4,M,,*55
$GPRMC,093626.00,A,2458.21667,N,12111.46018,E,0.426,,080621,,,A*73
$GPVTG,,T,,M,0.426,N,0.789,K,A*25
$GPGGA,093626.00,2458.21667,N,12111.46018,E,1,10,1.27,147.3,M,16.4,M,,*55
$GPGSA,A,3,02,05,06,20,13,19,30,12,07,15,,,2.59,1.27,2.26*04
$GPRMC,093628.00,A,2458.21645,N,12111.46011,E,0.060,,080621,,,A*72
$GPVTG,,T,,M,0.060,N,0.111,K,A*24
$GPGGA,093628.00,2458.21645,N,12111.46011,E,1,10,1.15,147.1,M,16.4,M,,*51
$GPRMC,093630.00,A,2458.21665,N,12111.46017,E,0.024,,080621,,,A*7F
$GPVTG,,T,,M,0.024,N,0.044,K,A*25
$GPGGA,093630.00,2458.21665,N,12111.46017,E,1,10,2.80,145.3,M,16.4,M,,*53
$GPRMC,093631.00,A,2458.21640,N,12111.46023,E,0.007,,080621,,,A*7F
$GPVTG,,T,,M,0.007,N,0.012,K,A*27
$GPRMC,093632.00,A,2458.21637,N,12111.46025,E,0.037,,080621,,,A*79
$GPVTG,,T,,M,0.037,N,0.068,K,A*29
$GPGGA,093632.00,2458.21637,N,12111.46025,E,1,10,1.27,144.5,M,16.4,M,,*5E
$GPRMC,093633.00,A,2458.21629,N,12111.46027,E,0.032,,080621,,,A*70
$GPRMC,093634.00,A,2458.21622,N,12111.46030,E,0.039,,080621,,,A*71
$GPVTG,,T,,M,0.039,N,0.072,K,A*2C
$GPRMC,093635.00,A,2458.21623,N,12111.46032,E,0.049,,080621,,,A*74
$GPVTG,,T,,M,0.049,N,0.092,K,A*25
$GPRMC,093636.00,A,2458.21623,N,12111.46033,E,0.054,,080621,,,A*7A
$GPVTG,,T,,M,0.054,N,0.100,K,A*23
$GPRMC,093637.00,A,2458.21633,N,12111.46035,E,0.062,,080621,,,A*79
$GPVTG,,T,,M,0.062,N,0.114,K,A*23
$GPGGA,093637.00,2458.21633,N,12111.46035,E,1,09,1.27,142.8,M,16.4,M,,*5D
$GPGSV,4,2,14,09,08,038,,12,18,248,28,13,38,184,28,15,14,210,33*72
$GPGSV,4,3,14,17,05,151,,19,26,153,07,20,39,284,37,25,09,281,07*71
$GPGSV,4,4,14,29,09,323,14,30,13,113,31*79
$GPGLL,2458.21721,N,12111.46023,E,093641.00,A,A*6D
$GPRMC,093642.00,A,2458.21750,N,12111.46018,E,0.049,,080621,,,A*79
$GPVTG,,T,,M,0.049,N,0.091,K,A*26
$GPGGA,093642.00,2458.21750,N,12111.46018,E,1,10,1.15,139.7,M,16.4,M,,*5E
$GPGSA,A,3,02,05,06,20,13,19,30,12,07,15,,,2.47,1.15,2.19*06
$GPGSV,4,1,14,02,61,021,43,05,47,286,31,06,42,079,35,07,07,076,15*7D
$GPGSV,4,2,14,09,08,038,,12,18,247,28,13,38,184,28,15,14,210,34*7A
$GPGSV,4,3,14,17,05,151,,19,26,153,07,20,39,284,37,25,09,281,07*71
$GPGSV,4,4,14,29,09,323,14,30,13,113,30*78
$GPGLL,2458.21750,N,12111.46018,E,093642.00,A,A*60
$GPRMC,093643.00,A,2458.21769,N,12111.46015,E,0.005,,080621,,,A*77
$GPVTG,,T,,M,0.005,N,0.008,K,A*2E
$GPGGA,093643.00,2458.21769,N,12111.46015,E,1,10,1.15,139.3,M,16.4,M,,*5C
$GPGSA,A,3,02,05,06,20,13,19,30,12,07,15,,,2.47,1.15,2.19*06
$GPGSV,4,1,14,02,61,021,43,05,47,286,31,06,42,079,34,07,07,076,13*7A
$GPGSV,4,2,14,09,08,038,,12,18,247,28,13,39,184,27,15,14,210,34*74
$GPGSV,4,3,14,17,05,151,,19,26,153,07,20,39,284,37,25,09,281,07*71
$GPGSV,4,4,14,29,09,323,15,30,13,113,30*79
$GPGLL,2458.21769,N,12111.46015,E,093643.00,A,A*66
$GPRMC,093644.00,A,2458.21804,N,12111.46012,E,0.004,,080621,,,A*72
$GPVTG,,T,,M,0.004,N,0.008,K,A*2F
$GPGGA,093644.00,2458.21804,N,12111.46012,E,1,10,1.15,138.6,M,16.4,M,,*5C
$GPGSA,A,3,02,05,06,20,13,19,30,12,07,15,,,2.47,1.15,2.18*07
$GPGSV,4,1,14,02,61,021,43,05,47,286,31,06,42,079,34,07,07,076,12*7B
$GPGSV,4,2,14,09,08,038,,12,18,247,28,13,39,184,27,15,14,210,34*74
$GPGSV,4,3,14,17,05,151,,19,26,153,07,20,39,284,37,25,09,281,07*71
$GPGSV,4,4,14,29,09,323,16,30,13,113,31*7B
$GPGLL,2458.21804,N,12111.46012,E,093644.00,A,A*62
$GPRMC,093645.00,A,2458.21841,N,12111.46009,E,0.031,,080621,,,A*7E
$GPVTG,,T,,M,0.031,N,0.058,K,A*2C
$GPGGA,093645.00,2458.21841,N,12111.46009,E,1,10,1.15,137.8,M,16.4,M,,*57
$GPGSA,A,3,02,05,06,20,13,19,30,12,07,15,,,2.47,1.15,2.18*07
$GPGSV,4,1,14,02,61,021,43,05,47,286,31,06,42,079,33,07,07,076,16*78
$GPGSV,4,2,14,09,08,038,,12,18,247,28,13,39,184,27,15,14,210,34*74
$GPGSV,4,3,14,17,05,151,,19,26,153,07,20,39,284,37,25,09,281,07*71
$GPGSV,4,4,14,29,09,323,16,30,13,113,32*78
$GPGLL,2458.21841,N,12111.46009,E,093645.00,A,A*68
$GPRMC,093646.00,A,2458.21876,N,12111.46006,E,0.053,,080621,,,A*72
$GPVTG,,T,,M,0.053,N,0.098,K,A*24
$GPGSA,A,3,02,05,06,20,13,19,30,12,07,15,,,2.47,1.15,2.18*07
$GPGSV,4,2,14,09,08,038,,12,18,247,28,13,39,184,26,15,14,210,34*75
$GPGSV,4,3,14,17,05,151,,19,26,153,07,20,39,284,38,25,09,281,07*7E
$GPGSV,4,4,14,29,09,323,15,30,13,113,32*7B
$GPGLL,2458.21876,N,12111.46006,E,093646.00,A,A*60
$GPVTG,,T,,M,0.141,N,0.261,K,A*22
$GPGGA,093647.00,2458.21919,N,12111.46003,E,1,10,1.15,135.7,M,16.4,M,,*5E
$GPGSA,A,3,02,05,06,20,13,19,30,12,07,15,,,2.47,1.15,2.18*07
$GPGSV,4,1,14,02,61,021,43,05,47,286,30,06,42,079,32,07,07,076,18*76
$GPGSV,4,2,14,09,08,038,,12,18,247,29,13,39,184,26,15,14,210,34*74
$GPGSV,4,3,14,17,04,151,,19,26,153,14,20,39,284,37,25,09,281,10*74
$GPGSV,4,4,14,29,09,323,15,30,13,113,33*7A
$GPGLL,2458.21919,N,12111.46003,E,093647.00,A,A*6C
$GPRMC,093648.00,A,2458.21941,N,12111.46002,E,0.044,,080621,,,A*7B
$GPVTG,,T,,M,0.044,N,0.082,K,A*29
$GPGGA,093648.00,2458.21941,N,12111.46002,E,1,10,1.27,135.1,M,16.4,M,,*5A
$GPGSA,A,3,02,05,06,20,13,19,30,12,07,15,,,2.59,1.27,2.25*07
$GPGSV,4,1,14,02,61,021,43,05,47,286,30,06,42,079,31,07,07,076,18*75
$GPGSV,4,2,14,09,08,038,,12,18,247,29,13,39,184,25,15,14,210,34*77
$GPGSV,4,3,14,17,04,151,,19,26,153,14,20,39,284,37,25,09,281,10*74
$GPGSV,4,4,14,29,09,323,15,30,13,113,32*7B
$GPGLL,2458.21941,N,12111.46002,E,093648.00,A,A*6F
$GPRMC,093649.00,A,2458.21967,N,12111.46001,E,0.039,,080621,,,A*77
$GPVTG,,T,,M,0.039,N,0.072,K,A*2C
$GPGGA,093649.00,2458.21967,N,12111.46001,E,1,10,1.15,134.3,M,16.4,M,,*5E
$GPGSA,A,3,02,05,06,20,13,19,30,12,07,15,,,2.47,1.15,2.18*07
$GPGSV,4,1,14,02,61,021,42,05,47,286,31,06,42,079,31,07,07,076,15*78
$GPGSV,4,3,14,17,04,151,,19,26,153,17,20,39,284,37,25,09,281,10*77
$GPGLL,2458.21967,N,12111.46001,E,093649.00,A,A*69
$GPVTG,,T,,M,0.041,N,0.076,K,A*27
$GPGGA,093650.00,2458.21984,N,12111.46000,E,1,10,1.15,133.8,M,16.4,M,,*56
$GPGSA,A,3,02,05,06,20,13,19,30,12,07,15,,,2.47,1.15,2.18*07
$GPGSV,4,1,14,02,61,021,43,05,47,286,30,06,42,079,30,07,07,076,14*78
$GPGSV,4,2,14,09,08,038,,12,18,247,29,13,39,184,23,15,14,210,35*70
$GPGSV,4,3,14,17,04,151,,19,26,153,23,20,39,285,37,25,09,281,10*71
$GPGSV,4,4,14,29,09,323,15,30,13,113,32*7B
$GPGLL,2458.21984,N,12111.46000,E,093650.00,A,A*6D
$GPRMC,093651.00,A,2458.21987,N,12111.45999,E,0.043,,080621,,,A*76
$GPVTG,,T,,M,0.043,N,0.080,K,A*2C
$GPGGA,093651.00,2458.21987,N,12111.45999,E,1,10,1.15,133.8,M,16.4,M,,*5E
$GPGSA,A,3,02,05,06,20,13,19,30,12,07,15,,,2.47,1.15,2.18*07
$GPGSV,4,1,14,02,61,021,43,05,47,286,30,06,42,079,30,07,07,076,13*7F
$GPGSV,4,2,14,09,08,038,,12,18,247,30,13,39,184,22,15,14,210,35*79
$GPGSV,4,3,14,17,04,151,,19,26,153,26,20,39,285,38,25,09,281,10*7B
$GPGSV,4,4,14,29,09,323,14,30,13,113,32*7A
$GPGLL,2458.21987,N,12111.45999,E,093651.00,A,A*65
$GPRMC,093652.00,A,2458.21980,N,12111.45998,E,0.011,,080621,,,A*74
$GPVTG,,T,,M,0.011,N,0.020,K,A*21
$GPGGA,093652.00,2458.21980,N,12111.45998,E,1,10,1.63,134.1,M,16.4,M,,*54
$GPGSA,A,3,02,05,06,20,13,19,30,12,07,15,,,3.47,1.63,3.06*09
$GPGSV,4,1,14,02,61,021,43,05,47,286,29,06,42,079,31,07,07,076,13*76
$GPGSV,4,2,14,09,08,038,,12,18,247,31,13,39,184,22,15,14,210,35*78
$GPGSV,4,3,14,17,04,151,,19,26,153,27,20,39,285,38,25,09,281,10*7A
$GPGSV,4,4,14,29,09,323,15,30,13,113,31*78
$GPGLL,2458.21980,N,12111.45998,E,093652.00,A,A*60
$GPRMC,093653.00,A,2458.21970,N,12111.45998,E,0.006,,080621,,,A*7C
$GPVTG,,T,,M,0.006,N,0.012,K,A*26
$GPGGA,093653.00,2458.21970,N,12111.45998,E,1,10,1.63,134.5,M,16.4,M,,*5E
$GPGSA,A,3,02,05,06,20,13,19,30,12,07,15,,,3.47,1.63,3.06*09
$GPGSV,4,1,14,02,61,021,42,05,47,286,29,06,42,079,31,07,07,076,14*70
$GPGSV,4,2,14,09,08,038,,12,18,247,31,13,39,184,23,15,14,210,35*79
$GPGSV,4,3,14,17,04,151,,19,26,153,27,20,39,285,37,25,09,281,08*7C
$GPGSV,4,4,14,29,09,323,16,30,13,113,31*7B
$GPGLL,2458.21970,N,12111.45998,E,093653.00,A,A*6E
$GPRMC,093654.00,A,2458.21975,N,12111.45997,E,0.055,,080621,,,A*77
$GPGGA,093654.00,2458.21975,N,12111.45997,E,1,10,1.15,134.5,M,16.4,M,,*52
$GPGSA,A,3,02,05,06,20,13,19,30,12,07,15,,,2.47,1.15,2.18*07
$GPGSV,4,1,14,02,61,021,42,05,47,286,28,06,42,079,32,07,07,0PGSV,4,2,14,09,08,038,,12,18,247,31,13,39,184,25,15,14,210,34*7E
$GPGSV,4,4,14,29,09,323,16,30,13,113,30*7A
$GPGLL,2458.21975,N,12111.45997,E,093654.00,A,A*63
$GPRMC,093655.00,A,2458.21972,N,12111.45995,E,0.047,,080621,,,A*70
$GPVTG,,T,,M,0.047,N,0.087,K,A*2F
$GPGGA,093655.00,2458.21972,N,12111.45995,E,1,10,1.15,134.5,M,16.4,M,,*56
$GPGSA,A,3,02,05,06,20,13,19,30,12,07,15,,,2.47,1.15,2.18*07
$GPGSV,4,1,14,02,61,021,42,05,47,286,28,06,42,079,33,07,07,076,17*70
$GPGSV,4,2,14,09,08,038,,12,18,247,30,13,39,184,26,15,14,210,37*7F
$GPGSV,4,3,14,17,04,151,,19,26,153,26,20,39,285,37,25,08,281,*74
$GPGSV,4,4,14,29,09,323,15,30,13,113,29*71
$GPGLL,2458.21972,N,12111.45995,E,093655.00,A,A*67
$GPRMC,093656.00,A,2458.21989,N,12111.45993,E,0.034,,080621,,,A*75
$GPVTG,,T,,M,0.034,N,0.063,K,A*21
$GPGGA,093656.00,2458.21989,N,12111.45993,E,1,10,1.15,134.1,M,16.4,M,,*53
$GPGSA,A,3,02,05,06,20,13,19,30,12,07,15,,,2.47,1.15,2.18*07
$GPGSV,4,1,14,02,61,021,42,05,47,286,32,06,42,079,31,07,07,076,19*77
$GPGSV,4,2,14,09,08,038,,12,18,247,32,13,39,184,28,15,14,210,34*70
$GPGSV,4,3,14,17,04,151,,19,26,153,27,20,39,285,37,25,08,281,*75
$GPGSV,4,4,14,29,09,323,15,30,13,113,28*70
$GPGLL,2458.21989,N,12111.45993,E,093656.00,A,A*66
$GPVTG,,T,,M,0.059,N,0.110,K,A*2F
$GPGGA,093657.00,2458.22004,N,12111.45990,E,1,10,1.15,133.7,M,16.4,M,,*5F
$GPGSA,A,3,02,05,06,20,13,19,30,12,07,15,,,2$GPGSV,4,1,14,02,61,021,42,05,47,286,32,06,42,079,31,07,07,076,17*79
$GPGSV,4,3,14,17,04,151,,19,26,153,27,20,39,285,38,25,08,281,*7A
$GPGSV,4,4,14,29,09,323,14,30,13,113,28*71
$GPGLL,2458.22004,N,12111.45990,E,093657.00,A,A*6B
$GPRMC,093658.00,A,2458.22015,N,12111.45985,E,0.100,,080621,,,A*75
$GPVTG,,T,,M,0.100,N,0.185,K,A*2E
$GPGGA,093658.00,2458.22015,N,12111.45985,E,1,10,1.15,133.5,M,16.4,M,,*56
$GPGSA,A,3,02,05,06,20,13,19,30,12,07,15,,,2.47,1.15,2.18*07
$GPGSV,4,1,14,02,61,021,42,05,47,286,33,06,42,079,31,07,07,076,15*7A
$GPGSV,4,2,14,09,08,038,,12,18,247,31,13,39,184,29,15,14,210,33*75
$GPGSV,4,3,14,17,04,151,,19,26,153,27,20,39,285,38,25,08,281,*7A
$GPGSV,4,4,14,29,09,323,14,30,13,113,27*7E
$GPGLL,2458.22015,N,12111.45985,E,093658.00,A,A*60
$GPRMC,093659.00,A,2458.22018,N,12111.45980,E,0.015,,080621,,,A*79
$GPVTG,,T,,M,0.015,N,0.027,K,A*22
$GPGGA,093659.00,2458.22018,N,12111.45980,E,1,10,1.15,133.6,M,16.4,M,,*5C
$GPGSA,A,3,02,05,06,20,13,19,30,12,07,15,,,2.47,1.15,2.18*07
$GPGSV,4,1,14,02,61,021,43,05,47,286,33,06,42,079,31,07,07,076,11*7F
$GPGSV,4,2,14,09,08,038,,12,18,247,31,13,39,184,29,15,14,210,34*72
$GPGSV,4,3,14,17,04,151,,19,26,153,27,20,39,285,38,25,08,281,*7A
$GPGSV,4,4,14,29,09,323,14,30,13,113,28*71
$GPGLL,2458.22018,N,12111.45980,E,093659.00,A,A*69
$GPRMC,093700.00,A,2458.22021,N,12111.45981,E,0.145,,080621,,,A*7B
$GPVTG,,T,,M,0.145,N,0.268,K,A*2F
$GPGGA,093700.00,2458.22021,N,12111.45981,E,1,10,1.15,133.5,M,16.4,M,,*59
$GPGSA,A,3,02,05,06,20,13,19,30,12,07,15,,,2.47,1.15,2.18*07
$GPGSV,4,1,14,02,61,021,43,05,47,286,34,06,42,079,31,07,07,076,10*79
$GPGSV,4,2,14,09,08,038,,12,18,247,31,13,39,184,30,15,14,210,34*7A
$GPGSV,4,3,14,17,04,151,,19,26,153,27,20,39,285,37,25,08,281,*75
$GPGSV,4,4,14,29,09,323,14,30,13,112,29*71
$GPGLL,2458.22021,N,12111.45981,E,093700.00,A,A*6F
$GPRMC,093704.00,A,2458.22045,N,12111.45977,E,0.054,,080621,,,A*75
$GPVTG,,T,,M,0.054,N,0.099,K,A*22
$GPGGA,093704.00,2458.22045,N,12111.45977,E,1,10,1.15,132.6,M,16.4,M,,*54
$GPGSA,A,3,02,05,06,20,13,19,30,12,07,15,,,2.47,1.15,2.18*07
$GPGSV,4,1,14,02,61,021,43,05,47,286,34,06,42,079,30,07,07,076,17*7F
$GPGSV,4,2,14,09,08,038,,12,18,247,30,13,39,184,29,15,14,210,34*73
$GPGSV,4,3,14,17,04,151,,19,26,153,28,20,39,285,37,25,08,281,*7A
$GPGSV,4,4,14,29,09,323,15,30,13,112,28*71
$GPGLL,2458.22045,N,12111.45977,E,093704.00,A,A*60
$GPRMC,093705.00,A,2458.22051,N,12111.45975,E,0.033,,080621,,,A*72
$GPVTG,,T,,M,0.033,N,0.061,K,A*24
$GPGGA,093705.00,2458.22051,N,12111.45975,E,1,10,1.15,132.4,M,16.4,M,,*50
$GPGSA,A,3,02,05,06,20,13,19,30,12,07,15,,,2.47,1.15,2.18*07
$GPGSV,4,1,14,02,61,021,43,05,47,286,34,06,42,079,30,07,07,076,20*7B
$GPGSV,4,2,14,09,08,038,,12,18,247,29,13,39,184,29,15,14,210,34*7B
$GPGSV,4,3,14,17,04,151,,19,26,153,28,20,39,285,37,25,08,281,*7A
$GPGSV,4,4,14,29,09,323,13,30,13,112,27*78
$GPGLL,2458.22051,N,12111.45975,E,093705.00,A,A*66
$GPRMC,093706.00,A,2458.22056,N,12111.45972,E,0.043,,080621,,,A*76
$GPVTG,,T,,M,0.043,N,0.080,K,A*2C
$GPGGA,093706.00,2458.22056,N,12111.45972,E,1,10,1.15,132.2,M,16.4,M,,*55
$GPGSA,A,3,02,05,06,20,13,19,30,12,07,15,,,2.47,1.15,2.18*07
$GPGSV,4,1,14,02,61,021,42,05,47,286,34,06,42,079,30,07,07,076,21*7B
$GPGSV,4,2,14,09,08,038,,12,18,247,29,13,39,184,28,15,14,210,34*7A
$GPGSV,4,3,14,17,04,151,,19,26,153,27,20,39,285,37,25,08,281,24*73
$GPGSV,4,4,14,29,09,323,11,30,13,112,27*7A
$GPGLL,2458.22056,N,12111.45972,E,093706.00,A,A*65
$GPRMC,093707.00,A,2458.22058,N,12111.45970,E,0.069,,080621,,,A*73
$GPVTG,,T,,M,0.069,N,0.129,K,A*26
$GPGGA,093707.00,2458.22058,N,12111.45970,E,1,10,1.15,132.1,M,16.4,M,,*5B
$GPGSA,A,3,02,05,06,20,13,19,30,12,07,15,,,2.47,1.15,2.18*07
$GPGSV,4,1,14,02,61,021,43,05,47,286,36,06,42,079,31,07,07,076,21*79
$GPGSV,4,2,14,09,08,038,,12,18,247,29,13,39,184,27,15,14,210,34*75
$GPGSV,4,3,14,17,04,151,,19,26,153,27,20,39,285,37,25,08,281,22*75
$GPGSV,4,4,14,29,09,323,09,30,13,112,27*73
$GPGLL,2458.22058,N,12111.45970,E,093707.00,A,A*68
$GPRMC,093708.00,A,2458.22061,N,12111.45968,E,0.043,,080621,,,A*77
$GPVTG,,T,,M,0.043,N,0.080,K,A*2C
$GPGGA,093708.00,2458.22061,N,12111.45968,E,1,10,1.15,132.1,M,16.4,M,,*57
$GPGSA,A,3,02,05,06,20,13,19,30,12,07,15,,,2.47,1.15,2.18*07
$GPGSV,4,1,14,02,61,021,43,05,47,286,35,06,42,079,30,07,07,076,21*7B
$GPGSV,4,2,14,09,08,038,,12,18,247,29,13,39,184,27,15,14,210,33*72
$GPGSV,4,3,14,17,04,151,,19,26,153,28,20,39,285,37,25,08,281,21*79
$GPGSV,4,4,14,29,09,323,10,30,13,112,26*7A
$GPGLL,2458.22061,N,12111.45968,E,093708.00,A,A*64
$GPRMC,093709.00,A,2458.22046,N,12111.45960,E,0.050,,080621,,,A*79
$GPVTG,,T,,M,0.050,N,0.092,K,A*2D
$GPGGA,093709.00,2458.22046,N,12111.45960,E,1,10,0.92,132.8,M,16.4,M,,*5C
$GPGSA,A,3,02,05,06,20,13,19,30,12,07,15,,,1.80,0.92,1.54*0A
$GPGSV,4,1,14,02,61,021,43,05,47,286,35,06,42,079,30,07,07,076,22*78
$GPGSV,4,2,14,09,08,038,,12,18,247,29,13,39,184,26,15,14,210,34*74
$GPGSV,4,3,14,17,04,151,,19,26,153,28,20,39,285,38,25,08,281,20*77
$GPGSV,4,4,14,29,09,323,11,30,13,112,25*78
$GPGLL,2458.22046,N,12111.45960,E,093709.00,A,A*68
$GPRMC,093710.00,A,2458.22036,N,12111.45959,E,0.082,,080621,,,A*73
$GPVTG,,T,,M,0.082,N,0.152,K,A*2F
$GPGGA,093710.00,2458.22036,N,12111.45959,E,1,10,0.94,133.2,M,16.4,M,,*54
$GPGSA,A,3,02,05,06,20,13,19,30,12,07,15,,,1.85,0.94,1.59*04
$GPGSV,4,1,14,02,61,021,43,05,47,286,35,06,42,079,29,07,07,076,23*71
$GPGSV,4,2,14,09,08,038,,12,18,247,29,13,39,184,26,15,14,210,34*74
$GPGSV,4,3,14,17,04,151,,19,26,153,28,20,39,285,38,25,08,281,20*77
$GPGSV,4,4,14,29,09,323,11,30,13,112,25*78
$GPGLL,2458.22036,N,12111.45959,E,093710.00,A,A*6D
$GPRMC,093711.00,A,2458.22023,N,12111.45952,E,0.100,,080621,,,A*76
$GPVTG,,T,,M,0.100,N,0.185,K,A*2E
$GPGGA,093711.00,2458.22023,N,12111.45952,E,1,10,0.92,133.9,M,16.4,M,,*57
$GPGSA,A,3,02,05,06,20,13,19,30,12,07,15,,,1.80,0.92,1.54*0A
$GPGSV,4,1,14,02,61,021,43,05,47,286,34,06,42,079,29,07,07,076,24*77
$GPGSV,4,2,14,09,08,038,,12,18,247,29,13,39,184,26,15,14,210,33*73
$GPGSV,4,3,14,17,04,151,,19,26,153,29,20,39,285,38,25,08,281,19*7C
$GPGSV,4,4,14,29,09,323,11,30,13,112,25*78
$GPGLL,2458.22023,N,12111.45952,E,093711.00,A,A*63
$GPRMC,093712.00,A,2458.21993,N,12111.45940,E,0.111,,080621,,,A*77
$GPRMC,093723.00,A,2458.21877,N,12111.45883,E,0.146,,080621,,,A*72
$GPVTG,,T,,M,0.146,N,0.270,K,A*25
$GPGGA,093723.00,2458.21877,N,12111.45883,E,1,10,0.92,142.5,M,16.4,M,,*5B
$GPGSA,A,3,02,05,06,20,13,19,30,12,07,15,,,1.80,0.92,1.54*0A
$GPGSV,4,1,14,02,61,021,42,05,47,286,34,06,42,079,29,07,07,076,27*75
$GPGSV,4,2,14,09,08,038,,12,18,247,17,13,39,184,31,15,14,210,33*78
$GPGSV,4,3,14,17,04,151,15,19,26,153,27,20,39,285,37,25,08,281,*71
$GPGSV,4,4,14,29,09,323,,30,13,112,24*79
$GPGLL,2458.21877,N,12111.45883,E,093723.00,A,A*65
$GPRMC,093724.00,A,2458.21841,N,12111.45865,E,0.102,,080621,,,A*78
$GPVTG,,T,,M,0.102,N,0.189,K,A*20
$GPGGA,093724.00,2458.21841,N,12111.45865,E,1,10,0.92,144.2,M,16.4,M,,*50
$GPGSA,A,3,02,05,06,20,13,19,30,12,07,15,,,1.79,0.92,1.54*0C
$GPGSV,4,1,14,02,61,021,42,05,47,286,35,06,42,079,29,07,07,076,27*74
$GPGSV,4,2,14,09,08,038,,12,18,247,17,13,39,184,30,15,14,210,32*78
$GPGSV,4,3,14,17,04,151,15,19,26,153,27,20,39,285,37,25,08,281,*71
$GPGSV,4,4,14,29,09,323,,30,13,112,26*7B
$GPGLL,2458.21841,N,12111.45865,E,093724.00,A,A*6F
$GPRMC,093725.00,A,2458.21808,N,12111.45848,E,0.119,,080621,,,A*71
$GPVTG,,T,,M,0.119,N,0.221,K,A*2B
$GPGGA,093725.00,2458.21808,N,12111.45848,E,1,10,0.92,145.9,M,16.4,M,,*59
$GPGSA,A,3,02,05,06,20,13,19,30,12,07,15,,,1.79,0.92,1.54*0C
$GPGSV,4,1,14,02,61,021,42,05,47,286,35,06,42,079,31,07,07,076,27*7D
$GPGSV,4,2,14,09,08,038,,12,18,247,20,13,39,184,29,15,14,210,30*76
$GPGSV,4,3,14,17,04,151,14,19,26,153,26,20,39,285,36,25,08,281,04*74
$GPGSV,4,4,14,29,09,323,,30,13,112,27*7A
$GPGLL,2458.21808,N,12111.45848,E,093725.00,A,A*6C
$GPRMC,093726.00,A,2458.21785,N,12111.45833,E,0.132,,080621,,,A*7D
$GPVTG,,T,,M,0.132,N,0.245,K,A*20
$GPGGA,093726.00,2458.21785,N,12111.45833,E,1,10,0.92,147.1,M,16.4,M,,*56
$GPGSA,A,3,02,05,06,20,13,19,30,12,07,15,,,1.79,0.92,1.54*0C
$GPGSV,4,1,14,02,61,021,42,05,47,286,35,06,42,079,32,07,07,076,27*7E
$GPGSV,4,2,14,09,08,038,,12,18,247,23,13,39,184,29,15,14,210,30*75
$GPGSV,4,3,14,17,04,151,13,19,26,153,26,20,39,285,36,25,08,281,08*7F
$GPGSV,4,4,14,29,09,323,,30,13,112,26*7B
$GPGLL,2458.21785,N,12111.45833,E,093726.00,A,A*69
$GPRMC,093727.00,A,2458.21761,N,12111.45818,E,0.172,,080621,,,A*7B
$GPVTG,,T,,M,0.172,N,0.319,K,A*2C
$GPGGA,093727.00,2458.21761,N,12111.45818,E,1,10,0.92,148.2,M,16.4,M,,*58
$GPGSA,A,3,02,05,06,20,13,19,30,12,07,15,,,1.79,0.92,1.54*0C
$GPGSV,4,1,14,02,61,021,42,05,47,286,35,06,42,079,32,07,07,076,27*7E
$GPGSV,4,2,14,09,08,038,,12,18,247,25,13,39,184,28,15,14,210,30*72
$GPGSV,4,3,14,17,04,151,14,19,26,153,26,20,39,285,36,25,08,281,13*72
$GPGSV,4,4,14,29,09,323,,30,13,112,26*7B
$GPGLL,2458.21761,N,12111.45818,E,093727.00,A,A*6B
$GPRMC,093728.00,A,2458.21733,N,12111.45798,E,0.191,,080621,,,A*79
$GPVTG,,T,,M,0.191,N,0.353,K,A*2F
$GPGGA,093728.00,2458.21733,N,12111.45798,E,1,10,0.92,149.5,M,16.4,M,,*51
$GPGSA,A,3,02,05,06,20,13,19,30,12,07,15,,,1.79,0.92,1.54*0C
$GPGSV,4,1,14,02,61,021,42,05,47,286,35,06,42,079,33,07,07,076,26*7E
$GPGSV,4,2,14,09,08,038,,12,18,247,25,13,39,184,28,15,14,210,32*70
$GPGSV,4,3,14,17,04,151,13,19,26,153,26,20,39,285,37,25,08,281,14*73
$GPGSV,4,4,14,29,09,323,,30,13,112,26*7B
$GPGLL,2458.21733,N,12111.45798,E,093728.00,A,A*64
$GPRMC,093729.00,A,2458.21718,N,12111.45786,E,0.132,,080621,,,A*77
$GPVTG,,T,,M,0.132,N,0.244,K,A*21
$GPGGA,093729.00,2458.21718,N,12111.45786,E,1,10,0.92,150.1,M,16.4,M,,*5A
$GPGSA,A,3,02,05,06,20,13,19,30,12,07,15,,,1.79,0.92,1.54*0C
$GPGSV,4,1,14,02,61,021,42,05,47,286,35,06,42,079,33,07,07,076,25*7D
$GPGSV,4,2,14,09,08,038,,12,18,247,25,13,39,184,27,15,14,210,32*7F
$GPGSV,4,3,14,17,04,151,10,19,26,153,27,20,39,285,37,25,08,281,14*71
$GPGSV,4,4,14,29,09,323,,30,13,112,25*78
$GPGLL,2458.21718,N,12111.45786,E,093729.00,A,A*63
$GPRMC,093730.00,A,2458.21706,N,12111.45781,E,0.236,,080621,,,A*70
$GPVTG,,T,,M,0.236,N,0.436,K,A*25
$GPGGA,093730.00,2458.21706,N,12111.45781,E,1,10,0.92,150.3,M,16.4,M,,*58
$GPGSA,A,3,02,05,06,20,13,19,30,12,07,15,,,1.79,0.92,1.54*0C
$GPGSV,4,1,14,02,61,021,42,05,47,286,34,06,42,079,34,07,07,076,23*7D
$GPGSV,4,2,14,09,08,038,,12,18,247,25,13,39,184,24,15,14,210,32*7C
$GPGSV,4,3,14,17,04,151,09,19,26,153,27,20,39,285,37,25,08,281,14*79
$GPGSV,4,4,14,29,09,323,20,30,13,112,25*7A
$GPGLL,2458.21706,N,12111.45781,E,093730.00,A,A*63
$GPRMC,093734.00,A,2458.21723,N,12111.45786,E,0.037,,080621,,,A*77
$GPVTG,,T,,M,0.037,N,0.069,K,A*28
$GPGGA,093734.00,2458.21723,N,12111.45786,E,1,10,0.92,148.6,M,16.4,M,,*50
$GPGSA,A,3,02,05,06,20,13,19,30,12,07,15,,,1.79,0.92,1.54*0C
$GPGSV,4,1,14,02,61,021,42,05,47,286,33,06,42,079,33,07,07,076,17*7A
$GPGSV,4,2,14,09,08,038,,12,18,247,29,13,39,184,25,15,14,210,31*72
$GPRMC,093738.00,A,2458.21699,N,12111.45800,E,0.034,,080621,,,A*79
$GPVTG,,T,,M,0.034,N,0.063,K,A*21
$GPGGA,093738.00,2458.21699,N,12111.45800,E,1,10,0.92,148.4,M,16.4,M,,*5F
$GPGSA,A,3,02,05,06,20,13,19,30,12,07,15,,,1.79,0.92,1.54*0C
$GPGSV,4,1,14,02,61,021,42,05,47,286,35,06,42,079,36,07,07,076,17*79
$GPRMC,093739.00,A,2458.21681,N,12111.45802,E,0.108,,080621,,,A*7D
$GPVTG,,T,,M,0.108,N,0.199,K,A*2B
$GPGGA,093739.00,2458.21681,N,12111.45802,E,1,10,0.92,148.8,M,16.4,M,,*59
$GPGSA,A,3,02,05,06,20,13,19,30,12,07,15,,,1.79,0.92,1.54*0C
$GPGSV,4,1,14,02,61,021,42,05,47,286,36,06,42,079,36,07,07,076,17*7A
