$GPRMC,092123.00,A,2458.04146,N,12111.32086,E,0.056,,280521,,,A*75
$GPVTG,,T,,M,0.056,N,0.103,K,A*22
$GPGGA,092123.00,2458.04146,N,12111.32086,E,1,07,1.01,132.3,M,16.4,M,,*51
$GPGSA,A,3,19,06,02,05,17,09,12,,,,,,3.00,1.01,2.83*0D
$GPGSV,4,1,14,02,48,341,24,04,00,035,,05,34,252,22,06,48,039,28*78
$GPGSV,4,2,14,07,00,100,,09,27,052,34,12,27,276,32,13,12,188,*74
$GPGSV,4,3,14,17,30,141,34,19,52,136,40,20,17,250,22,25,08,307,*7A
$GPGSV,4,4,14,28,04,175,19,30,02,135,*7F
$GPRMC,091838.00,A,2458.04021,N,12111.27624,E,0.167,,280521,,,A7C
$GPVTG,,T,,M,0.167,N,0.310,K,A21
$GPGGA,091838.00,2458.04021,N,12111.27624,E,1,07,1.02,124.3,M,16.4,M,,5F
$GPGSA,A,3,19,06,02,17,05,09,12,,,,,,3.06,1.02,2.8902
$GPGSV,4,1,13,02,47,340,27,04,01,035,,05,33,250,17,06,48,037,2375
$GPGSV,4,2,13,09,28,053,17,12,27,278,24,13,11,189,,17,31,140,3370
$GPGSV,4,3,13,19,54,134,26,20,17,249,,25,07,308,,28,05,175,7B
$GPGSV,4,4,13,30,02,136,4E
$GPGLL,2458.04021,N,12111.27624,E,091838.00,A,A69
$GPRMC,091839.00,A,2458.04012,N,12111.27611,E,0.136,,280521,,,A7F
$GPVTG,,T,,M,0.136,N,0.252,K,A22
$GPGGA,091839.00,2458.04012,N,12111.27611,E,1,07,1.02,124.7,M,16.4,M,,5C
$GPGSA,A,3,19,06,02,17,05,09,12,,,,,,3.06,1.02,2.8902
$GPGSV,4,1,13,02,47,340,27,04,01,035,,05,33,250,18,06,48,037,227B
$GPGSV,4,2,13,09,28,053,17,12,27,278,24,13,11,189,,17,31,140,3370
$GPGSV,4,3,13,19,54,134,27,20,17,249,,25,07,308,,28,05,175,7A
$GPGSV,4,4,13,30,02,136,4E
$GPGLL,2458.04012,N,12111.27611,E,091839.00,A,A6E
$GPRMC,091840.00,A,2458.04002,N,12111.27604,E,0.082,,280521,,,A7A
$GPVTG,,T,,M,0.082,N,0.152,K,A2F
$GPGGA,091840.00,2458.04002,N,12111.27604,E,1,07,1.02,124.9,M,16.4,M,,59
$GPGSA,A,3,19,06,02,17,05,09,12,,,,,,3.06,1.02,2.8902
$GPGSV,4,1,13,02,47,340,26,04,01,035,,05,33,250,18,06,48,037,227A
$GPGSV,4,2,13,09,28,053,18,12,27,278,23,13,11,189,,17,31,140,3279
$GPGSV,4,3,13,19,54,134,25,20,17,249,,25,07,308,,28,05,175,78
$GPGSV,4,4,13,30,02,136,4E
$GPGLL,2458.04002,N,12111.27604,E,091840.00,A,A65
$GPRMC,091841.00,A,2458.04011,N,12111.27613,E,0.373,,280521,,,A72
$GPVTG,,T,,M,0.373,N,0.691,K,A2A
$GPGGA,091841.00,2458.04011,N,12111.27613,E,1,07,1.02,124.8,M,16.4,M,,5D
$GPGSA,A,3,19,06,02,17,05,09,12,,,,,,3.06,1.02,2.8902
$GPGSV,4,1,13,02,47,340,27,04,01,035,,05,33,250,18,06,48,037,247D
$GPGSV,4,2,13,09,28,053,17,12,27,278,24,13,11,189,,17,31,140,3271
$GPGSV,4,3,13,19,54,134,27,20,17,249,,25,07,308,,28,05,175,7A
$GPGSV,4,4,13,30,02,136,4E
$GPGLL,2458.04011,N,12111.27613,E,091841.00,A,A60
$GPRMC,091842.00,A,2458.03988,N,12111.27594,E,0.123,,280521,,,A74
$GPVTG,,T,,M,0.123,N,0.227,K,A24
$GPGGA,091842.00,2458.03988,N,12111.27594,E,1,07,1.02,125.3,M,16.4,M,,56
$GPGSA,A,3,19,06,02,17,05,09,12,,,,,,3.06,1.02,2.8803
$GPGSV,4,1,13,02,47,340,27,04,01,035,,05,33,250,18,06,48,037,257C
$GPGSV,4,2,13,09,28,053,17,12,27,278,25,13,11,189,,17,31,140,3270
$GPGSV,4,3,13,19,54,134,27,20,17,249,,25,07,308,,28,05,175,7A
$GPGSV,4,4,13,30,02,136,4E
$GPGLL,2458.03988,N,12111.27594,E,091842.00,A,A61
$GPRMC,091843.00,A,2458.03951,N,12111.27559,E,0.545,,280521,,,A74
$GPVTG,,T,,M,0.545,N,1.010,K,A27
$GPGGA,091843.00,2458.03951,N,12111.27559,E,1,07,1.02,125.5,M,16.4,M,,54
$GPGSA,A,3,19,06,02,17,05,09,12,,,,,,3.06,1.02,2.8803
$GPGSV,4,1,13,02,47,340,28,04,01,035,,05,33,250,18,06,48,037,2472
$GPGSV,4,2,13,09,28,053,19,12,27,278,24,13,11,189,,17,31,140,327F
$GPGSV,4,3,13,19,54,134,26,20,17,249,,25,07,308,,28,05,175,7B
$GPGSV,4,4,13,30,02,136,4E
$GPGLL,2458.03951,N,12111.27559,E,091843.00,A,A65
$GPRMC,091844.00,A,2458.03949,N,12111.27549,E,0.345,,280521,,,A7D
$GPVTG,,T,,M,0.345,N,0.639,K,A2D
$GPGGA,091844.00,2458.03949,N,12111.27549,E,1,07,1.02,125.6,M,16.4,M,,58
$GPGSA,A,3,19,06,02,17,05,09,12,,,,,,3.06,1.02,2.8803
,4,1,13,02,47,340,28,04,01,035,,05,33,250,18,06,48,037,2375
$GPGSV,4,2,13,09,28,053,18,12,27,278,23,13,11,189,,17,31,140,3279
$GPGSV,4,3,13,19,54,134,26,20,17,249,,25,07,308,,28,05,175,7B
$GPGSV,4,4,13,30,02,136,4E
$GPGLL,2458.03949,N,12111.27549,E,091844.00,A,A6A
$GPRMC,091845.00,A,2458.03951,N,12111.27544,E,0.262,,280521,,,A7C
$GPVTG,,T,,M,0.262,N,0.486,K,A2F
$GPGGA,091845.00,2458.03951,N,12111.27544,E,1,07,1.02,125.5,M,16.4,M,,5E
$GPGSA,A,3,19,06,02,17,05,09,12,,,,,,3.06,1.02,2.8803
$GPGSV,4,1,13,02,47,340,27,04,01,035,,05,33,250,18,06,48,037,237A
$GPGSV,4,2,13,09,28,053,18,12,27,278,23,13,11,189,,17,31,140,3279
$GPGSV,4,3,13,19,54,134,26,20,17,249,,25,07,308,,28,05,175,7B
$GPGSV,4,4,13,30,02,136,4E
$GPGLL,2458.03951,N,12111.27544,E,091845.00,A,A6F
$GPRMC,091846.00,A,2458.03943,N,12111.27542,E,0.110,,280521,,,A7C
$GPVTG,,T,,M,0.110,N,0.204,K,A25
$GPGGA,091846.00,2458.03943,N,12111.27542,E,1,07,1.02,125.6,M,16.4,M,,5B
$GPGSA,A,3,19,06,02,17,05,09,12,,,,,,3.06,1.02,2.8803
$GPGSV,4,1,13,02,47,340,27,04,01,035,,05,33,250,18,06,48,037,237A
$GPGSV,4,2,13,09,28,053,18,12,27,278,23,13,11,189,,17,31,140,3279
$GPGSV,4,3,13,19,54,134,26,20,17,249,,25,07,308,,28,05,175,7B
$GPGSV,4,4,13,30,02,136,4E
$GPGLL,2458.03943,N,12111.27542,E,091846.00,A,A69
$GPRMC,091847.00,A,2458.03937,N,12111.27541,E,0.038,,280521,,,A76
$GPVTG,,T,,M,0.038,N,0.070,K,A2F
$GPGGA,091847.00,2458.03937,N,12111.27541,E,1,07,1.02,125.6,M,16.4,M,,5A
$GPGSA,A,3,19,06,02,17,05,09,12,,,,,,3.06,1.02,2.8803
$GPGSV,4,1,13,02,47,340,27,04,01,035,,05,33,250,18,06,48,037,247D
$GPGSV,4,2,13,09,28,053,17,12,27,278,23,13,11,189,,17,31,140,3276
$GPGSV,4,3,13,19,54,134,26,20,17,249,,25,07,308,,28,05,175,7B
$GPGSV,4,4,13,30,02,136,4E
$GPGLL,2458.03937,N,12111.27541,E,091847.00,A,A68
$GPRMC,091848.00,A,2458.03942,N,12111.27544,E,0.259,,280521,,,A7B
$GPVTG,,T,,M,0.259,N,0.479,K,A27
$GPGGA,091848.00,2458.03942,N,12111.27544,E,1,07,1.02,125.7,M,16.4,M,,53
$GPGSV,4,1,13,02,47,340,27,04,01,035,,05,33,250,18,06,48,037,247D
$GPGSV,4,2,13,09,28,053,18,12,27,278,23,13,11,189,,17,31,140,3279
$GPGSV,4,3,13,19,54,134,27,20,17,249,,25,07,308,,28,05,175,7A
$GPGSV,4,4,13,30,02,136,4E
$GPGLL,2458.03942,N,12111.27544,E,091848.00,A,A60
$GPRMC,091849.00,A,2458.03931,N,12111.27533,E,0.162,,280521,,,A75
$GPVTG,,T,,M,0.162,N,0.300,K,A25
$GPGGA,091849.00,2458.03931,N,12111.27533,E,1,07,1.02,125.8,M,16.4,M,,59
$GPGSA,A,3,19,06,02,17,05,09,12,,,,,,3.06,1.02,2.8803
$GPGSV,4,1,13,02,47,340,27,04,01,035,,05,33,250,18,06,48,037,247D
$GPGSV,4,2,13,09,28,053,18,12,27,278,23,13,11,189,,17,31,140,3279
$GPGSV,4,3,13,19,54,134,26,20,17,249,,25,07,308,,28,05,175,7B
$GPGSV,4,4,13,30,02,136,4E
$GPGLL,2458.03931,N,12111.27533,E,091849.00,A,A65
$GPRMC,091850.00,A,2458.03922,N,12111.27536,E,0.263,,280521,,,A78
$GPVTG,,T,,M,0.263,N,0.487,K,A2F
$GPGGA,091850.00,2458.03922,N,12111.27536,E,1,07,1.02,125.8,M,16.4,M,,56
$GPGSA,A,3,19,06,02,17,05,09,12,,,,,,3.06,1.02,2.8803
$GPGSV,4,1,13,02,47,340,27,04,01,035,,05,33,250,18,06,48,037,237A
$GPGSV,4,2,13,09,28,053,19,12,27,278,23,13,11,189,,17,31,140,3278
$GPGSV,4,3,13,19,54,134,26,20,17,249,,25,07,308,,28,05,175,7B
$GPGSV,4,4,13,30,02,136,4E
$GPGLL,2458.03922,N,12111.27536,E,091850.00,A,A6A
$GPRMC,091851.00,A,2458.03906,N,12111.27527,E,0.248,,280521,,,A76
$GPVTG,,T,,M,0.248,N,0.459,K,A25
$GPGGA,091851.00,2458.03906,N,12111.27527,E,1,07,1.02,125.9,M,16.4,M,,50
$GPGSA,A,3,19,06,02,17,05,09,12,,,,,,3.06,1.02,2.8803
$GPGSV,4,1,13,02,47,340,27,04,01,035,,05,33,250,16,06,48,037,2275
$GPGSV,4,2,13,09,28,053,18,12,27,278,23,13,11,189,,17,31,140,3279
$GPGSV,4,3,13,19,54,134,26,20,17,249,,25,07,308,,28,05,175,7B
$GPGSV,4,4,13,30,02,136,4E
$GPGLL,2458.03906,N,12111.27527,E,091851.00,A,A6D
$GPRMC,091852.00,A,2458.03888,N,12111.27503,E,0.249,,280521,,,A75
TG,,T,,M,0.249,N,0.461,K,A2F
$GPGGA,091852.00,2458.03888,N,12111.27503,E,1,07,1.02,126.1,M,16.4,M,,59
$GPGSA,A,3,19,06,02,17,05,09,12,,,,,,3.06,1.02,2.8803
$GPGSV,4,1,13,02,47,340,27,04,01,035,,05,33,250,16,06,48,037,2275
$GPGSV,4,2,13,09,28,053,18,12,27,278,22,13,11,189,,17,31,140,3278
$GPGSV,4,3,13,19,54,134,26,20,17,249,,25,07,308,,28,05,175,7B
$GPGSV,4,4,13,30,02,136,4E
$GPGLL,2458.03888,N,12111.27503,E,091852.00,A,A6F
$GPRMC,091853.00,A,2458.03883,N,12111.27502,E,0.075,,280521,,,A73
$GPVTG,,T,,M,0.075,N,0.138,K,A2B
$GPGGA,091853.00,2458.03883,N,12111.27502,E,1,07,1.02,126.2,M,16.4,M,,51
$GPGSA,A,3,19,06,02,17,05,09,12,,,,,,3.06,1.02,2.8803
$GPGSV,4,1,13,02,47,340,27,04,01,035,,05,33,250,16,06,48,037,2275
$GPGSV,4,2,13,09,28,053,19,12,27,278,23,13,11,189,,17,31,140,317B
$GPGSV,4,3,13,19,54,134,26,20,17,249,,25,07,308,,28,05,175,7B
$GPGSV,4,4,13,30,02,136,4E
$GPGLL,2458.03883,N,12111.27502,E,091853.00,A,A64
$GPRMC,091854.00,A,2458.03873,N,12111.27505,E,0.250,,280521,,,A79
$GPVTG,,T,,M,0.250,N,0.462,K,A24
$GPGGA,091854.00,2458.03873,N,12111.27505,E,1,07,1.02,126.3,M,16.4,M,,5F
$GPGSA,A,3,19,06,02,17,05,09,12,,,,,,3.05,1.02,2.8800
$GPGSV,4,1,13,02,47,340,27,04,01,035,,05,33,250,17,06,48,037,2274
$GPGSV,4,2,13,09,28,053,20,12,27,278,23,13,11,189,,17,31,140,3272
$GPGSV,4,3,13,19,54,134,26,20,17,249,,25,07,308,,28,05,175,7B
$GPGSV,4,4,13,30,02,136,4E
$GPGLL,2458.03873,N,12111.27505,E,091854.00,A,A6B
$GPRMC,091855.00,A,2458.03857,N,12111.27493,E,0.157,,280521,,,A74
$GPVTG,,T,,M,0.157,N,0.290,K,A2B
$GPGGA,091855.00,2458.03857,N,12111.27493,E,1,07,1.02,126.6,M,16.4,M,,53
$GPGSA,A,3,19,06,02,17,05,09,12,,,,,,3.05,1.02,2.8800
$GPGSV,4,1,13,02,48,340,26,04,01,035,,05,33,250,17,06,48,037,227A
$GPGSV,4,2,13,09,28,053,19,12,27,278,22,13,11,189,,17,31,140,317A
$GPGSV,4,3,13,19,54,134,26,20,17,249,,25,07,308,,28,05,175,7B
$GPGSV,4,4,13,30,02,136,4E
$GPGLL,2458.03857,N,12111.27493,E,091855.00,A,A62
$GPRMC,091856.00,A,2458.03854,N,12111.27503,E,0.409,,280521,,,A72
$GPVTG,,T,,M,0.409,N,0.757,K,A2B
$GPGGA,091856.00,2458.03854,N,12111.27503,E,1,07,1.02,126.7,M,16.4,M,,5A
$GPGSA,A,3,19,06,02,17,05,09,12,,,,,,3.05,1.02,2.8800
01,035,,05,33,250,16,06,48,037,237A
$GPGSV,4,2,13,09,28,053,18,12,27,278,23,13,11,189,,17,31,140,3279
$GPGSV,4,3,13,19,54,134,26,20,17,249,,25,07,308,,28,05,175,7B
$GPGSV,4,4,13,30,02,136,4E
$GPGLL,2458.03854,N,12111.27503,E,091856.00,A,A6A
$GPRMC,091857.00,A,2458.03840,N,12111.27496,E,0.253,,280521,,,A72
$GPVTG,,T,,M,0.253,N,0.468,K,A2D
$GPGGA,091857.00,2458.03840,N,12111.27496,E,1,07,1.02,126.9,M,16.4,M,,5D
$GPGSA,A,3,19,06,02,17,05,09,12,,,,,,3.05,1.02,2.8800
$GPGSV,4,1,13,02,48,340,26,04,00,035,,05,33,250,16,06,48,037,237B
$GPGSV,4,2,13,09,28,053,18,12,27,278,24,13,11,189,,17,31,140,327E
$GPGSV,4,3,13,19,54,134,26,20,17,249,,25,07,308,,28,05,175,7B
$GPGSV,4,4,13,30,02,136,4E
$GPGLL,2458.03840,N,12111.27496,E,091857.00,A,A63
$GPRMC,091858.00,A,2458.03835,N,12111.27486,E,0.107,,280521,,,A7C
$GPVTG,,T,,M,0.107,N,0.198,K,A25
$GPGGA,091858.00,2458.03835,N,12111.27486,E,1,07,1.02,127.2,M,16.4,M,,5B
$GPGSA,A,3,19,06,02,17,05,09,12,,,,,,3.05,1.02,2.8800
$GPGSV,4,1,13,02,48,340,27,04,00,035,,05,34,251,15,06,48,037,237F
$GPGSV,4,2,13,09,28,053,19,12,27,278,23,13,11,189,,17,31,140,3278
$GPGSV,4,3,13,19,54,134,26,20,17,249,,25,07,308,,28,05,175,7B
$GPGSV,4,4,13,30,02,136,4E
$GPGLL,2458.03835,N,12111.27486,E,091858.00,A,A6F
$GPRMC,091859.00,A,2458.03825,N,12111.27480,E,0.119,,280521,,,A75
$GPVTG,,T,,M,0.119,N,0.221,K,A2B
$GPGGA,091859.00,2458.03825,N,12111.27480,E,1,07,1.02,127.3,M,16.4,M,,5C
$GPGSA,A,3,19,06,02,17,05,09,12,,,,,,3.05,1.02,2.8800
$GPGSV,4,1,13,02,48,340,27,04,00,035,,05,34,251,16,06,48,038,2373
$GPGSV,4,2,13,09,28,053,19,12,27,278,23,13,11,189,,17,31,140,3278
$GPGSV,4,3,13,19,54,134,26,20,17,249,,25,07,308,,28,05,175,7B
$GPGSV,4,4,13,30,02,136,4E
$GPGLL,2458.03825,N,12111.27480,E,091859.00,A,A69
$GPRMC,091900.00,A,2458.03801,N,12111.27451,E,0.221,,280521,,,A7A
$GPVTG,,T,,M,0.221,N,0.408,K,A2E
$GPGGA,091900.00,2458.03801,N,12111.27451,E,1,07,1.02,127.7,M,16.4,M,,5F
$GPGSA,A,3,19,06,02,17,05,09,12,,,,,,3.05,1.02,2.8800
$GPGSV,4,1,13,02,48,340,27,04,00,035,,05,34,251,16,06,48,038,2474
$GPGSV,4,2,13,09,28,053,19,12,27,278,22,13,11,189,,17,31,140,32*79
$GPGSV,4,3,13,19,54,134,26,20,17,249,,25,07,308,,28,05,175,*7B
$GPGSV,4,4,13,30,02,136,4E
$GPGLL,2458.03801,N,12111.27451,E,091900.00,A,A6E
$GPRMC,091740.00,A,2458.04005,N,12111.27649,E,0.072,,280521,,,A74
$GPVTG,,T,,M,0.072,N,0.134,K,A20
$GPGGA,091740.00,2458.04005,N,12111.27649,E,1,07,1.02,130.1,M,16.4,M,,55
$GPGSA,A,3,19,06,02,17,05,09,12,,,,,,3.08,1.02,2.9004
$GPGSV,4,1,13,02,47,339,27,04,01,036,,05,33,250,14,06,48,036,2178
$GPGSV,4,2,13,09,29,054,15,12,27,278,22,13,10,189,,17,32,140,3073
$GPGSV,4,3,13,19,54,133,22,20,16,249,,25,07,308,,28,06,176,*79
$GPGSV,4,4,13,30,01,137,4C
$GPGLL,2458.04005,N,12111.27649,E,091740.00,A,A64
$GPRMC,091645.00,A,2458.03627,N,12111.27213,E,0.403,,280521,,,A78
$GPVTG,,T,,M,0.403,N,0.746,K,A21
$GPGGA,091645.00,2458.03627,N,12111.27213,E,1,07,1.45,140.4,M,16.4,M,,5A
$GPGSA,A,3,19,06,02,17,05,09,12,,,,,,4.72,1.45,4.490F
$GPGSV,4,1,13,02,47,339,26,04,01,036,,05,33,250,12,06,48,036,1974
$GPGSV,4,2,13,09,29,054,13,12,27,278,17,13,10,189,,17,32,139,307D
$GPGSV,4,3,13,19,55,133,18,20,16,248,,25,07,309,,28,06,176,*71
$GPGSV,4,4,13,30,01,137,4C
$GPGLL,2458.03627,N,12111.27213,E,091645.00,A,A6A
$GPRMC,091646.00,A,2458.03630,N,12111.27198,E,0.137,,280521,,,A7F
$GPVTG,,T,,M,0.137,N,0.253,K,A22
$GPGGA,091646.00,2458.03630,N,12111.27198,E,1,07,1.45,140.3,M,16.4,M,,58
$GPGSA,A,3,19,06,02,17,05,09,12,,,,,,4.72,1.45,4.490F
$GPGSV,4,1,13,02,47,339,26,04,01,036,,05,33,250,13,06,48,036,1975
$GPGSV,4,2,13,09,29,054,10,12,27,278,18,13,10,189,,17,32,139,3071
$GPGSV,4,3,13,19,55,133,18,20,16,248,,25,07,309,,28,06,176,*71
$GPGSV,4,4,13,30,01,137,4C
$GPGLL,2458.03630,N,12111.27198,E,091646.00,A,A6F
