$GPRMC,092641.00,A,2458.07547,N,12111.34385,E,0.300,,280521,,,A76
$GPVTG,,T,,M,0.300,N,0.555,K,A25
$GPGGA,092641.00,2458.07547,N,12111.34385,E,1,08,1.50,156.8,M,16.4,M,,50
$GPGSA,A,3,19,02,06,05,12,17,09,13,,,,,5.22,1.50,5.0001
$GPGSV,4,1,13,02,49,344,39,05,36,255,19,06,48,043,14,07,00,097,73
$GPGSV,4,2,13,09,26,050,14,12,27,273,16,13,14,188,26,17,27,142,2073
$GPGSV,4,3,13,19,50,138,22,20,19,252,,25,08,305,,28,03,174,76
$GPGSV,4,4,13,30,03,133,4A
$GPGLL,2458.07547,N,12111.34385,E,092641.00,A,A60
$GPRMC,092642.00,A,2458.07567,N,12111.34492,E,0.520,,280521,,,A72
$GPVTG,,T,,M,0.520,N,0.964,K,A2F
$GPGGA,092642.00,2458.07567,N,12111.34492,E,1,08,0.95,140.5,M,16.4,M,,52
$GPGSA,A,3,19,02,06,05,12,17,09,13,,,,,2.50,0.95,2.310E
$GPGSV,4,1,13,02,49,344,39,05,36,255,18,06,48,043,14,07,00,097,72
$GPGSV,4,2,13,09,26,050,13,12,27,273,17,13,14,188,26,17,27,142,197F
$GPGSV,4,3,13,19,50,138,21,20,19,252,,25,08,305,,28,03,174,75
$GPGSV,4,4,13,30,03,133,4A
$GPGLL,2458.07567,N,12111.34492,E,092642.00,A,A60
$GPRMC,092643.00,A,2458.07568,N,12111.34530,E,2.436,,280521,,,A71
$GPVTG,,T,,M,2.436,N,4.512,K,A22
$GPGGA,092643.00,2458.07568,N,12111.34530,E,1,08,0.95,136.4,M,16.4,M,,55
$GPGSA,A,3,19,02,06,05,12,17,09,13,,,,,2.50,0.95,2.310E
$GPGSV,4,1,13,02,49,344,39,05,36,255,17,06,48,043,16,07,00,097,7F
$GPGSV,4,2,13,09,26,050,13,12,27,273,19,13,14,188,24,17,27,142,1872
$GPGSV,4,3,13,19,50,138,21,20,19,252,,25,08,305,,28,03,174,75
$GPGSV,4,4,13,30,03,133,4A
$GPGLL,2458.07568,N,12111.34530,E,092643.00,A,A67
$GPRMC,092644.00,A,2458.07555,N,12111.34566,E,2.309,,280521,,,A70
$GPVTG,,T,,M,2.309,N,4.276,K,A2C
$GPGGA,092644.00,2458.07555,N,12111.34566,E,1,08,0.95,136.2,M,16.4,M,,59
$GPGSA,A,3,19,02,06,05,12,17,09,13,,,,,2.50,0.95,2.310E
$GPGSV,4,1,13,02,49,344,34,05,36,255,18,06,48,043,16,07,00,097,7D
$GPGSV,4,2,13,09,26,050,11,12,27,273,21,13,14,188,20,17,27,142,1671
$GPGSV,4,3,13,19,50,138,23,20,19,252,,25,08,305,,28,03,174,77
$GPGSV,4,4,13,30,03,133,4A
$GPGLL,2458.07555,N,12111.34566,E,092644.00,A,A6D
$GPRMC,092645.00,A,2458.07551,N,12111.34593,E,2.100,,280521,,,A74
$GPVTG,,T,,M,2.100,N,3.889,K,A2A
$GPGGA,092645.00,2458.07551,N,12111.34593,E,1,08,0.95,135.7,M,16.4,M,,50
$GPGSA,A,3,19,02,06,05,12,17,09,13,,,,,2.50,0.95,2.310E
$GPGSV,4,1,13,02,49,344,33,05,36,255,19,06,48,043,15,07,00,097,78
$GPGSV,4,2,13,09,26,050,10,12,27,273,22,13,14,188,16,17,27,142,1878
$GPGSV,4,3,13,19,50,138,23,20,19,252,,25,08,305,,28,03,174,77
$GPGSV,4,4,13,30,03,133,4A
$GPGLL,2458.07551,N,12111.34593,E,092645.00,A,A62
$GPRMC,092646.00,A,2458.07606,N,12111.34707,E,0.069,,280521,,,A75
$GPVTG,,T,,M,0.069,N,0.127,K,A28
$GPGGA,092646.00,2458.07606,N,12111.34707,E,1,07,1.40,133.5,M,16.4,M,,5F
$GPGSA,A,3,19,02,06,05,12,17,13,,,,,,3.74,1.40,3.4709
$GPGSV,4,1,13,02,49,344,32,05,36,255,21,06,48,043,15,07,00,097,72
$GPGSV,4,2,13,09,26,050,09,12,27,273,23,13,14,188,16,17,27,142,167F
$GPGSV,4,3,13,19,50,138,25,20,19,253,,25,08,305,,28,03,174,70
$GPGSV,4,4,13,30,03,133,4A
$GPGLL,2458.07606,N,12111.34707,E,092646.00,A,A6F
$GPRMC,092647.00,A,2458.07642,N,12111.34789,E,0.333,,280521,,,A7E
$GPVTG,,T,,M,0.333,N,0.617,K,A20
$GPGGA,092647.00,2458.07642,N,12111.34789,E,1,07,1.40,130.5,M,16.4,M,,5B
$GPGSA,A,3,19,02,06,05,12,17,13,,,,,,3.74,1.40,3.4709
$GPGSV,4,1,13,02,49,344,32,05,36,255,22,06,48,043,18,07,00,097,7C
$GPGSV,4,2,13,09,26,050,09,12,27,273,23,13,14,188,17,17,27,142,177F
$GPGSV,4,3,13,19,50,138,25,20,19,253,,25,08,305,,28,03,174,70
$GPGSV,4,4,13,30,03,133,4A
$GPGLL,2458.07642,N,12111.34789,E,092647.00,A,A68
$GPRMC,092648.00,A,2458.07657,N,12111.34820,E,0.943,,280521,,,A74
$GPVTG,,T,,M,0.943,N,1.747,K,A28
$GPGGA,092648.00,2458.07657,N,12111.34820,E,1,08,1.40,127.9,M,16.4,M,,59
$GPGSA,A,3,19,02,06,05,12,17,20,13,,,,,3.74,1.40,3.470B
$GPGSV,4,1,13,02,49,344,34,05,36,255,24,06,48,043,19,07,00,097,7D
$GPGSV,4,2,13,09,26,050,09,12,27,273,23,13,14,188,17,17,27,142,217A
$GPGSV,4,3,13,19,50,138,23,20,19,253,17,25,08,305,,28,03,174,70
$GPGSV,4,4,13,30,03,133,4A
$GPGLL,2458.07657,N,12111.34820,E,092648.00,A,A6F
$GPRMC,092649.00,A,2458.07680,N,12111.34860,E,0.976,,280521,,,A7D
$GPVTG,,T,,M,0.976,N,1.808,K,A2A
$GPGGA,092649.00,2458.07680,N,12111.34860,E,1,08,1.40,126.2,M,16.4,M,,5C
$GPGSA,A,3,19,02,06,05,12,17,20,13,,,,,3.74,1.40,3.470B
$GPGSV,4,1,13,02,49,344,34,05,36,255,25,06,48,043,20,07,00,097,76
$GPGSV,4,2,13,09,26,050,08,12,27,273,25,13,14,188,20,17,27,142,2179
$GPGSV,4,3,13,19,50,138,22,20,19,253,16,25,08,305,,28,03,174,70
$GPGSV,4,4,13,30,03,133,4A
$GPGLL,2458.07680,N,12111.34860,E,092649.00,A,A60
$GPRMC,092650.00,A,2458.07694,N,12111.34849,E,1.800,,280521,,,A7A
$GPVTG,,T,,M,1.800,N,3.333,K,A2A
$GPGGA,092650.00,2458.07694,N,12111.34849,E,1,08,1.40,126.2,M,16.4,M,,5A
$GPGSA,A,3,19,02,06,05,12,17,20,13,,,,,3.74,1.40,3.470B
$GPGSV,4,1,13,02,49,344,34,05,36,255,22,06,48,043,18,07,00,097,7A
$GPGSV,4,2,13,09,26,050,08,12,27,273,26,13,14,188,19,17,27,142,2071
$GPGSV,4,3,13,19,50,138,21,20,19,253,11,25,08,305,,28,03,174,74
$GPGSV,4,4,13,30,03,133,4A
$GPGLL,2458.07694,N,12111.34849,E,092650.00,A,A66
$GPRMC,092651.00,A,2458.07691,N,12111.34880,E,1.260,,280521,,,A77
$GPVTG,,T,,M,1.260,N,2.333,K,A27
$GPGGA,092651.00,2458.07691,N,12111.34880,E,1,07,1.80,125.9,M,16.4,M,,50
$GPGSA,A,3,19,02,05,12,17,20,13,,,,,,4.14,1.80,3.7307
$GPGSV,4,1,13,02,49,344,36,05,36,255,23,06,48,043,,07,00,097,70
$GPGSV,4,2,13,09,26,050,09,12,27,273,27,13,14,188,21,17,27,142,217B
$GPGSV,4,3,13,19,50,138,21,20,19,253,13,25,08,304,,28,03,174,77
$GPGSV,4,4,13,30,03,133,4A
$GPGLL,2458.07691,N,12111.34880,E,092651.00,A,A67
$GPRMC,092652.00,A,2458.07673,N,12111.34908,E,0.965,,280521,,,A76
$GPVTG,,T,,M,0.965,N,1.787,K,A20
$GPGGA,092652.00,2458.07673,N,12111.34908,E,1,07,1.80,125.7,M,16.4,M,,50
$GPGSA,A,3,19,02,06,05,12,17,13,,,,,,4.14,1.80,3.7303
$GPGSV,4,1,13,02,49,344,37,05,36,255,21,06,48,043,18,07,00,097,7A
$GPGSV,4,2,13,09,26,050,08,12,27,273,26,13,14,188,20,17,27,142,207B
$GPGSV,4,3,13,19,50,138,21,20,19,253,,25,08,304,,28,03,174,75
$GPGSV,4,4,13,30,03,133,4A
$GPGLL,2458.07673,N,12111.34908,E,092652.00,A,A69
$GPRMC,092653.00,A,2458.07653,N,12111.34949,E,0.820,,280521,,,A70
$GPVTG,,T,,M,0.820,N,1.519,K,A25
$GPGGA,092653.00,2458.07653,N,12111.34949,E,1,07,1.80,124.9,M,16.4,M,,59
$GPGSA,A,3,19,02,06,05,12,17,13,,,,,,4.14,1.80,3.7303
$GPGSV,4,1,13,02,49,344,37,05,36,255,21,06,48,043,18,07,00,097,7A
$GPGSV,4,2,13,09,26,050,08,12,27,273,26,13,14,188,22,17,27,142,2079
$GPGSV,4,3,13,19,50,138,24,20,19,253,,25,08,304,,28,03,174,70
$GPGSV,4,4,13,30,03,133,4A
$GPGLL,2458.07653,N,12111.34949,E,092653.00,A,A6F
$GPRMC,092654.00,A,2458.07644,N,12111.34993,E,0.674,,280521,,,A79
$GPVTG,,T,,M,0.674,N,1.249,K,A28
$GPGGA,092654.00,2458.07644,N,12111.34993,E,1,07,1.80,124.0,M,16.4,M,,56
$GPGSA,A,3,19,02,06,05,12,17,13,,,,,,4.14,1.80,3.7303
$GPGSV,4,1,13,02,49,344,36,05,36,255,29,06,48,043,17,07,00,097,7C
$GPGSV,4,2,13,09,26,050,08,12,27,273,27,13,14,188,23,17,27,142,1973
$GPGSV,4,3,13,19,50,138,22,20,19,253,,25,08,304,,28,03,173,71
$GPGSV,4,4,13,30,03,133,4A
$GPGLL,2458.07644,N,12111.34993,E,092654.00,A,A69
$GPRMC,092655.00,A,2458.07630,N,12111.34995,E,0.547,,280521,,,A7E
$GPVTG,,T,,M,0.547,N,1.013,K,A26
$GPGGA,092655.00,2458.07630,N,12111.34995,E,1,08,1.49,124.1,M,16.4,M,,59
$GPGSA,A,3,19,02,06,05,12,17,20,13,,,,,3.93,1.49,3.640A
$GPGSV,4,1,13,02,49,344,36,05,36,255,29,06,48,043,17,07,00,097,7C
$GPGSV,4,2,13,09,26,050,08,12,27,273,26,13,14,188,24,17,27,142,1975
$GPGSV,4,3,13,19,50,138,23,20,19,253,23,25,08,304,16,28,03,173,76
$GPGSV,4,4,13,30,03,133,4A
$GPGLL,2458.07630,N,12111.34995,E,092655.00,A,A6D
$GPRMC,092656.00,A,2458.07613,N,12111.35021,E,0.925,,280521,,,A73
$GPVTG,,T,,M,0.925,N,1.712,K,A28
$GPGGA,092656.00,2458.07613,N,12111.35021,E,1,09,1.04,124.2,M,16.4,M,,57
$GPGSA,A,3,19,02,06,05,12,17,09,20,13,,,,2.54,1.04,2.3202
$GPGSV,4,1,13,02,49,344,32,05,36,255,26,06,48,043,13,07,00,097,73
$GPGSV,4,2,13,09,26,050,08,12,27,273,24,13,14,188,21,17,27,142,1972
$GPGSV,4,3,13,19,50,138,21,20,19,253,20,25,08,304,14,28,03,173,75
$GPGSV,4,4,13,30,03,133,4A
$GPGLL,2458.07613,N,12111.35021,E,092656.00,A,A68
$GPRMC,092657.00,A,2458.07582,N,12111.35041,E,0.937,,280521,,,A7C
$GPVTG,,T,,M,0.937,N,1.735,K,A2E
$GPGGA,092657.00,2458.07582,N,12111.35041,E,1,09,1.04,125.1,M,16.4,M,,59
$GPGSA,A,3,19,02,06,05,12,17,09,20,13,,,,2.54,1.04,2.3202
$GPGSV,4,1,13,02,49,344,35,05,36,255,26,06,48,043,16,07,00,097,71
$GPGSV,4,2,13,09,26,050,09,12,27,273,24,13,14,188,22,17,27,142,1871
$GPGSV,4,3,13,19,50,138,22,20,19,253,16,25,08,304,12,28,03,173,75
$GPGSV,4,4,13,30,03,133,4A
$GPGLL,2458.07582,N,12111.35041,E,092657.00,A,A64
$GPRMC,092658.00,A,2458.07571,N,12111.35037,E,0.034,,280521,,,A74
$GPVTG,,T,,M,0.034,N,0.063,K,A21
$GPGGA,092658.00,2458.07571,N,12111.35037,E,1,09,0.95,126.4,M,16.4,M,,54
$GPGSA,A,3,19,02,06,05,12,17,09,20,13,,,,2.50,0.95,2.310C
$GPGSV,4,1,13,02,49,344,32,05,36,255,26,06,48,043,18,07,00,097,78
$GPGSV,4,2,13,09,26,050,09,12,27,273,25,13,14,188,23,17,27,142,217B
$GPGSV,4,3,13,19,50,138,21,20,19,253,15,25,08,304,13,28,03,173,74
$GPGSV,4,4,13,30,03,133,4A
$GPGLL,2458.07571,N,12111.35037,E,092658.00,A,A66
$GPRMC,092659.00,A,2458.07556,N,12111.35062,E,0.600,,280521,,,A71
$GPVTG,,T,,M,0.600,N,1.111,K,A25
$GPGGA,092659.00,2458.07556,N,12111.35062,E,1,09,0.91,126.5,M,16.4,M,,55
$GPGSA,A,3,19,02,06,05,12,17,09,20,13,,,,2.38,0.91,2.2006
$GPGSV,4,1,13,02,49,344,33,05,36,255,26,06,48,043,19,07,00,097,78
$GPGSV,4,2,13,09,26,050,09,12,27,273,26,13,14,188,25,17,27,142,227D
$GPGSV,4,3,13,19,50,138,24,20,19,253,15,25,08,304,14,28,03,173,76
$GPGSV,4,4,13,30,03,133,4A
$GPGLL,2458.07556,N,12111.35062,E,092659.00,A,A62
$GPRMC,092700.00,A,2458.07550,N,12111.35078,E,0.691,,280521,,,A79
$GPVTG,,T,,M,0.691,N,1.279,K,A20
$GPGGA,092700.00,2458.07550,N,12111.35078,E,1,09,0.91,126.7,M,16.4,M,,57
$GPGSA,A,3,19,02,06,05,12,17,09,20,13,,,,2.38,0.91,2.2006
$GPGSV,4,1,13,02,49,344,31,05,36,255,25,06,48,043,19,07,00,097,79
$GPGSV,4,2,13,09,26,050,09,12,27,273,26,13,14,188,25,17,27,142,1975
$GPGSV,4,3,13,19,50,138,23,20,19,253,17,25,08,304,14,28,03,173,73
$GPGSV,4,4,13,30,03,133,4A
$GPGLL,2458.07550,N,12111.35078,E,092700.00,A,A62
$GPRMC,092701.00,A,2458.07547,N,12111.35083,E,0.332,,280521,,,A76
$GPVTG,,T,,M,0.332,N,0.614,K,A22
$GPGGA,092701.00,2458.07547,N,12111.35083,E,1,09,0.91,126.1,M,16.4,M,,52
$GPGSA,A,3,19,02,06,05,12,17,09,20,13,,,,2.38,0.91,2.2006
$GPGSV,4,1,13,02,49,344,33,05,36,255,25,06,48,043,22,07,00,097,73
$GPGSV,4,2,13,09,26,050,09,12,27,273,26,13,14,188,24,17,27,142,1974
$GPGSV,4,3,13,19,50,138,24,20,19,253,17,25,08,304,14,28,03,173,74
$GPGSV,4,4,13,30,03,133,4A
$GPGLL,2458.07547,N,12111.35083,E,092701.00,A,A61
$GPRMC,092702.00,A,2458.07533,N,12111.35072,E,0.291,,280521,,,A70
$GPVTG,,T,,M,0.291,N,0.538,K,A27
$GPGGA,092702.00,2458.07533,N,12111.35072,E,1,09,0.91,125.8,M,16.4,M,,56
$GPGSA,A,3,19,02,06,05,12,17,09,20,13,,,,2.38,0.91,2.2006
$GPGSV,4,1,13,02,49,344,33,05,36,255,23,06,48,043,23,07,00,097,74
$GPGSV,4,2,13,09,26,050,08,12,27,273,26,13,14,188,22,17,27,142,177D
$GPGSV,4,3,13,19,50,138,24,20,19,253,16,25,08,304,07,28,03,173,77
$GPGSV,4,4,13,30,03,133,4A
$GPGLL,2458.07533,N,12111.35072,E,092702.00,A,A6F
$GPRMC,092703.00,A,2458.07535,N,12111.35089,E,0.500,,280521,,,A7C
$GPVTG,,T,,M,0.500,N,0.926,K,A2B
$GPGGA,092703.00,2458.07535,N,12111.35089,E,1,09,0.91,124.6,M,16.4,M,,5A
$GPGSA,A,3,19,02,06,05,12,17,09,20,13,,,,2.38,0.91,2.2006
$GPGSV,4,1,13,02,49,344,33,05,36,255,22,06,48,043,23,07,00,097,75
$GPGSV,4,2,13,09,26,050,08,12,27,273,26,13,14,188,22,17,27,142,1872
$GPGSV,4,3,13,19,50,138,25,20,19,253,15,25,08,304,07,28,03,173,75
$GPGSV,4,4,13,30,03,133,4A
$GPGLL,2458.07535,N,12111.35089,E,092703.00,A,A6C
$GPRMC,092704.00,A,2458.07545,N,12111.35104,E,0.699,,280521,,,A7B
$GPVTG,,T,,M,0.699,N,1.295,K,A*2A
$GPGGA,092704.00,2458.07545,N,12111.35104,E,1,09,0.91,123.8,M,16.4,M,,57
$GPGSA,A,3,19,02,06,05,12,17,09,20,13,,,,2.38,0.91,2.2006
$GPGSV,4,1,13,02,49,344,32,05,36,255,21,06,48,043,23,07,00,097,77
$GPGSV,4,2,13,09,26,050,08,12,27,273,26,13,14,188,22,17,27,142,1872
$GPGSV,4,3,13,19,50,138,25,20,19,253,14,25,08,304,07,28,03,173,*74
$GPGSV,4,4,13,30,03,133,4A
$GPGLL,2458.07545,N,12111.35104,E,092704.00,A,A68
